~Version Information
VERS.             2.0 : CWLS log ASCII standard - Version 2.0
WRAP.             NO  : One line per depth step
#
~Well Information Block
#MNEM.UNIT                   Data Type:Information
#__________________________________________________________
  STRT.M            397.0000 : START INDEX                   
  STOP.M           1185.9768 : STOP INDEX                    
  STEP.M              0.1524 : STEP                          
  NULL.              -999.25 : NULL VALUE                    
  COMP.              Chevron : COMPANY                       
  WELL.           A12a-CPP-A7 : WELL                          
   FLD.                  A12 : FIELD                         
   LOC.           North Sea Dutch Sector : LOCATION                      
  PROV.                      : PROVINCE                      
  CNTY.                      : COUNTY                        
  STAT.                      : STATE                         
  CTRY.           The Netherlands : COUNTRY                       
  SRVC.           Schlimberger D & M : SERVICE COMPANY               
  DATE.            30-Sep-07 : LOG DATE                      
   UWI.                      : UNIQUE WELL ID                
   API.                      : API NUMBER                    
#
~Curve Information Block
#MNEM.UNIT                     : Curve Description
#---------                     --------------------
DEPT        .M                 : Bit Depth 2hz                                                   
P16H_UNC    .OHMM              : ARC Non-BHCorr Phase-Shift Resistivity 16-in. at 2 MHz          
P22H_UNC    .OHMM              : ARC Non-BHCorr Phase-Shift Resistivity 22-in. at 2 MHz          
P28H_UNC    .OHMM              : ARC Non-BHCorr Phase-Shift Resistivity 28-in. at 2 MHz          
P34H_UNC    .OHMM              : ARC Non-BHCorr Phase-Shift Resistivity 34-in. at 2 MHz          
P40H_UNC    .OHMM              : ARC Non-BHCorr Phase-Shift Resistivity 40-in. at 2 MHz          
A16H_UNC    .OHMM              : ARC Non-BHCorr Attenuation Resistivity 16-in. at 2 MHz          
A22H_UNC    .OHMM              : ARC Non-BHCorr Attenuation Resistivity 22-in. at 2 MHz          
A28H_UNC    .OHMM              : ARC Non-BHCorr Attenuation Resistivity 28-in. at 2 MHz          
A34H_UNC    .OHMM              : ARC Non-BHCorr Attenuation Resistivity 34-in. at 2 MHz          
A40H_UNC    .OHMM              : ARC Non-BHCorr Attenuation Resistivity 40-in. at 2 MHz          
DRHB        .G/C3              : Bulk Density Correction, Bottom                                 
DRHO        .G/C3              : Bulk Density Correction                                         
ROBB        .G/C3              : Bulk Density, Bottom                                            
RHOB        .G/C3              : Bulk Density                                                    
TNPH        .PU                : Thermal Neutron Porosity (Ratio Method) in Selected Lithology   
GR_ARC      .GAPI              : ARC Gamma Ray                                                   
HORD        .IN                : Horizontal Hole Diameter                                        
VERD        .IN                : Vertical Hole Diameter                                          
ROP5_RM     .M/HR              : Rate of Penetration, Averaged over Last 5ft                     
#
~Parameter Information Block
#MNEM.UNIT                       Value:Description
#__________________________________________________________
#
~Other Information Block

#
~A    DEPT   P16H_UNC   P22H_UNC   P28H_UNC   P34H_UNC   P40H_UNC   A16H_UNC   A22H_UNC   A28H_UNC   A34H_UNC   A40H_UNC       DRHB       DRHO       ROBB       RHOB       TNPH     GR_ARC       HORD       VERD    ROP5_RM
# ...
    447.75      13.59      13.96      14.60      15.13      15.25      12.40      12.60      12.99      13.12      12.87      -0.06      -0.02       1.68       1.69       6.97      61.08      12.54      12.95      40.75
    447.90      11.15      10.70      10.62      10.10       9.00      13.22      13.64      14.11      15.40      17.62      -0.06      -0.03       1.69       1.68       7.06      62.47      12.51      13.07      42.42
    448.06      12.39      12.81      13.10      12.85      12.25      12.60      13.46      13.82      14.84      17.19      -0.05      -0.03       1.69       1.67       7.01      61.91      12.79      13.05      44.25
    448.21      13.17      13.99      14.47      14.64      14.81      12.68      13.29      13.47      13.74      14.26      -0.05      -0.03       1.67       1.68       6.69      63.19      12.79      13.05      44.54
    448.36      15.29      15.66      15.88      16.21      16.76      12.33      13.12      13.24      13.33      13.71      -0.06      -0.03       1.66       1.67       6.34      63.19      12.53      12.68      44.46
    448.51      17.13      17.72      17.85      18.32      19.51      11.99      12.61      12.67      12.75      13.11      -0.06      -0.03       1.65       1.65       5.71      63.16      12.66      12.97      44.82
    448.67      17.71      17.80      18.09      18.47      18.74      11.69      12.19      11.95      11.80      12.13      -0.06      -0.04       1.64       1.64       5.23      60.37      12.66      12.97      45.14
    448.82      18.69      18.14      18.04      18.07      17.90      10.55      11.13      10.87      10.83      11.41      -0.05      -0.03       1.66       1.65       4.76      58.36      12.98      12.76      45.34
    448.97      19.29      18.82      18.46      18.44      18.71      10.10      10.62      10.36      10.18      10.48      -0.05      -0.03       1.67       1.66       4.51      57.55      12.74      12.85      45.14
    449.12      18.62      18.22      18.18      18.35      18.46       8.69       9.04       9.00       8.96       9.14      -0.05      -0.03       1.70       1.68       4.28      58.70      12.74      12.85      44.88
    449.28      15.86      15.82      15.95      16.14      16.24       7.34       7.69       7.69       7.71       7.92      -0.05      -0.03       1.71       1.68       4.45      57.38      12.57      12.74      43.97
    449.43      13.59      13.89      13.91      13.99      14.34       6.35       6.57       6.60       6.70       6.94      -0.05      -0.03       1.75       1.70       5.28      59.78      12.56      12.77      43.51
    449.58       9.94      10.15      10.76      11.45      11.77       4.83       5.03       5.19       5.30       5.44      -0.04      -0.03       1.80       1.74       7.20      61.62      12.56      12.77      42.65
    449.73       7.23       7.22       7.68       8.17       8.15       4.18       4.38       4.53       4.64       4.75      -0.04      -0.02       1.89       1.81      10.70      66.26      12.56      12.70      41.87
    449.88       4.86       5.25       5.68       6.12       6.50       3.38       3.62       3.83       4.00       4.14      -0.03      -0.02       2.00       1.91      15.02      72.61      12.45      12.76      41.20
    450.04       3.82       4.00       4.33       4.66       4.76       2.80       2.97       3.14       3.28       3.38      -0.02       0.00       2.13       2.04      21.20      81.09      12.39      12.62      40.83
    450.19       2.81       3.03       3.26       3.39       3.41       2.53       2.66       2.80       2.94       3.08      -0.01       0.02       2.17       2.14      26.28      90.42      12.39      12.62      40.05
    450.34       2.08       2.26       2.39       2.44       2.48       2.06       2.22       2.35       2.50       2.65       0.00       0.04       2.18       2.18      33.81     102.31      12.40      12.56      39.76
    450.49       1.78       1.90       1.95       1.99       2.09       1.80       1.95       2.07       2.18       2.31      -0.00       0.05       2.17       2.19      39.43     113.28      12.40      12.80      39.19
    450.65       1.69       1.78       1.81       1.87       2.01       1.65       1.81       1.91       1.98       2.08      -0.00       0.05       2.16       2.17      42.40     120.99      12.40      12.80      38.43
    450.80       1.62       1.70       1.73       1.78       1.90       1.53       1.65       1.73       1.81       1.93      -0.01       0.04       2.15       2.16      42.95     122.22      12.51      12.92      37.97
    450.95       1.57       1.61       1.62       1.68       1.84       1.46       1.55       1.62       1.66       1.71       0.00       0.05       2.13       2.14      43.82     119.74      12.36      12.61      37.84
    451.10       1.51       1.51       1.50       1.53       1.60       1.42       1.47       1.51       1.57       1.66       0.01       0.04       2.13       2.12      46.31     114.90      12.36      12.61      37.84
    451.26       1.43       1.41       1.41       1.41       1.42       1.41       1.45       1.49       1.54       1.60       0.01       0.04       2.13       2.12      47.94     118.51      12.40      12.73      37.84
    451.41       1.39       1.38       1.37       1.37       1.35       1.36       1.40       1.44       1.49       1.56       0.00       0.03       2.13       2.12      46.86     117.36      12.35      12.66      37.84
    451.56       1.37       1.38       1.38       1.38       1.38       1.37       1.38       1.40       1.44       1.49       0.00       0.03       2.12       2.12      44.35     119.88      12.35      12.66      37.84
    451.71       1.35       1.35       1.35       1.35       1.34       1.33       1.37       1.41       1.45       1.49       0.01       0.03       2.12       2.11      46.23     112.59      12.54      12.60      38.10
    451.87       1.34       1.33       1.32       1.33       1.34       1.33       1.38       1.41       1.45       1.49      -0.00       0.03       2.12       2.11      43.61     114.18      12.53      12.93      38.25
    452.02       1.33       1.33       1.34       1.35       1.36       1.35       1.38       1.41       1.44       1.45      -0.01       0.03       2.11       2.10      47.61     117.14      12.53      12.93      38.46
    452.17       1.34       1.35       1.36       1.36       1.36       1.34       1.35       1.38       1.42       1.45      -0.01       0.03       2.09       2.10      44.04     121.14      12.40      12.78      38.64
    452.32       1.33       1.33       1.33       1.34       1.35       1.35       1.38       1.41       1.45       1.48      -0.00       0.03       2.09       2.10      46.58     123.49      12.42      12.75      38.64
    452.48       1.32       1.32       1.32       1.32       1.33       1.33       1.37       1.40       1.43       1.45       0.00       0.04       2.10       2.11      45.88     125.05      12.47      12.81      38.91
    452.63       1.33       1.32       1.31       1.32       1.33       1.31       1.36       1.40       1.42       1.43      -0.00       0.04       2.09       2.09      50.46     125.65      12.47      12.81      39.06
    452.78       1.31       1.30       1.30       1.30       1.31       1.32       1.35       1.37       1.40       1.43      -0.01       0.03       2.09       2.09      50.71     127.78      12.66      12.94      39.19
    452.93       1.31       1.31       1.31       1.32       1.33       1.32       1.35       1.37       1.40       1.43      -0.01       0.02       2.10       2.08      52.38     128.92      12.37      13.06      39.19
    453.09       1.32       1.31       1.30       1.30       1.30       1.28       1.33       1.38       1.42       1.46      -0.01       0.02       2.10       2.08      51.65     128.28      12.37      13.06      39.15
    453.24       1.32       1.31       1.30       1.31       1.32       1.30       1.35       1.39       1.42       1.44      -0.01       0.02       2.10       2.08      52.77     126.80      12.35      13.05      38.91
