~Version Information
VERS.             2.0 : CWLS log ASCII standard - Version 2.0
WRAP.             NO  : One line per depth step
#
~Well Information Block
#MNEM.UNIT                   Data Type:Information
#__________________________________________________________
  STRT.M            397.0000 : START INDEX                   
  STOP.M           1185.9768 : STOP INDEX                    
  STEP.M              0.1524 : STEP                          
  NULL.              -999.25 : NULL VALUE                    
  COMP.              Chevron : COMPANY                       
  WELL.           A12a-CPP-A7 : WELL                          
   FLD.                  A12 : FIELD                         
   LOC.           North Sea Dutch Sector : LOCATION                      
  PROV.                      : PROVINCE                      
  CNTY.                      : COUNTY                        
  STAT.                      : STATE                         
  CTRY.           The Netherlands : COUNTRY                       
  SRVC.           Schlimberger D & M : SERVICE COMPANY               
  DATE.            30-Sep-07 : LOG DATE                      
   UWI.                      : UNIQUE WELL ID                
   API.                      : API NUMBER                    
#
~Curve Information Block
#MNEM.UNIT                     : Curve Description
#---------                     --------------------
DEPT        .M                 : Bit Depth 2hz                                                   
P16H_UNC    .OHMM              : ARC Non-BHCorr Phase-Shift Resistivity 16-in. at 2 MHz          
P22H_UNC    .OHMM              : ARC Non-BHCorr Phase-Shift Resistivity 22-in. at 2 MHz          
P28H_UNC    .OHMM              : ARC Non-BHCorr Phase-Shift Resistivity 28-in. at 2 MHz          
P34H_UNC    .OHMM              : ARC Non-BHCorr Phase-Shift Resistivity 34-in. at 2 MHz          
P40H_UNC    .OHMM              : ARC Non-BHCorr Phase-Shift Resistivity 40-in. at 2 MHz          
A16H_UNC    .OHMM              : ARC Non-BHCorr Attenuation Resistivity 16-in. at 2 MHz          
A22H_UNC    .OHMM              : ARC Non-BHCorr Attenuation Resistivity 22-in. at 2 MHz          
A28H_UNC    .OHMM              : ARC Non-BHCorr Attenuation Resistivity 28-in. at 2 MHz          
A34H_UNC    .OHMM              : ARC Non-BHCorr Attenuation Resistivity 34-in. at 2 MHz          
A40H_UNC    .OHMM              : ARC Non-BHCorr Attenuation Resistivity 40-in. at 2 MHz          
DRHB        .G/C3              : Bulk Density Correction, Bottom                                 
DRHO        .G/C3              : Bulk Density Correction                                         
ROBB        .G/C3              : Bulk Density, Bottom                                            
RHOB        .G/C3              : Bulk Density                                                    
TNPH        .PU                : Thermal Neutron Porosity (Ratio Method) in Selected Lithology   
GR_ARC      .GAPI              : ARC Gamma Ray                                                   
HORD        .IN                : Horizontal Hole Diameter                                        
VERD        .IN                : Vertical Hole Diameter                                          
ROP5_RM     .M/HR              : Rate of Penetration, Averaged over Last 5ft                     
#
~Parameter Information Block
#MNEM.UNIT                       Value:Description
#__________________________________________________________
#
~Other Information Block

#
~A    DEPT   P16H_UNC   P22H_UNC   P28H_UNC   P34H_UNC   P40H_UNC   A16H_UNC   A22H_UNC   A28H_UNC   A34H_UNC   A40H_UNC       DRHB       DRHO       ROBB       RHOB       TNPH     GR_ARC       HORD       VERD    ROP5_RM
# ...
    605.64       1.33       1.31       1.28       1.26       1.26       1.31       1.34       1.38       1.45       1.52      -0.00       0.08       2.08       2.04      46.94      79.31      12.79      13.18      38.91
    605.79       1.39       1.36       1.32       1.30       1.30       1.30       1.31       1.34       1.39       1.44       0.00       0.09       2.09       2.04      45.77      82.81      12.71      13.23      38.85
    605.94       1.47       1.43       1.40       1.36       1.33       1.29       1.30       1.31       1.30       1.29      -0.00       0.07       2.11       2.03      46.20      83.82      12.67      13.34      38.74
    606.09       1.49       1.44       1.40       1.36       1.33       1.28       1.31       1.32       1.32       1.32      -0.00       0.06       2.11       2.01      41.87      85.43      12.83      13.75      38.64
    606.25       1.52       1.47       1.42       1.39       1.36       1.32       1.34       1.35       1.35       1.36      -0.00       0.07       2.13       2.01      41.25      86.96      12.83      13.75      38.64
    606.40       1.56       1.51       1.47       1.43       1.39       1.35       1.35       1.35       1.36       1.39      -0.01       0.06       2.10       2.02      40.55      87.91      12.84      13.72      38.54
    606.55       1.58       1.54       1.51       1.47       1.43       1.38       1.36       1.34       1.35       1.39      -0.01       0.08       2.08       2.05      43.11      87.19      13.14      13.76      38.37
    606.70       1.61       1.57       1.54       1.51       1.48       1.40       1.38       1.35       1.35       1.39      -0.01       0.08       2.06       2.08      40.73      87.45      13.14      13.76      38.21
    606.86       1.68       1.62       1.57       1.54       1.50       1.35       1.37       1.35       1.33       1.32      -0.01       0.10       2.07       2.08      43.58      91.08      12.91      13.59      37.84
    607.01       1.69       1.63       1.59       1.55       1.52       1.35       1.35       1.35       1.34       1.35       0.00       0.08       2.10       2.07      45.20      96.15      13.19      13.27      38.37
    607.16       1.69       1.63       1.59       1.54       1.51       1.35       1.34       1.34       1.34       1.33       0.02       0.09       2.09       2.04      49.10      95.44      13.19      13.27      38.10
    607.31       1.66       1.63       1.59       1.55       1.52       1.38       1.35       1.32       1.29       1.26      -0.00      -0.00       2.06       2.06      46.42      88.90      13.37      13.50      37.90
    607.47       1.68       1.68       1.63       1.56       1.51       1.36       1.30       1.27       1.26       1.23      -0.01       0.06       2.05       2.04      43.59      81.24      12.87      13.77      37.84
    607.62       1.71       1.70       1.65       1.59       1.53       1.35       1.29       1.26       1.25       1.24      -0.00       0.09       2.09       2.08      40.75      80.66      12.87      13.77      37.93
    607.77       1.71       1.67       1.63       1.58       1.55       1.34       1.32       1.32       1.33       1.33       0.01       0.09       2.10       2.09      40.11      84.29      13.39    -999.25      38.01
    607.92       1.72       1.69       1.65       1.61       1.58       1.34       1.32       1.32       1.34       1.33       0.00       0.07       2.07       2.08      39.95      87.80      13.10      13.26      37.84
    608.08       1.71       1.69       1.66       1.60       1.51       1.35       1.28       1.25       1.26       1.27      -0.01       0.08       2.04       2.04      41.07      87.17      12.97      13.21      37.84
    608.23       1.63       1.55       1.50       1.45       1.39       1.31       1.30       1.31       1.33       1.35      -0.01       0.07       2.06       2.00      40.23      88.85      12.97      13.21      38.51
    608.38       1.42       1.38       1.35       1.33       1.29       1.33       1.34       1.37       1.40       1.42      -0.01       0.05       2.07       1.96      42.30      93.41      13.37      13.04      38.91
    608.53       1.38       1.36       1.34       1.32       1.30       1.34       1.34       1.36       1.38       1.39      -0.01       0.06       2.07       1.98      43.37      97.76      12.85      13.47      38.91
    608.69       1.37       1.34       1.32       1.31       1.30       1.31       1.31       1.32       1.34       1.36      -0.01       0.07       2.07       2.02      44.27      96.64      12.85      13.47      39.11
    608.84       1.36       1.33       1.31       1.28       1.26       1.29       1.31       1.34       1.37       1.38      -0.00       0.10       2.07       2.06      43.78      93.11      12.90      13.36      38.64
    608.99       1.35       1.34       1.32       1.29       1.26       1.33       1.35       1.37       1.39       1.41      -0.00       0.10       2.06       2.06      43.06      89.25      12.74      13.17      38.84
    609.14       1.38       1.35       1.33       1.30       1.27       1.32       1.35       1.38       1.41       1.44      -0.00       0.09       2.06       2.06      42.40      86.69      12.74      13.17      38.58
    609.30       1.38       1.36       1.34       1.33       1.30       1.34       1.37       1.41       1.44       1.46      -0.01       0.08       2.05       2.03      41.65      84.74      12.66      13.24      38.64
    609.45       1.38       1.36       1.34       1.33       1.32       1.36       1.38       1.41       1.44       1.46      -0.01       0.07       2.06       2.01      40.73      82.89      12.65      13.34      38.79
    609.60       1.40       1.38       1.36       1.34       1.33       1.37       1.37       1.39       1.43       1.48      -0.01       0.07       2.06       2.01      41.33      81.46      12.97      13.62      38.76
    609.75       1.44       1.41       1.38       1.36       1.34       1.35       1.38       1.40       1.44       1.47      -0.01       0.06       2.07       2.02      42.06      81.82      12.97      13.62      38.45
    609.90       1.45       1.43       1.41       1.39       1.39       1.41       1.44       1.47       1.51       1.57      -0.01       0.06       2.08       2.03      46.07      83.19      13.02      13.87      38.05
    610.06       1.47       1.44       1.42       1.42       1.44       1.43       1.46       1.49       1.54       1.58      -0.01       0.06       2.08       2.04      46.26      85.90      12.85      13.54      38.04
    610.21       1.50       1.49       1.48       1.48       1.48       1.49       1.49       1.52       1.55       1.56      -0.00       0.06       2.10       2.06      45.40      88.04      12.85      13.54      38.43
    610.36       1.53       1.52       1.51       1.50       1.50       1.51       1.49       1.50       1.55       1.60       0.00       0.06       2.11       2.06      43.11      88.24      13.40      13.54      38.64
    610.51       1.57       1.56       1.54       1.52       1.50       1.54       1.54       1.55       1.56       1.57       0.00       0.07       2.09       2.07      45.17      89.52      12.75      13.67      38.73
    610.67       1.62       1.60       1.59       1.56       1.54       1.54       1.60       1.63       1.65       1.68      -0.00       0.08       2.08       2.08      44.01      90.84      12.75      13.67      38.87
    610.82       1.64       1.63       1.62       1.60       1.59       1.60       1.63       1.67       1.71       1.77      -0.01       0.08       2.06       2.08      46.30      93.00      13.07      13.70      38.53
    610.97       1.69       1.67       1.65       1.65       1.66       1.63       1.69       1.73       1.76       1.80      -0.01       0.08       2.09       2.08      42.90      94.04      12.95      13.39      38.26
    611.12       1.72       1.70       1.68       1.68       1.70       1.67       1.70       1.73       1.75       1.79      -0.00       0.07       2.11       2.08      45.43      96.76      12.95      13.39      37.94
