~Version Information
VERS.             2.0 : CWLS log ASCII standard - Version 2.0
WRAP.             NO  : One line per depth step
#
~Well Information Block
#MNEM.UNIT                   Data Type:Information
#__________________________________________________________
  STRT.M            397.0000 : START INDEX                   
  STOP.M           1185.9768 : STOP INDEX                    
  STEP.M              0.1524 : STEP                          
  NULL.              -999.25 : NULL VALUE                    
  COMP.              Chevron : COMPANY                       
  WELL.           A12a-CPP-A7 : WELL                          
   FLD.                  A12 : FIELD                         
   LOC.           North Sea Dutch Sector : LOCATION                      
  PROV.                      : PROVINCE                      
  CNTY.                      : COUNTY                        
  STAT.                      : STATE                         
  CTRY.           The Netherlands : COUNTRY                       
  SRVC.           Schlimberger D & M : SERVICE COMPANY               
  DATE.            30-Sep-07 : LOG DATE                      
   UWI.                      : UNIQUE WELL ID                
   API.                      : API NUMBER                    
#
~Curve Information Block
#MNEM.UNIT                     : Curve Description
#---------                     --------------------
DEPT        .M                 : Bit Depth 2hz                                                   
P16H_UNC    .OHMM              : ARC Non-BHCorr Phase-Shift Resistivity 16-in. at 2 MHz          
P22H_UNC    .OHMM              : ARC Non-BHCorr Phase-Shift Resistivity 22-in. at 2 MHz          
P28H_UNC    .OHMM              : ARC Non-BHCorr Phase-Shift Resistivity 28-in. at 2 MHz          
P34H_UNC    .OHMM              : ARC Non-BHCorr Phase-Shift Resistivity 34-in. at 2 MHz          
P40H_UNC    .OHMM              : ARC Non-BHCorr Phase-Shift Resistivity 40-in. at 2 MHz          
A16H_UNC    .OHMM              : ARC Non-BHCorr Attenuation Resistivity 16-in. at 2 MHz          
A22H_UNC    .OHMM              : ARC Non-BHCorr Attenuation Resistivity 22-in. at 2 MHz          
A28H_UNC    .OHMM              : ARC Non-BHCorr Attenuation Resistivity 28-in. at 2 MHz          
A34H_UNC    .OHMM              : ARC Non-BHCorr Attenuation Resistivity 34-in. at 2 MHz          
A40H_UNC    .OHMM              : ARC Non-BHCorr Attenuation Resistivity 40-in. at 2 MHz          
DRHB        .G/C3              : Bulk Density Correction, Bottom                                 
DRHO        .G/C3              : Bulk Density Correction                                         
ROBB        .G/C3              : Bulk Density, Bottom                                            
RHOB        .G/C3              : Bulk Density                                                    
TNPH        .PU                : Thermal Neutron Porosity (Ratio Method) in Selected Lithology   
GR_ARC      .GAPI              : ARC Gamma Ray                                                   
HORD        .IN                : Horizontal Hole Diameter                                        
VERD        .IN                : Vertical Hole Diameter                                          
ROP5_RM     .M/HR              : Rate of Penetration, Averaged over Last 5ft                     
#
~Parameter Information Block
#MNEM.UNIT                       Value:Description
#__________________________________________________________
#
~Other Information Block

#
~A    DEPT   P16H_UNC   P22H_UNC   P28H_UNC   P34H_UNC   P40H_UNC   A16H_UNC   A22H_UNC   A28H_UNC   A34H_UNC   A40H_UNC       DRHB       DRHO       ROBB       RHOB       TNPH     GR_ARC       HORD       VERD    ROP5_RM
# ...
   1068.02       2.40       2.41       2.42       2.44       2.47       1.80       1.82       1.84       1.86       1.88       0.00       0.08       2.13       2.12      47.20     110.11      13.22      13.45      27.27
   1068.17       2.40       2.43       2.44       2.43       2.44       1.81       1.79       1.80       1.88       2.00       0.00       0.08       2.13       2.12      44.31     106.53      12.46      13.59      27.03
   1068.32       2.38       2.39       2.41       2.44       2.47       1.83       1.85       1.86       1.89       1.92       0.01       0.08       2.14       2.13      43.87     105.23      13.08      13.53      26.60
   1068.48       2.36       2.41       2.43       2.44       2.44       1.87       1.84       1.83       1.89       1.97       0.01       0.08       2.15       2.13      43.05     109.14      13.08      13.53      26.29
   1068.63       2.38       2.40       2.41       2.43       2.44       1.83       1.83       1.86       1.93       2.01       0.00       0.07       2.13       2.12      43.70     112.50      12.83      13.37      26.38
   1068.78       2.32       2.36       2.40       2.43       2.45       1.87       1.86       1.86       1.88       1.92       0.00       0.07       2.14       2.12      45.70     115.30      12.67      13.50      26.76
   1068.93       2.35       2.38       2.40       2.40       2.40       1.82       1.81       1.84       1.91       1.99       0.00       0.07       2.14       2.12      47.31     116.18      12.82      13.60      27.57
   1069.09       2.33       2.36       2.39       2.43       2.44       1.83       1.84       1.86       1.88       1.91       0.01       0.07       2.14       2.13      48.88     116.79      12.82      13.60      28.28
   1069.24       2.32       2.36       2.41       2.42       2.42       1.87       1.86       1.85       1.88       1.93      -0.00       0.07       2.12       2.13      45.59     115.31      13.00      13.36      29.46
   1069.39       2.36       2.37       2.39       2.43       2.48       1.87       1.88       1.90       1.94       1.99       0.00       0.07       2.13       2.13      41.41     109.74      12.73      13.37      30.33
   1069.54       2.33       2.36       2.40       2.46       2.51       1.92       1.93       1.94       1.95       1.97      -0.00       0.07       2.14       2.14      40.84     107.58      13.09      13.26      31.67
   1069.70       2.33       2.37       2.40       2.45       2.50       1.94       1.94       1.96       2.01       2.07       0.01       0.07       2.15       2.14      44.35     108.87      13.09      13.26      32.84
   1069.85       2.33       2.36       2.40       2.46       2.53       1.94       1.96       1.99       2.02       2.05       0.00       0.06       2.14       2.12      48.49     111.36      12.82      13.26      33.46
   1070.00       2.30       2.37       2.42       2.46       2.49       1.97       1.96       1.97       2.01       2.08       0.00       0.05       2.14       2.11      46.90     110.24      13.06      13.43      34.73
   1070.15       2.31       2.35       2.40       2.46       2.51       1.98       2.00       2.01       2.01       2.01      -0.00       0.06       2.13       2.11      42.43     109.15      13.01      13.44      35.17
   1070.31       2.28       2.36       2.42       2.46       2.50       1.99       1.98       1.98       2.00       2.03      -0.00       0.07       2.13       2.12      43.65     108.28      13.01      13.44      35.16
   1070.46       2.31       2.36       2.40       2.46       2.53       1.96       1.98       2.01       2.02       2.02      -0.00       0.07       2.14       2.12      48.35     110.51      12.83      13.43      34.95
   1070.61       2.28       2.36       2.43       2.47       2.52       1.99       1.97       1.96       1.97       1.99      -0.01       0.06       2.14       2.12      50.46     110.90      12.85      13.53      34.95
   1070.76       2.33       2.38       2.42       2.46       2.51       1.92       1.94       1.97       2.00       2.03      -0.00       0.06       2.15       2.12      46.75     109.90      12.85      13.53      34.94
   1070.91       2.34       2.39       2.43       2.48       2.54       1.93       1.95       1.98       2.00       2.02      -0.00       0.07       2.14       2.13      43.57     104.39      12.93      13.33      34.94
   1071.07       2.30       2.37       2.44       2.49       2.53       1.98       1.98       1.97       1.97       1.99       0.00       0.08       2.14       2.14      43.92     103.60      13.04      13.47      34.73
   1071.22       2.33       2.40       2.45       2.48       2.51       1.97       1.96       1.96       2.00       2.05       0.01       0.09       2.14       2.15      43.31     105.55      13.04      13.47      34.91
   1071.37       2.36       2.40       2.44       2.49       2.55       1.95       1.97       2.00       2.01       2.01       0.00       0.09       2.13       2.15      44.97     110.51      13.01      13.38      34.76
   1071.52       2.31       2.39       2.45       2.48       2.52       2.01       1.97       1.96       1.98       2.01      -0.00       0.08       2.13       2.14      41.97     112.11      13.15      13.48      34.71
   1071.68       2.33       2.40       2.45       2.48       2.50       1.97       1.96       1.96       2.00       2.04      -0.01       0.08       2.12       2.13      44.79     108.84      13.24      13.62      34.63
   1071.83       2.32       2.37       2.42       2.49       2.57       1.96       1.98       1.99       1.98       1.96      -0.00       0.08       2.12       2.13      41.17     106.25      13.24      13.62      34.73
   1071.98       2.32       2.37       2.43       2.48       2.54       1.98       1.98       1.98       1.97       1.97      -0.00       0.08       2.13       2.13      44.58     106.14      13.24      13.54      34.50
   1072.13       2.34       2.39       2.43       2.46       2.50       1.95       1.95       1.97       2.01       2.05       0.01       0.08       2.15       2.14      43.09     112.73      13.15      13.58      34.57
   1072.29       2.34       2.38       2.42       2.47       2.52       1.96       1.98       2.00       2.02       2.03       0.01       0.09       2.15       2.14      43.92     112.72      13.23      13.51      34.37
   1072.44       2.32       2.37       2.42       2.48       2.54       2.00       2.00       2.00       2.00       2.00       0.01       0.09       2.16       2.14      42.40     111.24      13.23      13.51      34.51
   1072.59       2.33       2.39       2.44       2.47       2.50       1.98       1.96       1.98       2.02       2.07       0.01       0.10       2.14       2.14      40.39     109.02      13.20      13.47      34.29
   1072.74       2.36       2.39       2.42       2.45       2.50       1.96       1.98       2.01       2.04       2.06       0.00       0.08       2.13       2.13      42.20     111.89      13.17      13.66      34.47
   1072.90       2.32       2.37       2.42       2.46       2.50       2.01       2.00       2.01       2.01       2.01       0.01       0.08       2.13       2.13      46.22     111.61      13.17      13.66      34.24
   1073.05       2.35       2.39       2.42       2.44       2.48       1.96       1.98       2.01       2.05       2.08       0.01       0.09       2.14       2.14      49.60     110.19      13.23      13.56      34.20
   1073.20       2.33       2.36       2.40       2.45       2.51       1.98       2.01       2.03       2.03       2.03      -0.00       0.08       2.14       2.14      47.89     110.36      13.23      13.56      34.29
   1073.35       2.32       2.37       2.41       2.44       2.47       1.99       1.99       2.00       2.04       2.08      -0.01       0.08       2.13       2.13      46.30     111.04      13.23      13.56      34.08
   1073.51       2.35       2.37       2.39       2.44       2.50       1.97       2.01       2.04       2.06       2.06      -0.01       0.06       2.13       2.12      43.89     110.33      13.20      13.51      34.03
