~Version Information
VERS.             2.0 : CWLS log ASCII standard - Version 2.0
WRAP.             NO  : One line per depth step
#
~Well Information Block
#MNEM.UNIT                   Data Type:Information
#__________________________________________________________
  STRT.M            397.0000 : START INDEX                   
  STOP.M           1185.9768 : STOP INDEX                    
  STEP.M              0.1524 : STEP                          
  NULL.              -999.25 : NULL VALUE                    
  COMP.              Chevron : COMPANY                       
  WELL.           A12a-CPP-A7 : WELL                          
   FLD.                  A12 : FIELD                         
   LOC.           North Sea Dutch Sector : LOCATION                      
  PROV.                      : PROVINCE                      
  CNTY.                      : COUNTY                        
  STAT.                      : STATE                         
  CTRY.           The Netherlands : COUNTRY                       
  SRVC.           Schlimberger D & M : SERVICE COMPANY               
  DATE.            30-Sep-07 : LOG DATE                      
   UWI.                      : UNIQUE WELL ID                
   API.                      : API NUMBER                    
#
~Curve Information Block
#MNEM.UNIT                     : Curve Description
#---------                     --------------------
DEPT        .M                 : Bit Depth 2hz                                                   
P16H_UNC    .OHMM              : ARC Non-BHCorr Phase-Shift Resistivity 16-in. at 2 MHz          
P22H_UNC    .OHMM              : ARC Non-BHCorr Phase-Shift Resistivity 22-in. at 2 MHz          
P28H_UNC    .OHMM              : ARC Non-BHCorr Phase-Shift Resistivity 28-in. at 2 MHz          
P34H_UNC    .OHMM              : ARC Non-BHCorr Phase-Shift Resistivity 34-in. at 2 MHz          
P40H_UNC    .OHMM              : ARC Non-BHCorr Phase-Shift Resistivity 40-in. at 2 MHz          
A16H_UNC    .OHMM              : ARC Non-BHCorr Attenuation Resistivity 16-in. at 2 MHz          
A22H_UNC    .OHMM              : ARC Non-BHCorr Attenuation Resistivity 22-in. at 2 MHz          
A28H_UNC    .OHMM              : ARC Non-BHCorr Attenuation Resistivity 28-in. at 2 MHz          
A34H_UNC    .OHMM              : ARC Non-BHCorr Attenuation Resistivity 34-in. at 2 MHz          
A40H_UNC    .OHMM              : ARC Non-BHCorr Attenuation Resistivity 40-in. at 2 MHz          
DRHB        .G/C3              : Bulk Density Correction, Bottom                                 
DRHO        .G/C3              : Bulk Density Correction                                         
ROBB        .G/C3              : Bulk Density, Bottom                                            
RHOB        .G/C3              : Bulk Density                                                    
TNPH        .PU                : Thermal Neutron Porosity (Ratio Method) in Selected Lithology   
GR_ARC      .GAPI              : ARC Gamma Ray                                                   
HORD        .IN                : Horizontal Hole Diameter                                        
VERD        .IN                : Vertical Hole Diameter                                          
ROP5_RM     .M/HR              : Rate of Penetration, Averaged over Last 5ft                     
#
~Parameter Information Block
#MNEM.UNIT                       Value:Description
#__________________________________________________________
#
~Other Information Block

#
~A    DEPT   P16H_UNC   P22H_UNC   P28H_UNC   P34H_UNC   P40H_UNC   A16H_UNC   A22H_UNC   A28H_UNC   A34H_UNC   A40H_UNC       DRHB       DRHO       ROBB       RHOB       TNPH     GR_ARC       HORD       VERD    ROP5_RM
# ...
    960.88       9.11       6.78       5.95       5.82       5.67      44.48      57.85      67.47      27.85      14.06       0.00       0.05       2.18       2.12      41.88     104.92      13.03      13.41      39.47
    961.03       5.12       4.90       4.68       4.76       5.13      16.77     300.00     500.00      48.18      15.81       0.00       0.06       2.16       2.13      43.15     103.17      12.41      13.35      39.76
    961.19       6.42       5.83       5.20       4.59       4.12       5.65     300.00     500.00      40.25       9.31      -0.00       0.05       2.15       2.12      44.45     100.31      12.48      13.36      39.76
    961.34       4.46       4.31       4.22       3.75       3.06      18.50     300.00     500.00     500.00     700.00      -0.00       0.05       2.15       2.13      46.10      96.90      12.48      13.36      39.71
    961.49       3.49       3.78       3.70       3.49       3.47       6.69      13.56      10.92       6.87       5.87      -0.00       0.05       2.16       2.13      44.18      98.22      12.38      13.44      39.47
    961.64       7.53       5.77       4.96       4.58       4.27     300.00     300.00     500.00     500.00      28.68      -0.00       0.06       2.15       2.14      43.21     103.31      12.53      13.34      39.76
    961.80       5.35       4.22       3.71       3.60       3.56     300.00     300.00      59.75      17.49       7.65       0.01       0.06       2.15       2.15      40.84     103.44      14.20      13.43      39.76
    961.95       6.68       4.70       3.94       3.83       3.85     300.00      13.32      11.05      11.23       8.55      -0.00       0.06       2.13       2.15      42.59     101.56      14.20      13.43      39.76
    962.10       5.31       4.56       4.14       4.15       4.41     300.00      12.69      10.32      10.44       6.70       0.00       0.06       2.13       2.15      43.11      98.90      12.38      13.41      40.05
    962.25       4.04       4.18       4.07       3.83       3.67       3.84       6.17       9.10       8.24       5.98      -0.00       0.06       2.12       2.14      45.05     100.48      12.44      13.46      40.05
    962.41       5.92       6.38       6.29       5.54       4.77       2.72       5.20      11.78      12.85       7.75      -0.00       0.06       2.13       2.15      43.82      99.92      12.44      13.46      40.05
    962.56       3.27       3.00       2.83       2.70       2.56       2.82       2.68       3.74       4.95       4.11      -0.00       0.06       2.15       2.15      44.06     101.55      13.66      13.37      40.05
    962.71       4.97       5.05       4.45       3.35       2.51       2.69       5.75       8.12       9.38      18.68      -0.00       0.06       2.15       2.15      44.49     103.23      12.51      13.37      40.23
    962.86       6.44       6.24       5.40       4.24       3.40       2.16       8.66      50.49     500.00     700.00      -0.00       0.05       2.13       2.13      46.32     106.25      12.47      13.33      40.34
    963.02       2.71       2.16       1.96       1.92       1.81       2.31       2.63       2.77       2.51       2.11      -0.00       0.05       2.12       2.13      46.89     106.91      12.47      13.33      40.34
    963.17       4.01       4.71       4.71       4.07       3.58       2.02       4.38       6.81      10.04      49.19      -0.00       0.06       2.12       2.14      47.53     107.62      12.37      13.37      40.52
    963.32       3.32       2.59       1.95       1.46       1.15       8.86       6.44       3.42       2.24       2.02      -0.00       0.05       2.13       2.14      45.67     109.74      12.44      13.33      40.73
    963.47       2.48       2.26       2.15       2.09       2.00       2.31       2.42       2.50       2.40       2.16      -0.00       0.05       2.11       2.14      44.49     112.09      12.44      13.33      40.94
    963.63      14.27       8.82       9.50       9.73       6.42     300.00     300.00     500.00     500.00     700.00      -0.00       0.05       2.12       2.13      43.41     113.03      12.95      13.29      40.64
    963.78       2.03       1.76       1.62       1.53       1.42       1.97       1.88       1.89       1.94       1.97       0.01       0.06       2.14       2.14      47.21     110.67      13.11      13.36      40.82
    963.93       2.22       2.02       1.84       1.68       1.54       1.84       1.52       1.43       1.59       1.93       0.01       0.05       2.14       2.13      48.76     108.21      13.11      13.36      41.25
    964.08       1.91       1.83       1.72       1.61       1.53       1.31       1.42       1.53       1.63       1.72      -0.00       0.05       2.13       2.13      49.73     108.11      13.17      13.39      41.11
    964.23       1.85       1.85       1.77       1.36       0.93       1.47       1.63       1.75       1.75       1.68      -0.01       0.06       2.10       2.13      45.53     108.76      13.13      13.42      41.25
    964.39       2.02       1.84       1.73       1.70       1.67       1.48       1.59       1.62       1.63       1.69      -0.00       0.06       2.11       2.13      42.91     109.57      13.18      13.44      41.25
    964.54       2.36       2.44       2.63       2.92       3.17       1.45       1.55       1.71       1.93       2.15       0.01       0.07       2.13       2.14      43.53     111.27      13.18      13.44      41.25
    964.69       2.40       2.22       2.16       1.94       1.56       1.45       1.57       1.70       1.84       1.95       0.02       0.07       2.15       2.14      45.78     111.27      13.03      13.24      40.78
    964.84       2.45       2.48       2.52       2.54       2.52       1.59       1.76       1.89       2.02       2.21       0.01       0.07       2.15       2.14      48.69     107.41      13.08      13.40      40.31
    965.00       2.27       2.52       2.68       2.35       1.82       1.60       1.69       1.77       1.71       1.56      -0.00       0.07       2.13       2.13      46.14     102.10      13.08      13.40      39.89
    965.15       2.32       2.78       3.30       3.33       2.91       1.53       1.77       2.07       2.23       2.14      -0.00       0.07       2.12       2.13      43.85     104.34      13.31      13.43      39.63
    965.30       2.34       2.70       2.97       3.04       3.03       1.58       1.79       2.05       2.22       2.19       0.00       0.08       2.14       2.14      43.81     110.29      13.45      13.30      39.28
    965.45       2.52       2.73       2.84       2.87       2.93       1.77       1.89       2.30       2.82       3.04       0.01       0.08       2.16       2.15      46.49     112.42      13.45      13.30      38.82
    965.61       2.29       2.53       2.76       2.89       2.90       1.63       1.84       2.31       2.79       2.91       0.01       0.09       2.16       2.15      45.87     107.58      13.24      13.19      38.48
    965.76       2.29       2.73       3.07       3.07       2.94       1.53       1.97       2.53       2.82       2.79       0.01       0.08       2.16       2.14      46.04     102.82      13.46      13.46      38.02
    965.91       2.10       2.61       3.03       3.10       3.08       1.31       1.80       2.36       2.68       2.82       0.01       0.07       2.17       2.13      43.69     102.28      13.18      13.56      37.80
    966.06       2.32       2.66       2.93       3.02       3.03       1.38       1.84       2.52       3.09       3.38      -0.00       0.05       2.16       2.12      45.81     106.28      13.18      13.56      37.54
    966.22       2.53       2.95       3.29       3.40       3.42       1.46       2.06       2.67       3.12       3.76      -0.00       0.06       2.14       2.12      45.72     109.53      13.08      13.42      37.29
    966.37       2.67       2.99       3.21       3.21       3.11       1.40       1.86       2.41       2.99       3.88      -0.01       0.06       2.12       2.11      44.44     112.68      13.00      13.54      37.07
