~Version Information
VERS.             2.0 : CWLS log ASCII standard - Version 2.0
WRAP.             NO  : One line per depth step
#
~Well Information Block
#MNEM.UNIT                   Data Type:Information
#__________________________________________________________
  STRT.M            397.0000 : START INDEX                   
  STOP.M           1185.9768 : STOP INDEX                    
  STEP.M              0.1524 : STEP                          
  NULL.              -999.25 : NULL VALUE                    
  COMP.              Chevron : COMPANY                       
  WELL.           A12a-CPP-A7 : WELL                          
   FLD.                  A12 : FIELD                         
   LOC.           North Sea Dutch Sector : LOCATION                      
  PROV.                      : PROVINCE                      
  CNTY.                      : COUNTY                        
  STAT.                      : STATE                         
  CTRY.           The Netherlands : COUNTRY                       
  SRVC.           Schlimberger D & M : SERVICE COMPANY               
  DATE.            30-Sep-07 : LOG DATE                      
   UWI.                      : UNIQUE WELL ID                
   API.                      : API NUMBER                    
#
~Curve Information Block
#MNEM.UNIT                     : Curve Description
#---------                     --------------------
DEPT        .M                 : Bit Depth 2hz                                                   
P16H_UNC    .OHMM              : ARC Non-BHCorr Phase-Shift Resistivity 16-in. at 2 MHz          
P22H_UNC    .OHMM              : ARC Non-BHCorr Phase-Shift Resistivity 22-in. at 2 MHz          
P28H_UNC    .OHMM              : ARC Non-BHCorr Phase-Shift Resistivity 28-in. at 2 MHz          
P34H_UNC    .OHMM              : ARC Non-BHCorr Phase-Shift Resistivity 34-in. at 2 MHz          
P40H_UNC    .OHMM              : ARC Non-BHCorr Phase-Shift Resistivity 40-in. at 2 MHz          
A16H_UNC    .OHMM              : ARC Non-BHCorr Attenuation Resistivity 16-in. at 2 MHz          
A22H_UNC    .OHMM              : ARC Non-BHCorr Attenuation Resistivity 22-in. at 2 MHz          
A28H_UNC    .OHMM              : ARC Non-BHCorr Attenuation Resistivity 28-in. at 2 MHz          
A34H_UNC    .OHMM              : ARC Non-BHCorr Attenuation Resistivity 34-in. at 2 MHz          
A40H_UNC    .OHMM              : ARC Non-BHCorr Attenuation Resistivity 40-in. at 2 MHz          
DRHB        .G/C3              : Bulk Density Correction, Bottom                                 
DRHO        .G/C3              : Bulk Density Correction                                         
ROBB        .G/C3              : Bulk Density, Bottom                                            
RHOB        .G/C3              : Bulk Density                                                    
TNPH        .PU                : Thermal Neutron Porosity (Ratio Method) in Selected Lithology   
GR_ARC      .GAPI              : ARC Gamma Ray                                                   
HORD        .IN                : Horizontal Hole Diameter                                        
VERD        .IN                : Vertical Hole Diameter                                          
ROP5_RM     .M/HR              : Rate of Penetration, Averaged over Last 5ft                     
#
~Parameter Information Block
#MNEM.UNIT                       Value:Description
#__________________________________________________________
#
~Other Information Block

#
~A    DEPT   P16H_UNC   P22H_UNC   P28H_UNC   P34H_UNC   P40H_UNC   A16H_UNC   A22H_UNC   A28H_UNC   A34H_UNC   A40H_UNC       DRHB       DRHO       ROBB       RHOB       TNPH     GR_ARC       HORD       VERD    ROP5_RM
# ...
    859.38       5.63       7.09       7.96       8.35       9.21       4.76       5.16       5.42       5.49       5.51      -0.02       0.05       1.93       1.96      23.93      89.94      12.97      13.23      32.85
    859.54       5.90       6.87       7.23       7.54       8.64       4.89       5.05       5.25       5.53       5.84      -0.02       0.06       1.96       1.99      25.96      92.57      12.91      13.31      32.47
    859.69       5.86       6.59       7.04       8.14      11.03       4.89       5.04       5.05       5.15       5.45      -0.01       0.07       2.00       2.00      27.96      94.72      12.90      13.23      32.46
    859.84       5.13       5.97       6.60       7.54       9.54       4.99       4.98       4.94       4.95       5.06      -0.00       0.07       2.00       2.02      28.88      95.98      12.88      13.29      32.46
    859.99       3.67       4.00       4.01       3.92       4.01       5.76       5.65       6.33       6.94       6.72       0.01       0.08       2.01       2.06      28.10      96.51      12.90      13.22      31.90
    860.15       3.86       4.03       4.11       4.07       4.03       4.83       4.92       5.22       5.56       5.71       0.00       0.08       2.00       2.06      27.72      92.88      12.80      13.16      32.08
    860.30       4.41       4.65       4.89       4.82       4.46       4.42       4.50       4.67       5.00       5.49      -0.01       0.06       1.98       2.03      28.03      92.68      12.67      13.31      31.35
    860.45       5.57       5.43       5.43       5.40       5.22       3.81       4.16       4.31       4.41       4.58      -0.01       0.05       1.96       1.98      28.74      96.85      12.72      13.01      31.71
    860.60       7.34       6.10       5.90       6.31       6.57       3.37       4.04       4.27       4.15       4.07      -0.00       0.04       1.94       1.95      28.61     100.00      12.72      13.01      31.35
    860.76       7.66       6.56       6.23       6.42       6.62       3.28       3.73       3.98       4.14       4.37      -0.00       0.04       1.93       1.92      27.03     100.00      12.63      13.39      31.35
    860.91       7.80       7.27       6.77       6.74       7.20       3.21       3.50       3.74       4.04       4.39      -0.01       0.03       1.96       1.91      26.16      97.97      12.42      13.01      31.17
    861.06       7.07       7.11       7.14       7.93       9.91       3.50       3.76       3.95       4.14       4.35      -0.01       0.03       2.00       1.91      26.55      93.74      12.51      13.04      31.17
    861.21       6.97       7.78       9.02       9.92       9.88       3.94       3.81       3.88       3.98       3.92      -0.00       0.02       2.04       1.92      26.46      93.01      12.51      13.04      31.17
    861.36       4.66       5.26       6.15       7.03       7.48       3.70       3.60       3.59       3.64       3.67      -0.01       0.02       2.01       1.93      24.87      93.12      12.59      12.96      31.00
    861.52       4.14       4.33       5.02       5.71       5.73       3.76       3.72       3.68       3.74       3.88      -0.01       0.02       1.99       1.92      23.25      94.85      12.64      12.78      31.35
    861.67       3.67       3.97       4.53       4.78       4.41       3.94       4.20       4.32       4.48       4.78      -0.02       0.02       1.97       1.92      22.48      95.01      12.33      12.81      31.00
    861.82       3.98       4.59       5.21       5.45       5.36       4.05       4.27       4.49       4.64       4.69      -0.02       0.03       1.96       1.92      22.61      94.65      12.43      12.74      31.35
    861.97       4.54       5.13       5.66       6.06       6.41       4.16       4.41       4.61       4.86       5.23      -0.03       0.02       1.92       1.92      23.86      93.06      12.71      13.16      31.00
    862.13       5.01       5.74       6.30       6.93       7.98       4.37       4.37       4.47       4.73       5.08      -0.04       0.02       1.88       1.93      26.01      92.22      12.52      12.96      31.17
    862.28       5.31       6.48       7.74      10.38      17.19       4.57       4.56       4.52       4.49       4.50      -0.04       0.02       1.85       1.93      27.62      91.66      12.92      12.97      31.00
    862.43       5.82       6.64       7.33       9.11      13.86       4.56       4.73       4.86       4.87       4.77      -0.03       0.02       1.87       1.93      27.19      94.22      12.92      12.97      31.00
    862.58       6.03       6.59       6.85       7.39       8.75       4.85       4.96       5.16       5.29       5.27      -0.03       0.03       1.90       1.92      25.52      97.22      12.41      12.93      31.00
    862.74       6.52       6.83       6.96       7.27       7.97       4.94       5.07       5.27       5.45       5.57      -0.03       0.03       1.94       1.93      25.05     100.29      12.59      12.86      30.82
    862.89       5.44       5.88       5.91       5.87       6.16       5.58       5.63       5.71       5.83       5.95      -0.02       0.03       1.98       1.94      25.68      97.92      12.61      13.16      31.00
    863.04       7.50       7.63       7.61       7.97       8.97       5.07       5.30       5.29       5.12       4.99      -0.02       0.02       2.00       1.94      26.26      93.46      12.54      13.28      30.65
    863.19       8.97       8.79       8.66       9.25      10.67       5.11       5.28       5.21       5.02       4.91      -0.03       0.00       1.92       1.91      25.04      87.32      12.37      12.79      31.00
    863.35      11.24       9.49       8.97       9.41      10.08       4.78       5.13       5.16       5.12       5.29      -0.04      -0.00       1.81       1.87      21.97      86.95      12.39      12.79      30.82
    863.50      12.97      10.74      10.17      10.61      11.08       4.75       4.94       4.95       4.96       5.12      -0.05       0.01       1.73       1.86      18.24      89.62      12.63      12.80      31.00
    863.65      13.05      12.30      12.38      12.93      13.24       4.92       4.83       4.74       4.68       4.67      -0.04       0.02       1.74       1.87      15.81      90.29      12.54      12.78      30.82
    863.80      12.67      12.33      12.63      12.52      11.57       4.84       4.69       4.53       4.51       4.63      -0.04       0.01       1.75       1.87      15.02      90.57      12.54      12.78      30.82
    863.96      12.23      12.41      13.02      13.50      13.39       4.78       4.63       4.49       4.41       4.39      -0.04       0.02       1.76       1.87      14.82      87.69      12.41      12.71      30.82
    864.11      11.21      11.51      12.28      13.04      13.22       4.75       4.58       4.47       4.41       4.38      -0.05       0.01       1.75       1.84      15.07      86.21      12.34      12.97      30.82
    864.26      10.71      11.00      11.63      12.34      12.75       4.67       4.55       4.45       4.41       4.43      -0.06       0.00       1.75       1.81      14.90      84.82      12.46      13.02      31.00
    864.41      10.12      10.56      11.22      12.14      13.06       4.56       4.37       4.23       4.17       4.14      -0.05      -0.00       1.73       1.78      15.36      86.58      12.56      12.90      30.65
    864.57       9.45      10.13      10.83      11.58      12.31       4.45       4.27       4.16       4.11       4.08      -0.05       0.00       1.73       1.77      14.91      89.98      12.59      12.87      31.00
    864.72       8.63       9.50      10.19      11.09      12.60       4.27       4.14       4.08       4.02       3.94      -0.05       0.00       1.75       1.76      14.61      91.74      12.61      13.44      30.65
    864.87       8.02       9.26      10.01      10.85      12.69       4.10       4.00       3.93       3.88       3.82      -0.05      -0.00       1.76       1.75      14.05      92.97      12.58      13.53      30.82
