~Version Information
VERS.             2.0 : CWLS log ASCII standard - Version 2.0
WRAP.             NO  : One line per depth step
#
~Well Information Block
#MNEM.UNIT                   Data Type:Information
#__________________________________________________________
  STRT.M            397.0000 : START INDEX                   
  STOP.M           1185.9768 : STOP INDEX                    
  STEP.M              0.1524 : STEP                          
  NULL.              -999.25 : NULL VALUE                    
  COMP.              Chevron : COMPANY                       
  WELL.           A12a-CPP-A7 : WELL                          
   FLD.                  A12 : FIELD                         
   LOC.           North Sea Dutch Sector : LOCATION                      
  PROV.                      : PROVINCE                      
  CNTY.                      : COUNTY                        
  STAT.                      : STATE                         
  CTRY.           The Netherlands : COUNTRY                       
  SRVC.           Schlimberger D & M : SERVICE COMPANY               
  DATE.            30-Sep-07 : LOG DATE                      
   UWI.                      : UNIQUE WELL ID                
   API.                      : API NUMBER                    
#
~Curve Information Block
#MNEM.UNIT                     : Curve Description
#---------                     --------------------
DEPT        .M                 : Bit Depth 2hz                                                   
P16H_UNC    .OHMM              : ARC Non-BHCorr Phase-Shift Resistivity 16-in. at 2 MHz          
P22H_UNC    .OHMM              : ARC Non-BHCorr Phase-Shift Resistivity 22-in. at 2 MHz          
P28H_UNC    .OHMM              : ARC Non-BHCorr Phase-Shift Resistivity 28-in. at 2 MHz          
P34H_UNC    .OHMM              : ARC Non-BHCorr Phase-Shift Resistivity 34-in. at 2 MHz          
P40H_UNC    .OHMM              : ARC Non-BHCorr Phase-Shift Resistivity 40-in. at 2 MHz          
A16H_UNC    .OHMM              : ARC Non-BHCorr Attenuation Resistivity 16-in. at 2 MHz          
A22H_UNC    .OHMM              : ARC Non-BHCorr Attenuation Resistivity 22-in. at 2 MHz          
A28H_UNC    .OHMM              : ARC Non-BHCorr Attenuation Resistivity 28-in. at 2 MHz          
A34H_UNC    .OHMM              : ARC Non-BHCorr Attenuation Resistivity 34-in. at 2 MHz          
A40H_UNC    .OHMM              : ARC Non-BHCorr Attenuation Resistivity 40-in. at 2 MHz          
DRHB        .G/C3              : Bulk Density Correction, Bottom                                 
DRHO        .G/C3              : Bulk Density Correction                                         
ROBB        .G/C3              : Bulk Density, Bottom                                            
RHOB        .G/C3              : Bulk Density                                                    
TNPH        .PU                : Thermal Neutron Porosity (Ratio Method) in Selected Lithology   
GR_ARC      .GAPI              : ARC Gamma Ray                                                   
HORD        .IN                : Horizontal Hole Diameter                                        
VERD        .IN                : Vertical Hole Diameter                                          
ROP5_RM     .M/HR              : Rate of Penetration, Averaged over Last 5ft                     
#
~Parameter Information Block
#MNEM.UNIT                       Value:Description
#__________________________________________________________
#
~Other Information Block

#
~A    DEPT   P16H_UNC   P22H_UNC   P28H_UNC   P34H_UNC   P40H_UNC   A16H_UNC   A22H_UNC   A28H_UNC   A34H_UNC   A40H_UNC       DRHB       DRHO       ROBB       RHOB       TNPH     GR_ARC       HORD       VERD    ROP5_RM
# ...
    808.63       2.34       2.35       2.38       2.43       2.45       2.49       2.59       2.74       2.93       3.09      -0.01       0.06       2.15       2.16      43.82     103.87      13.13      12.81      34.43
    808.79       2.41       2.42       2.45       2.48       2.51       2.67       2.76       2.91       3.11       3.29      -0.01       0.05       2.11       2.13      42.95     106.73      13.13      12.81      34.30
    808.94       2.52       2.55       2.58       2.61       2.65       2.84       2.98       3.18       3.39       3.55      -0.02       0.05       2.05       2.11      39.02     109.19      13.13      13.15      34.29
    809.09       2.60       2.63       2.67       2.70       2.72       2.89       3.11       3.32       3.51       3.69      -0.03       0.05       1.98       2.09      33.44     108.51      13.12      13.23      34.23
    809.24       2.80       2.85       2.92       3.00       3.05       3.07       3.35       3.54       3.71       3.91      -0.04       0.04       1.89       2.05      28.36     105.60      13.06      12.92      34.08
    809.40       2.99       3.04       3.11       3.23       3.37       3.24       3.55       3.73       3.89       4.12      -0.04       0.04       1.83       2.01      25.41     103.05      13.06      12.92      34.23
    809.55       3.29       3.34       3.41       3.53       3.72       3.38       3.66       3.80       3.94       4.15      -0.04       0.04       1.81       1.97      24.60     100.81      12.71      12.81      34.20
    809.70       3.70       3.81       3.90       3.97       4.06       3.46       3.67       3.79       3.93       4.13      -0.03       0.04       1.84       1.95      23.53     102.04      12.65      12.90      33.74
    809.85       4.05       4.20       4.30       4.35       4.42       3.55       3.69       3.79       3.89       4.00      -0.02       0.04       1.89       1.93      23.93     103.16      12.48      12.81      33.79
    810.01       4.15       4.33       4.46       4.59       4.76       3.62       3.72       3.82       3.90       3.97      -0.01       0.03       1.94       1.92      22.81     102.24      12.57      12.86      33.10
    810.16       4.39       4.62       4.77       4.87       5.03       3.69       3.75       3.83       3.90       3.93      -0.02       0.03       1.96       1.91      22.29     100.58      12.57      12.86      33.25
    810.31       4.49       4.79       4.94       4.97       5.01       3.78       3.80       3.87       3.93       3.93      -0.03       0.01       1.94       1.88      22.07      96.95      12.60      13.33      32.41
    810.46       4.83       4.98       5.07       5.14       5.24       3.73       3.80       3.89       3.96       3.99      -0.04       0.01       1.90       1.86      23.54      95.72      12.70      13.33      31.92
    810.62       5.01       5.05       5.05       5.07       5.13       3.74       3.81       3.90       3.98       4.04      -0.03       0.01       1.89       1.86      25.05      94.83      12.71      13.33      31.35
    810.77       5.25       5.21       5.12       5.06       5.06       3.67       3.77       3.87       3.99       4.11      -0.03       0.01       1.88       1.87      26.24      95.75      12.71      13.33      30.96
    810.92       5.36       5.33       5.27       5.24       5.31       3.71       3.76       3.80       3.88       3.97      -0.03       0.02       1.90       1.89      27.18      98.07      12.97      13.50      30.82
    811.07       5.49       5.29       5.19       5.11       5.00       3.76       3.79       3.79       3.88       4.04      -0.03       0.03       1.94       1.91      28.26      98.77      12.79      13.55      30.65
    811.23       5.24       5.04       4.82       4.80       5.00       3.76       3.78       3.89       4.03       4.12      -0.02       0.04       1.96       1.93      29.01      98.40      12.79      13.55      30.18
    811.38       5.43       5.18       5.04       5.01       5.00       3.85       3.82       3.90       4.03       4.11      -0.02       0.05       1.96       1.95      29.77      94.80      12.68      13.32      47.09
    811.53       4.91       4.63       4.59       4.71       4.76       4.01       4.01       4.05       4.18       4.34      -0.02       0.04       1.93       1.94      29.61      92.83      13.12      13.24      47.25
    811.68       4.75       4.57       4.57       4.66       4.70       4.08       4.05       4.11       4.22       4.32      -0.02       0.03       1.94       1.94      30.52      94.87      13.37      13.18      47.67
    811.83       4.59       4.66       4.75       4.76       4.66       4.17       3.87       3.85       4.00       4.11      -0.01       0.03       1.98       1.93      28.93      98.55      13.21      13.68      47.72
    811.99       4.02       3.89       3.94       3.97       3.82       3.93       4.15       4.21       4.42       4.90      -0.01       0.03       2.03       1.93      29.44      99.53      12.87      13.44      48.61
    812.14       3.86       4.02       4.13       4.22       4.32       4.16       4.25       4.39       4.55       4.64      -0.01       0.04       2.07       1.95      28.88      99.42      13.07      13.53      48.32
    812.29       4.49       4.74       4.80       4.91       5.24       3.93       4.11       4.33       4.49       4.52      -0.01       0.04       2.08       1.97      30.11      97.78      12.88      13.35      48.09
    812.44       4.80       5.12       5.26       5.28       5.38       4.02       4.04       4.13       4.29       4.44      -0.02       0.04       2.04       1.98      29.89      96.96      12.77      13.26      47.74
    812.60       4.86       5.16       5.35       5.48       5.68       4.11       4.07       4.13       4.29       4.42      -0.03       0.03       1.96       1.96      29.09      92.13      12.47      13.61      47.71
    812.75       5.32       5.15       5.01       5.03       5.19       3.86       4.12       4.34       4.48       4.55      -0.03       0.02       1.91       1.94      27.52      93.16      12.49      13.13      30.60
    812.90       5.17       5.06       4.97       4.95       4.98       4.08       4.24       4.42       4.60       4.75      -0.03       0.02       1.89       1.94      26.69      95.78      12.58      13.05      29.65
    813.05       4.80       4.80       4.85       4.96       5.07       4.36       4.44       4.49       4.62       4.84      -0.02       0.02       1.95       1.96      28.00     102.12      12.58      13.05      29.03
    813.21       4.71       4.70       4.77       4.87       4.92       4.48       4.59       4.64       4.76       4.97      -0.02       0.03       2.01       1.98      29.53     101.74      12.50      12.99      29.18
    813.36       4.72       4.57       4.54       4.58       4.59       4.49       4.72       4.86       5.01       5.26      -0.01       0.04       2.04       2.01      31.49      99.50      12.77      13.08      28.43
    813.51       4.78       4.85       4.95       5.11       5.30       4.53       4.62       4.76       4.87       4.88      -0.02       0.04       1.99       2.00      31.44      93.58      12.70      13.60      28.43
    813.66       4.69       4.66       4.71       4.73       4.66       4.55       4.79       5.01       5.26       5.45      -0.03       0.04       1.91       1.98      29.81      93.02      12.70      13.60      28.13
    813.82       4.67       4.80       5.15       5.54       5.73       4.67       4.71       4.83       4.91       4.87      -0.04       0.03       1.85       1.95      28.43      93.38      13.05      13.46      27.99
    813.97       4.56       4.70       5.16       5.74       6.04       4.60       4.66       4.75       4.75       4.64      -0.04       0.04       1.84       1.94      27.68      93.36      13.04      13.28      28.43
    814.12       4.18       4.26       4.49       4.67       4.63       4.55       4.77       4.98       5.26       5.51      -0.04       0.04       1.88       1.96      28.63      89.61      12.64      12.94      28.43
