~Version Information
VERS.             2.0 : CWLS log ASCII standard - Version 2.0
WRAP.             NO  : One line per depth step
#
~Well Information Block
#MNEM.UNIT                   Data Type:Information
#__________________________________________________________
  STRT.M            397.0000 : START INDEX                   
  STOP.M           1185.9768 : STOP INDEX                    
  STEP.M              0.1524 : STEP                          
  NULL.              -999.25 : NULL VALUE                    
  COMP.              Chevron : COMPANY                       
  WELL.           A12a-CPP-A7 : WELL                          
   FLD.                  A12 : FIELD                         
   LOC.           North Sea Dutch Sector : LOCATION                      
  PROV.                      : PROVINCE                      
  CNTY.                      : COUNTY                        
  STAT.                      : STATE                         
  CTRY.           The Netherlands : COUNTRY                       
  SRVC.           Schlimberger D & M : SERVICE COMPANY               
  DATE.            30-Sep-07 : LOG DATE                      
   UWI.                      : UNIQUE WELL ID                
   API.                      : API NUMBER                    
#
~Curve Information Block
#MNEM.UNIT                     : Curve Description
#---------                     --------------------
DEPT        .M                 : Bit Depth 2hz                                                   
P16H_UNC    .OHMM              : ARC Non-BHCorr Phase-Shift Resistivity 16-in. at 2 MHz          
P22H_UNC    .OHMM              : ARC Non-BHCorr Phase-Shift Resistivity 22-in. at 2 MHz          
P28H_UNC    .OHMM              : ARC Non-BHCorr Phase-Shift Resistivity 28-in. at 2 MHz          
P34H_UNC    .OHMM              : ARC Non-BHCorr Phase-Shift Resistivity 34-in. at 2 MHz          
P40H_UNC    .OHMM              : ARC Non-BHCorr Phase-Shift Resistivity 40-in. at 2 MHz          
A16H_UNC    .OHMM              : ARC Non-BHCorr Attenuation Resistivity 16-in. at 2 MHz          
A22H_UNC    .OHMM              : ARC Non-BHCorr Attenuation Resistivity 22-in. at 2 MHz          
A28H_UNC    .OHMM              : ARC Non-BHCorr Attenuation Resistivity 28-in. at 2 MHz          
A34H_UNC    .OHMM              : ARC Non-BHCorr Attenuation Resistivity 34-in. at 2 MHz          
A40H_UNC    .OHMM              : ARC Non-BHCorr Attenuation Resistivity 40-in. at 2 MHz          
DRHB        .G/C3              : Bulk Density Correction, Bottom                                 
DRHO        .G/C3              : Bulk Density Correction                                         
ROBB        .G/C3              : Bulk Density, Bottom                                            
RHOB        .G/C3              : Bulk Density                                                    
TNPH        .PU                : Thermal Neutron Porosity (Ratio Method) in Selected Lithology   
GR_ARC      .GAPI              : ARC Gamma Ray                                                   
HORD        .IN                : Horizontal Hole Diameter                                        
VERD        .IN                : Vertical Hole Diameter                                          
ROP5_RM     .M/HR              : Rate of Penetration, Averaged over Last 5ft                     
#
~Parameter Information Block
#MNEM.UNIT                       Value:Description
#__________________________________________________________
#
~Other Information Block

#
~A    DEPT   P16H_UNC   P22H_UNC   P28H_UNC   P34H_UNC   P40H_UNC   A16H_UNC   A22H_UNC   A28H_UNC   A34H_UNC   A40H_UNC       DRHB       DRHO       ROBB       RHOB       TNPH     GR_ARC       HORD       VERD    ROP5_RM
# ...
    757.89       1.94       1.98       2.01       2.03       2.03       1.70       1.67       1.66       1.67       1.66      -0.01       0.07       2.08       2.11      46.74      98.17      13.28      13.57      36.66
    758.04       1.90       1.93       1.95       1.96       1.98       1.68       1.66       1.66       1.67       1.67      -0.02       0.07       2.05       2.09      47.05      96.81      13.22      13.60      36.44
    758.19       1.83       1.86       1.88       1.91       1.95       1.68       1.68       1.70       1.70       1.66      -0.02       0.06       2.02       2.07      49.28      97.67      13.20      13.71      36.58
    758.34       1.77       1.78       1.79       1.81       1.83       1.64       1.67       1.72       1.74       1.72      -0.01       0.07       2.02       2.07      49.70      99.17      13.11      13.43      36.77
    758.49       1.73       1.74       1.75       1.76       1.77       1.66       1.70       1.75       1.77       1.76      -0.01       0.07       2.02       2.05      46.03      98.49      13.02      13.04      36.94
    758.65       1.70       1.71       1.72       1.73       1.75       1.66       1.71       1.77       1.80       1.79      -0.01       0.08       2.03       2.05      43.04      97.74      12.72      13.39      37.11
    758.80       1.69       1.71       1.72       1.72       1.73       1.65       1.71       1.78       1.82       1.83      -0.00       0.07       2.05       2.04      41.22      99.39      12.61      13.39      37.32
    758.95       1.69       1.70       1.70       1.71       1.72       1.70       1.75       1.80       1.85       1.92       0.00       0.07       2.08       2.05      43.07     100.62      12.63      13.14      37.74
    759.10       1.71       1.73       1.74       1.76       1.78       1.69       1.74       1.80       1.87       1.94       0.00       0.07       2.10       2.05      45.55     101.02      12.88      13.41      38.12
    759.26       1.76       1.77       1.78       1.80       1.83       1.70       1.75       1.80       1.87       1.95       0.00       0.07       2.12       2.07      45.61      97.50      12.66      13.74      38.64
    759.41       1.79       1.80       1.81       1.83       1.85       1.71       1.75       1.80       1.86       1.93       0.00       0.08       2.12       2.08      46.61      98.62      12.76      13.19      38.57
    759.56       1.88       1.88       1.89       1.90       1.92       1.71       1.78       1.83       1.87       1.91       0.00       0.08       2.13       2.09      45.90      99.70      13.09      13.86      38.19
    759.71       1.91       1.91       1.91       1.93       1.96       1.69       1.75       1.81       1.87       1.92      -0.00       0.09       2.12       2.09      47.84     101.97      12.91      13.86      36.82
    759.87       1.96       1.95       1.96       1.98       2.00       1.72       1.78       1.83       1.86       1.90      -0.00       0.09       2.12       2.10      46.91     100.57      13.38      13.79      34.59
    760.02       1.99       1.98       1.98       2.00       2.03       1.71       1.78       1.82       1.87       1.91      -0.00       0.10       2.12       2.11      49.09     100.54      13.38      13.93      34.20
    760.17       2.00       2.00       2.01       2.04       2.07       1.76       1.80       1.83       1.84       1.85      -0.01       0.09       2.12       2.11      48.92     100.76      13.38      13.87      33.66
    760.32       2.01       2.01       2.02       2.03       2.07       1.73       1.78       1.83       1.87       1.90      -0.01       0.09       2.12       2.10      49.14     101.63      13.38      13.97      33.45
    760.48       2.02       2.03       2.03       2.04       2.07       1.74       1.78       1.83       1.88       1.91      -0.01       0.08       2.12       2.10      46.51     102.69      13.29      13.85      33.36
    760.63       2.02       2.02       2.02       2.04       2.08       1.74       1.79       1.84       1.89       1.92      -0.01       0.08       2.12       2.11      47.56     104.20      13.41      13.96      33.16
    760.78       2.01       2.01       2.03       2.06       2.10       1.75       1.79       1.83       1.87       1.88      -0.01       0.09       2.12       2.12      47.03     103.86      13.33      13.92      33.11
    760.93       1.97       1.97       1.98       2.00       2.02       1.75       1.79       1.83       1.87       1.89      -0.01       0.09       2.12       2.12      50.75     106.18      13.35      13.91      34.51
    761.09       1.93       1.92       1.93       1.96       1.98       1.72       1.77       1.81       1.83       1.84      -0.00       0.08       2.12       2.11      55.34     107.52      13.31      13.83      35.58
    761.24       1.84       1.82       1.83       1.86       1.88       1.68       1.72       1.76       1.80       1.86      -0.01       0.08       2.12       2.10      55.45     106.61      13.38      13.85      36.43
    761.39       1.82       1.82       1.84       1.89       1.93       1.66       1.68       1.72       1.78       1.84      -0.00       0.07       2.14       2.10      52.63     101.02      13.38      13.82      37.58
    761.54       1.77       1.78       1.81       1.85       1.90       1.60       1.63       1.67       1.73       1.80      -0.00       0.08       2.13       2.11      47.61      98.92      13.33      13.82      39.58
    761.70       1.68       1.72       1.76       1.80       1.84       1.57       1.62       1.66       1.71       1.76      -0.00       0.09       2.10       2.11      47.57     101.07      13.25      13.69      39.65
    761.85       1.72       1.78       1.81       1.84       1.88       1.55       1.61       1.66       1.68       1.69      -0.00       0.09       2.05       2.10      45.85     105.08      13.35      13.59      39.10
    762.00       1.72       1.79       1.84       1.88       1.93       1.55       1.62       1.69       1.73       1.73      -0.01       0.09       2.03       2.08      45.40     109.19      13.33      13.65      39.32
    762.15       1.69       1.74       1.76       1.80       1.85       1.57       1.61       1.65       1.70       1.76       0.00       0.09       2.06       2.07      45.38     110.69      13.15      13.29      39.54
    762.30       1.72       1.75       1.79       1.84       1.91       1.57       1.59       1.63       1.69       1.74      -0.00       0.09       2.09       2.07      47.49     111.06      12.85      13.45      39.76
    762.46       1.76       1.78       1.81       1.86       1.93       1.56       1.58       1.62       1.68       1.77      -0.00       0.08       2.12       2.08      47.15     108.24      13.02      13.62      39.47
    762.61       1.78       1.79       1.80       1.83       1.88       1.57       1.61       1.65       1.73       1.83      -0.01       0.08       2.12       2.08      46.57     106.07      13.39      13.83      39.47
    762.76       1.76       1.78       1.79       1.82       1.88       1.62       1.66       1.71       1.80       1.91      -0.01       0.07       2.12       2.07      42.09     105.57      13.37      13.83      39.47
    762.91       1.77       1.80       1.82       1.86       1.91       1.62       1.67       1.73       1.81       1.88      -0.01       0.06       2.11       2.06      41.99     104.20      13.31      13.82      39.47
    763.07       1.80       1.83       1.85       1.89       1.95       1.65       1.71       1.77       1.82       1.85       0.00       0.06       2.12       2.08      40.44     104.04      13.26      13.84      39.47
    763.22       1.85       1.87       1.90       1.94       1.99       1.69       1.72       1.74       1.76       1.77       0.00       0.07       2.13       2.11      43.47     103.62      13.04      13.74      39.77
    763.37       1.89       1.90       1.91       1.93       1.95       1.68       1.71       1.74       1.76       1.80       0.01       0.07       2.15       2.13      43.80     105.22      13.04      13.02      40.29
