~Version Information
VERS.             2.0 : CWLS log ASCII standard - Version 2.0
WRAP.             NO  : One line per depth step
#
~Well Information Block
#MNEM.UNIT                   Data Type:Information
#__________________________________________________________
  STRT.M            397.0000 : START INDEX                   
  STOP.M           1185.9768 : STOP INDEX                    
  STEP.M              0.1524 : STEP                          
  NULL.              -999.25 : NULL VALUE                    
  COMP.              Chevron : COMPANY                       
  WELL.           A12a-CPP-A7 : WELL                          
   FLD.                  A12 : FIELD                         
   LOC.           North Sea Dutch Sector : LOCATION                      
  PROV.                      : PROVINCE                      
  CNTY.                      : COUNTY                        
  STAT.                      : STATE                         
  CTRY.           The Netherlands : COUNTRY                       
  SRVC.           Schlimberger D & M : SERVICE COMPANY               
  DATE.            30-Sep-07 : LOG DATE                      
   UWI.                      : UNIQUE WELL ID                
   API.                      : API NUMBER                    
#
~Curve Information Block
#MNEM.UNIT                     : Curve Description
#---------                     --------------------
DEPT        .M                 : Bit Depth 2hz                                                   
P16H_UNC    .OHMM              : ARC Non-BHCorr Phase-Shift Resistivity 16-in. at 2 MHz          
P22H_UNC    .OHMM              : ARC Non-BHCorr Phase-Shift Resistivity 22-in. at 2 MHz          
P28H_UNC    .OHMM              : ARC Non-BHCorr Phase-Shift Resistivity 28-in. at 2 MHz          
P34H_UNC    .OHMM              : ARC Non-BHCorr Phase-Shift Resistivity 34-in. at 2 MHz          
P40H_UNC    .OHMM              : ARC Non-BHCorr Phase-Shift Resistivity 40-in. at 2 MHz          
A16H_UNC    .OHMM              : ARC Non-BHCorr Attenuation Resistivity 16-in. at 2 MHz          
A22H_UNC    .OHMM              : ARC Non-BHCorr Attenuation Resistivity 22-in. at 2 MHz          
A28H_UNC    .OHMM              : ARC Non-BHCorr Attenuation Resistivity 28-in. at 2 MHz          
A34H_UNC    .OHMM              : ARC Non-BHCorr Attenuation Resistivity 34-in. at 2 MHz          
A40H_UNC    .OHMM              : ARC Non-BHCorr Attenuation Resistivity 40-in. at 2 MHz          
DRHB        .G/C3              : Bulk Density Correction, Bottom                                 
DRHO        .G/C3              : Bulk Density Correction                                         
ROBB        .G/C3              : Bulk Density, Bottom                                            
RHOB        .G/C3              : Bulk Density                                                    
TNPH        .PU                : Thermal Neutron Porosity (Ratio Method) in Selected Lithology   
GR_ARC      .GAPI              : ARC Gamma Ray                                                   
HORD        .IN                : Horizontal Hole Diameter                                        
VERD        .IN                : Vertical Hole Diameter                                          
ROP5_RM     .M/HR              : Rate of Penetration, Averaged over Last 5ft                     
#
~Parameter Information Block
#MNEM.UNIT                       Value:Description
#__________________________________________________________
#
~Other Information Block

#
~A    DEPT   P16H_UNC   P22H_UNC   P28H_UNC   P34H_UNC   P40H_UNC   A16H_UNC   A22H_UNC   A28H_UNC   A34H_UNC   A40H_UNC       DRHB       DRHO       ROBB       RHOB       TNPH     GR_ARC       HORD       VERD    ROP5_RM
# ...
    707.14       3.53       3.51       3.61       3.74       3.74       3.87       4.00       4.11       4.24       4.38      -0.03       0.04       1.96       2.00      33.09      98.60      12.79      13.31      40.34
    707.29       3.17       3.33       3.48       3.61       3.76       3.70       3.82       4.06       4.26       4.30      -0.02       0.05       1.97       2.01      32.40      98.50      12.86      13.47      40.05
    707.44       3.02       3.24       3.38       3.49       3.68       3.31       3.48       3.72       3.93       4.01      -0.02       0.05       2.01       2.00      33.86      99.26      12.86      13.47      39.47
    707.59       2.96       3.17       3.29       3.37       3.53       3.09       3.32       3.57       3.79       3.95      -0.02       0.04       2.02       1.99      32.74     101.66      13.01      13.53      39.19
    707.75       2.98       3.15       3.23       3.31       3.46       2.97       3.22       3.46       3.69       3.88      -0.02       0.04       2.01       1.97      35.01     102.94      13.26      13.41      38.64
    707.90       3.04       3.12       3.16       3.26       3.45       2.84       3.11       3.46       3.76       3.96      -0.01       0.04       2.02       1.99      34.55     102.58      13.26      13.41      38.36
    708.05       3.08       3.09       3.14       3.28       3.48       2.81       3.08       3.45       3.75       3.92      -0.01       0.04       2.03       2.00      36.31     102.94      13.02      13.30      37.84
    708.20       2.89       2.85       2.87       2.99       3.13       2.93       3.24       3.55       3.87       4.21      -0.01       0.04       2.02       2.01      38.84     104.64      12.96      13.45      37.58
    708.36       2.91       2.91       3.00       3.14       3.25       3.10       3.36       3.59       3.87       4.20      -0.02       0.05       2.02       2.01      40.89     107.69      13.13      13.10      37.07
    708.51       2.93       2.97       3.10       3.25       3.33       3.21       3.43       3.66       3.94       4.24      -0.03       0.05       2.00       2.01      42.17     108.58      13.13      13.10      36.88
    708.66       2.79       2.79       2.81       2.86       2.91       3.25       3.66       4.03       4.50       5.10      -0.03       0.04       1.97       2.00      40.33     109.87      13.17      13.52      36.82
    708.81       2.96       3.03       3.15       3.33       3.51       3.48       3.92       4.32       4.76       5.30      -0.03       0.04       1.96       2.00      39.38     107.63      12.93      13.62      36.82
    708.96       3.31       3.55       4.07       4.68       5.01       3.68       3.95       4.16       4.37       4.59      -0.02       0.05       1.99       2.01      36.61     106.37      13.17      13.22      36.96
    709.12       3.53       3.73       4.12       4.56       4.84       3.85       4.15       4.42       4.67       4.88      -0.02       0.06       2.01       2.01      37.47     104.70      13.06      13.32      37.07
    709.27       3.63       3.69       3.78       3.99       4.31       4.09       4.47       4.84       5.26       5.63      -0.03       0.05       1.96       1.99      36.30     106.69      12.58      13.66      37.16
    709.42       4.03       4.23       4.44       4.74       5.14       4.13       4.42       4.77       5.17       5.50      -0.05       0.04       1.87       1.95      37.44     108.69      12.58      13.66      37.21
    709.57       3.57       3.92       4.02       4.12       4.54       4.37       4.85       5.40       5.99       6.51      -0.05       0.03       1.82       1.93      34.09     106.84      13.15      13.48      37.16
    709.73       4.91       5.30       5.75       6.69       8.34       4.35       4.81       5.19       5.36       5.38      -0.04       0.03       1.85       1.92      32.63     105.81      13.22      13.45      37.36
    709.88       5.66       6.07       6.86       8.36      10.60       4.55       4.89       5.17       5.34       5.48      -0.03       0.04       1.90       1.94      30.15     104.09      13.22      13.45      37.55
    710.03       6.11       6.21       6.71       7.62       8.58       4.66       5.06       5.41       5.73       6.11      -0.03       0.04       1.91       1.95      29.93     102.50      13.36      13.23      37.32
    710.18       7.06       6.90       7.46       8.43       8.98       4.94       5.27       5.56       5.92       6.35      -0.03       0.05       1.85       1.93      28.69      95.04      12.76      13.23      37.58
    710.34       6.51       7.04       7.82       8.43       8.53       5.17       5.40       5.62       6.04       6.59      -0.04       0.04       1.80       1.89      27.24      90.09      12.95      13.03      37.77
    710.49       6.76       7.62       8.47       9.02       9.31       5.25       5.47       5.73       6.09       6.48      -0.06       0.03       1.73       1.84      24.54      86.70      12.95      13.03      37.66
    710.64       7.10       8.00       8.83       9.79      11.15       5.28       5.63       5.90       6.15       6.38      -0.06       0.01       1.73       1.81      21.67      86.25      12.67      12.98      37.72
    710.79       7.86       9.28      10.58      12.51      16.15       5.45       5.73       5.96       6.24       6.55      -0.06       0.01       1.76       1.80      20.29      89.31      12.67      13.09      37.84
    710.95       8.77      10.14      11.46      13.81      18.31       5.45       5.70       5.90       6.12       6.37      -0.04       0.02       1.86       1.80      20.56      94.93      12.74      12.98      37.93
    711.10       9.11      10.08      11.31      13.23      15.90       5.34       5.60       5.75       5.96       6.27      -0.04       0.01       1.89       1.80      21.79      96.42      12.74      12.98      38.10
    711.25       8.73       9.37      10.27      11.50      12.89       5.25       5.55       5.71       5.94       6.26      -0.03       0.01       1.89       1.80      23.15      92.80      12.78      13.34      38.06
    711.40       8.85       9.45      10.11      11.05      12.30       5.37       5.63       5.80       6.05       6.38      -0.04       0.01       1.87       1.80      23.95      88.97      13.10      13.55      37.84
    711.56       7.98       8.54       9.24      10.20      11.33       5.33       5.56       5.71       5.90       6.15      -0.04       0.01       1.88       1.81      24.24      90.88      12.95      13.28      38.10
    711.71       6.86       7.58       8.26       8.96       9.80       5.50       5.53       5.59       5.78       6.06      -0.03       0.02       1.89       1.84      24.65      95.27      12.95      13.28      38.05
    711.86       6.53       7.59       8.26       8.82       9.87       5.18       5.25       5.43       5.70       5.92      -0.03       0.03       1.91       1.87      26.17      95.10      12.84      13.52      37.90
    712.01       6.03       6.46       6.77       7.14       7.72       5.04       5.29       5.53       5.71       5.81      -0.02       0.04       1.93       1.88      28.47      94.26      12.91      13.45      37.98
    712.17       5.48       5.89       6.22       6.64       7.25       5.00       5.28       5.51       5.67       5.77      -0.02       0.04       1.97       1.89      30.62      91.10      12.95      13.40      37.67
    712.32       5.11       5.67       6.11       6.50       7.03       4.89       4.98       5.17       5.36       5.49      -0.02       0.04       1.98       1.91      30.91      96.02      13.33      13.47      36.47
    712.47       4.74       4.80       4.81       4.80       4.83       4.78       5.07       5.42       5.69       5.84      -0.02       0.04       1.97       1.92      31.61      96.76      13.33      13.47      36.09
    712.62       4.47       4.70       4.85       4.95       5.09       4.71       4.91       5.15       5.42       5.64      -0.02       0.03       1.95       1.92      32.97      96.84      13.16      13.28      36.09
