~Version Information
VERS.             2.0 : CWLS log ASCII standard - Version 2.0
WRAP.             NO  : One line per depth step
#
~Well Information Block
#MNEM.UNIT                   Data Type:Information
#__________________________________________________________
  STRT.M            397.0000 : START INDEX                   
  STOP.M           1185.9768 : STOP INDEX                    
  STEP.M              0.1524 : STEP                          
  NULL.              -999.25 : NULL VALUE                    
  COMP.              Chevron : COMPANY                       
  WELL.           A12a-CPP-A7 : WELL                          
   FLD.                  A12 : FIELD                         
   LOC.           North Sea Dutch Sector : LOCATION                      
  PROV.                      : PROVINCE                      
  CNTY.                      : COUNTY                        
  STAT.                      : STATE                         
  CTRY.           The Netherlands : COUNTRY                       
  SRVC.           Schlimberger D & M : SERVICE COMPANY               
  DATE.            30-Sep-07 : LOG DATE                      
   UWI.                      : UNIQUE WELL ID                
   API.                      : API NUMBER                    
#
~Curve Information Block
#MNEM.UNIT                     : Curve Description
#---------                     --------------------
DEPT        .M                 : Bit Depth 2hz                                                   
P16H_UNC    .OHMM              : ARC Non-BHCorr Phase-Shift Resistivity 16-in. at 2 MHz          
P22H_UNC    .OHMM              : ARC Non-BHCorr Phase-Shift Resistivity 22-in. at 2 MHz          
P28H_UNC    .OHMM              : ARC Non-BHCorr Phase-Shift Resistivity 28-in. at 2 MHz          
P34H_UNC    .OHMM              : ARC Non-BHCorr Phase-Shift Resistivity 34-in. at 2 MHz          
P40H_UNC    .OHMM              : ARC Non-BHCorr Phase-Shift Resistivity 40-in. at 2 MHz          
A16H_UNC    .OHMM              : ARC Non-BHCorr Attenuation Resistivity 16-in. at 2 MHz          
A22H_UNC    .OHMM              : ARC Non-BHCorr Attenuation Resistivity 22-in. at 2 MHz          
A28H_UNC    .OHMM              : ARC Non-BHCorr Attenuation Resistivity 28-in. at 2 MHz          
A34H_UNC    .OHMM              : ARC Non-BHCorr Attenuation Resistivity 34-in. at 2 MHz          
A40H_UNC    .OHMM              : ARC Non-BHCorr Attenuation Resistivity 40-in. at 2 MHz          
DRHB        .G/C3              : Bulk Density Correction, Bottom                                 
DRHO        .G/C3              : Bulk Density Correction                                         
ROBB        .G/C3              : Bulk Density, Bottom                                            
RHOB        .G/C3              : Bulk Density                                                    
TNPH        .PU                : Thermal Neutron Porosity (Ratio Method) in Selected Lithology   
GR_ARC      .GAPI              : ARC Gamma Ray                                                   
HORD        .IN                : Horizontal Hole Diameter                                        
VERD        .IN                : Vertical Hole Diameter                                          
ROP5_RM     .M/HR              : Rate of Penetration, Averaged over Last 5ft                     
#
~Parameter Information Block
#MNEM.UNIT                       Value:Description
#__________________________________________________________
#
~Other Information Block

#
~A    DEPT   P16H_UNC   P22H_UNC   P28H_UNC   P34H_UNC   P40H_UNC   A16H_UNC   A22H_UNC   A28H_UNC   A34H_UNC   A40H_UNC       DRHB       DRHO       ROBB       RHOB       TNPH     GR_ARC       HORD       VERD    ROP5_RM
# ...
    656.39       2.05       2.04       2.04       2.04       2.05       1.99       2.03       2.11       2.17       2.18      -0.00       0.05       2.12       2.11      50.57     116.06      12.73      13.40      37.09
    656.54       2.04       2.04       2.04       2.05       2.04       2.07       2.08       2.12       2.18       2.19       0.00       0.05       2.12       2.11      48.92     114.97      12.71      13.38      34.29
    656.69       2.04       2.04       2.04       2.04       2.05       2.12       2.14       2.18       2.24       2.29       0.00       0.05       2.13       2.12      45.83     115.61      12.71      13.38      31.49
    656.84       2.07       2.05       2.03       2.03       2.03       2.15       2.20       2.26       2.35       2.44       0.00       0.05       2.12       2.12      47.06     117.18      12.59      13.31      30.14
    657.00       2.13       2.10       2.08       2.07       2.06       2.14       2.26       2.41       2.56       2.69       0.00       0.06       2.11       2.13      48.62     115.67      12.51      13.39      31.74
    657.15       2.21       2.20       2.25       2.31       2.33       2.33       2.44       2.63       2.83       2.94      -0.01       0.05       2.07       2.11      45.21     114.92      12.51      13.39      32.04
    657.30       2.33       2.32       2.46       2.64       2.69       2.47       2.53       2.69       2.84       2.89      -0.02       0.04       2.03       2.09      42.60     115.21      12.45      13.36      31.50
    657.45       2.45       2.43       2.55       2.70       2.74       2.68       2.75       2.97       3.28       3.39      -0.01       0.05       2.02       2.09      40.60     113.54      12.68      13.13      30.49
    657.61       2.57       2.56       2.68       2.82       2.85       2.87       2.96       3.26       3.58       3.70      -0.01       0.05       2.04       2.06      41.03     108.53      12.47      12.72      30.07
    657.76       2.55       2.62       2.68       2.70       2.70       3.31       3.70       4.06       4.40       4.69      -0.00       0.04       2.07       2.06      40.59     103.45      12.58      13.05      29.98
    657.91       2.66       2.82       2.93       3.00       3.10       3.66       4.16       4.43       4.72       5.29      -0.01       0.02       2.11       2.04      38.08     104.56      12.39      12.94      31.03
    658.06       2.91       3.12       3.23       3.41       3.82       4.06       4.66       4.89       5.13       5.76      -0.00       0.02       2.13       2.06      30.81     108.07      12.46      12.87      32.71
    658.22       3.55       3.73       3.82       4.36       5.83       4.21       5.29       5.83       5.86       6.10      -0.02       0.02       2.09       2.06      21.79     108.23      12.58      12.62      37.70
    658.37       6.98       6.91       7.21       8.54      11.12       4.31       4.92       5.50       5.88       6.13      -0.03       0.03       1.97       2.05      14.97     103.72      12.49      12.83      38.22
    658.52       9.88       9.50      10.02      11.56      13.54       4.53       4.80       5.31       5.81       5.93      -0.04       0.03       1.80       1.98      10.80      97.87      12.77      13.18      38.22
    658.67      13.17      11.78      11.93      13.09      13.99       4.91       4.92       5.33       5.71       5.63      -0.05       0.01       1.67       1.88       8.77      91.45      12.68      12.98      38.27
    658.83      14.40      14.08      14.22      14.80      15.42       5.26       5.21       5.52       5.69       5.45      -0.06       0.00       1.60       1.78       7.94      86.46      12.49      12.62      38.10
    658.98      14.02      15.53      16.04      16.25      17.07       5.15       5.39       5.69       5.76       5.53      -0.05       0.00       1.59       1.70       8.44      84.87      12.66      12.59      38.19
    659.13      13.77      16.15      16.25      16.44      19.09       4.88       5.41       5.74       5.84       5.86      -0.04      -0.01       1.66       1.65       9.96      88.77      13.07      12.65      38.21
    659.28      18.99      22.82      23.36      23.16      25.38       4.24       4.85       5.34       5.87       6.60      -0.03      -0.01       1.79       1.71      12.81      95.75      12.36      12.77      38.69
    659.43      22.89      24.93      26.31      27.60      29.39       3.86       4.39       4.81       5.40       6.22      -0.02      -0.01       1.98       1.83      17.22     100.97      12.49      12.82      38.91
    659.59      14.19      14.03      17.53      21.88      20.80       3.51       3.96       4.28       4.62       5.06      -0.01       0.01       2.10       1.98      24.72     105.45      12.67      13.20      38.91
    659.74       9.34       8.82      10.19      11.79      11.10       3.27       3.65       3.93       4.18       4.43      -0.01       0.02       2.09       2.04      33.96     106.12      12.93      13.36      38.87
    659.89       4.79       4.85       5.51       6.16       5.96       3.35       3.58       3.78       3.94       4.06      -0.00       0.04       2.08       2.08      40.41     107.80      12.93      13.36      38.64
    660.04       3.37       3.55       3.90       4.13       4.03       3.22       3.49       3.76       4.04       4.26      -0.00       0.05       2.10       2.10      41.11     108.74      12.88      13.14      38.79
    660.20       2.45       2.95       3.34       3.61       3.99       2.77       2.98       3.27       3.60       3.93      -0.00       0.04       2.11       2.09      43.98     112.34      12.86      13.11      38.91
    660.35       2.22       2.64       2.95       3.20       3.68       2.50       2.72       2.92       3.20       3.54       0.00       0.04       2.12       2.10      46.94     116.18      12.71      13.35      39.00
    660.50       2.04       2.34       2.50       2.70       3.19       2.20       2.42       2.62       2.82       3.03       0.00       0.04       2.12       2.09      48.67     115.71      12.54      13.40      39.47
    660.65       2.02       2.18       2.25       2.42       2.84       2.07       2.33       2.53       2.67       2.82      -0.00       0.04       2.13       2.10      48.33     117.92      12.54      13.40      39.92
    660.81       1.96       2.03       2.04       2.13       2.37       1.95       2.17       2.35       2.49       2.66      -0.01       0.04       2.13       2.10      54.00     120.23      12.68      13.43      39.40
    660.96       1.97       1.99       1.99       2.04       2.20       1.90       2.08       2.23       2.40       2.62      -0.00       0.04       2.12       2.10      57.48     121.92      13.17      13.24      39.32
    661.11       1.96       1.95       1.93       1.97       2.07       1.90       2.04       2.17       2.32       2.51      -0.00       0.05       2.13       2.11      56.24     121.42      13.17      13.24      39.37
    661.26       1.97       1.95       1.93       1.95       1.99       1.92       2.03       2.14       2.27       2.44      -0.00       0.05       2.12       2.12      52.98     118.63      13.09      13.37      39.19
    661.42       1.97       1.96       1.95       1.96       1.97       1.95       2.04       2.11       2.22       2.38      -0.01       0.06       2.12       2.13      51.98     119.63      13.03      13.09      39.19
    661.57       2.00       1.97       1.97       1.98       1.98       2.01       2.07       2.12       2.21       2.35      -0.01       0.06       2.10       2.12      53.21     120.05      13.03      13.09      38.97
    661.72       2.07       2.03       2.03       2.03       2.01       1.99       2.08       2.13       2.21       2.35      -0.02       0.05       2.06       2.12      48.50     118.76      12.76      13.16      39.06
    661.87       2.10       2.08       2.09       2.09       2.07       2.08       2.14       2.16       2.20       2.30      -0.02       0.04       2.06       2.10      47.81     118.29      12.81      12.93      38.93
