~Version Information
VERS.             2.0 : CWLS log ASCII standard - Version 2.0
WRAP.             NO  : One line per depth step
#
~Well Information Block
#MNEM.UNIT                   Data Type:Information
#__________________________________________________________
  STRT.M            397.0000 : START INDEX                   
  STOP.M           1185.9768 : STOP INDEX                    
  STEP.M              0.1524 : STEP                          
  NULL.              -999.25 : NULL VALUE                    
  COMP.              Chevron : COMPANY                       
  WELL.           A12a-CPP-A7 : WELL                          
   FLD.                  A12 : FIELD                         
   LOC.           North Sea Dutch Sector : LOCATION                      
  PROV.                      : PROVINCE                      
  CNTY.                      : COUNTY                        
  STAT.                      : STATE                         
  CTRY.           The Netherlands : COUNTRY                       
  SRVC.           Schlimberger D & M : SERVICE COMPANY               
  DATE.            30-Sep-07 : LOG DATE                      
   UWI.                      : UNIQUE WELL ID                
   API.                      : API NUMBER                    
#
~Curve Information Block
#MNEM.UNIT                     : Curve Description
#---------                     --------------------
DEPT        .M                 : Bit Depth 2hz                                                   
P16H_UNC    .OHMM              : ARC Non-BHCorr Phase-Shift Resistivity 16-in. at 2 MHz          
P22H_UNC    .OHMM              : ARC Non-BHCorr Phase-Shift Resistivity 22-in. at 2 MHz          
P28H_UNC    .OHMM              : ARC Non-BHCorr Phase-Shift Resistivity 28-in. at 2 MHz          
P34H_UNC    .OHMM              : ARC Non-BHCorr Phase-Shift Resistivity 34-in. at 2 MHz          
P40H_UNC    .OHMM              : ARC Non-BHCorr Phase-Shift Resistivity 40-in. at 2 MHz          
A16H_UNC    .OHMM              : ARC Non-BHCorr Attenuation Resistivity 16-in. at 2 MHz          
A22H_UNC    .OHMM              : ARC Non-BHCorr Attenuation Resistivity 22-in. at 2 MHz          
A28H_UNC    .OHMM              : ARC Non-BHCorr Attenuation Resistivity 28-in. at 2 MHz          
A34H_UNC    .OHMM              : ARC Non-BHCorr Attenuation Resistivity 34-in. at 2 MHz          
A40H_UNC    .OHMM              : ARC Non-BHCorr Attenuation Resistivity 40-in. at 2 MHz          
DRHB        .G/C3              : Bulk Density Correction, Bottom                                 
DRHO        .G/C3              : Bulk Density Correction                                         
ROBB        .G/C3              : Bulk Density, Bottom                                            
RHOB        .G/C3              : Bulk Density                                                    
TNPH        .PU                : Thermal Neutron Porosity (Ratio Method) in Selected Lithology   
GR_ARC      .GAPI              : ARC Gamma Ray                                                   
HORD        .IN                : Horizontal Hole Diameter                                        
VERD        .IN                : Vertical Hole Diameter                                          
ROP5_RM     .M/HR              : Rate of Penetration, Averaged over Last 5ft                     
#
~Parameter Information Block
#MNEM.UNIT                       Value:Description
#__________________________________________________________
#
~Other Information Block

#
~A    DEPT   P16H_UNC   P22H_UNC   P28H_UNC   P34H_UNC   P40H_UNC   A16H_UNC   A22H_UNC   A28H_UNC   A34H_UNC   A40H_UNC       DRHB       DRHO       ROBB       RHOB       TNPH     GR_ARC       HORD       VERD    ROP5_RM
    397.00       2.64       2.70       1.94       1.19       0.83     300.00       6.23       1.65       1.27       1.10      -0.01      -0.03       1.82       1.71      50.94      34.16    -999.25    -999.25       9.10
    397.15       1.03       1.39       1.27       1.04       1.08       0.31       0.82       1.62       1.29       1.00       0.24       0.15       1.95       1.74      58.85      35.27    -999.25    -999.25       9.10
    397.31       0.87       1.28       1.24       1.00       1.03       0.32       0.86       1.65       1.22       0.87       0.16       0.08       1.89       1.66      67.36      35.80    -999.25    -999.25       7.62
    397.46       0.97       1.10       0.98       0.95       1.26       0.57       0.42       0.37       0.59       2.63       0.12       0.04       1.90       1.64      71.94      37.25    -999.25    -999.25       9.57
    397.61       1.10       0.89       0.68       0.74       1.33       0.57       0.45       0.40       0.60       1.86       0.11       0.03       1.92       1.65      59.54      40.42    -999.25    -999.25      10.41
    397.76       1.08       0.85       0.62       0.33       0.17       0.55       0.48       0.43       0.33       0.23       0.11       0.02       1.92       1.65      56.74      44.38    -999.25    -999.25      10.65
    397.92       0.99       0.80       0.52       0.32       0.22       0.58       0.47       0.36       0.33       0.37       0.11       0.01       1.90       1.65      52.44      45.28    -999.25    -999.25      10.79
    398.07       1.00       0.81       0.54       0.37       0.30       0.51       0.47       0.38       0.37       0.48       0.10       0.00       1.87       1.65      55.70      41.81    -999.25    -999.25      10.79
    398.22       1.08       0.87       0.61       0.46       0.39       0.47       0.47       0.45       0.48       0.59       0.10       0.01       1.87       1.67      52.42      37.08    -999.25    -999.25      10.79
    398.37       1.04       0.83       0.61       0.41       0.30       0.51       0.47       0.46       0.49       0.55       0.10       0.01       1.88       1.69      52.05      34.57    -999.25    -999.25      10.79
    398.53       1.01       0.79       0.56       0.32       0.18       0.49       0.42       0.40       0.44       0.50       0.09       0.01       1.88       1.70      52.80      34.12      16.68      16.64      14.39
    398.68       0.99       0.79       0.51       0.20       0.10       0.56       0.34       0.27       0.34       0.72       0.10       0.02       1.90       1.70      59.18      34.97    -999.25    -999.25      14.39
    398.83       0.99       0.79       0.47       0.18       0.10       0.50       0.33       0.23       0.34       2.82       0.09       0.02       1.91       1.71      59.26      37.95    -999.25    -999.25      13.92
    398.98       1.25       0.86       0.50       0.21       0.10       0.42       0.30       0.23       0.31       1.38       0.09       0.02       1.94       1.72      55.56      40.38    -999.25    -999.25      15.95
    399.14       1.41       0.88       0.45       0.23       0.15       0.39       0.33       0.23       0.25       0.56       0.07       0.01       1.92       1.71      50.45      42.42      16.59      16.61      19.14
    399.29       1.50       0.94       0.50       0.29       0.22       0.42       0.36       0.26       0.26       0.44       0.06       0.02       1.91       1.72      48.04      42.32    -999.25    -999.25      20.49
    399.44       1.36       0.95       0.58       0.34       0.22       0.48       0.38       0.29       0.31       0.54       0.01      -0.04       1.86       1.66      48.05      41.65      16.77      16.98      22.31
    399.59       1.32       1.02       0.68       0.37       0.21       0.55       0.39       0.30       0.33       0.48      -0.02      -0.03       1.82       1.71      44.49      40.44      16.00      13.56      24.80
    399.75       1.29       0.99       0.64       0.25       0.10       0.60       0.40       0.30       0.41       1.28      -0.04      -0.03       1.84       1.70      45.02      38.49      15.75      13.58      25.73
    399.90       1.26       0.99       0.66       0.20       0.10       0.63       0.39       0.30       0.81     700.00      -0.01       0.04       1.88       1.76      43.20      39.33      15.78      13.51      24.96
    400.05       1.32       1.03       0.70       0.24       0.10       0.54       0.36       0.31       0.85     700.00       0.01       0.02       1.93       1.76      46.03      40.09      16.01      13.84      25.74
    400.20       1.30       1.00       0.74       0.28       0.10       0.52       0.40       0.38       0.76      15.75       0.01       0.02       1.93       1.73      49.23      40.50      16.01      13.84      26.50
    400.35       1.28       0.99       0.79       0.31       0.11       0.57       0.43       0.40       0.57       1.34       0.00       0.02       1.95       1.72      50.54      38.18      16.76      16.77      24.11
    400.51       1.24       0.96       0.82       0.45       0.21       0.64       0.45       0.40       0.49       0.70       0.00       0.02       1.96       1.72      49.41      37.23      15.83      13.60      22.87
    400.66       1.25       0.89       0.74       0.48       0.26       0.70       0.45       0.39       0.52       0.99       0.01       0.03       1.98       1.75      49.74      39.39      15.73      13.73      21.25
    400.81       1.05       0.73       0.61       0.57       0.51       0.63       0.60       0.60       0.87       2.34       0.01       0.04       2.00       1.79      47.19      43.10    -999.25      13.61      20.38
    400.96       0.83       0.67       0.60       0.55       0.48       0.64       0.72       0.78       1.05       2.15       0.01       0.05       2.00       1.83      47.71      44.33      15.65      13.62      20.02
    401.12       0.81       0.73       0.68       0.65       0.62       0.70       0.73       0.75       0.84       1.07       0.01       0.07       2.01       1.87      44.27      42.82      13.26      13.69      19.58
    401.27       0.86       0.80       0.75       0.69       0.64       0.74       0.71       0.70       0.74       0.83       0.00       0.08       2.03       1.91      46.06      40.03    -999.25      13.69      19.59
    401.42       0.88       0.85       0.80       0.76       0.74       0.73       0.73       0.74       0.77       0.84       0.01       0.10       2.07       1.95      44.48      36.81    -999.25      13.69      22.48
    401.57       0.90       0.87       0.84       0.78       0.71       0.75       0.76       0.77       0.76       0.73      -0.00       0.09       2.06       1.95      43.00      34.35      15.51      13.06      22.86
    401.73       0.94       0.90       0.85       0.80       0.75       0.76       0.76       0.75       0.72       0.70      -0.00       0.09       2.06       1.96      39.96      31.39      15.75      13.33      25.70
    401.88       0.96       0.91       0.87       0.83       0.77       0.76       0.72       0.72       0.73       0.71       0.01       0.09       2.08       1.97      40.09      31.07      15.89      13.62      26.21
    402.03       0.96       0.89       0.85       0.80       0.74       0.75       0.72       0.71       0.73       0.75       0.01       0.11       2.08       1.98      39.26      30.79      15.85      13.03      26.21
    402.18       0.90       0.84       0.80       0.75       0.70       0.73       0.73       0.75       0.78       0.80       0.03       0.12       2.08       1.99      39.35      32.89      15.85      13.03      26.69
    402.34       0.87       0.83       0.79       0.75       0.71       0.74       0.72       0.72       0.74       0.77       0.03       0.13       2.05       1.99      42.11      34.48      14.55      13.14      27.13
    402.49       0.86       0.83       0.79       0.74       0.69       0.73       0.70       0.70       0.72       0.73       0.04       0.13       2.07       1.99      45.65      37.38      14.65      13.24      27.41
