~Version Information
VERS.             2.0 : CWLS log ASCII standard - Version 2.0
WRAP.             NO  : One line per depth step
#
~Well Information Block
#MNEM.UNIT                   Data Type:Information
#__________________________________________________________
  STRT.M            397.0000 : START INDEX                   
  STOP.M           1185.9768 : STOP INDEX                    
  STEP.M              0.1524 : STEP                          
  NULL.              -999.25 : NULL VALUE                    
  COMP.              Chevron : COMPANY                       
  WELL.           A12a-CPP-A7 : WELL                          
   FLD.                  A12 : FIELD                         
   LOC.           North Sea Dutch Sector : LOCATION                      
  PROV.                      : PROVINCE                      
  CNTY.                      : COUNTY                        
  STAT.                      : STATE                         
  CTRY.           The Netherlands : COUNTRY                       
  SRVC.           Schlimberger D & M : SERVICE COMPANY               
  DATE.            30-Sep-07 : LOG DATE                      
   UWI.                      : UNIQUE WELL ID                
   API.                      : API NUMBER                    
#
~Curve Information Block
#MNEM.UNIT                     : Curve Description
#---------                     --------------------
DEPT        .M                 : Bit Depth 2hz                                                   
P16H_UNC    .OHMM              : ARC Non-BHCorr Phase-Shift Resistivity 16-in. at 2 MHz          
P22H_UNC    .OHMM              : ARC Non-BHCorr Phase-Shift Resistivity 22-in. at 2 MHz          
P28H_UNC    .OHMM              : ARC Non-BHCorr Phase-Shift Resistivity 28-in. at 2 MHz          
P34H_UNC    .OHMM              : ARC Non-BHCorr Phase-Shift Resistivity 34-in. at 2 MHz          
P40H_UNC    .OHMM              : ARC Non-BHCorr Phase-Shift Resistivity 40-in. at 2 MHz          
A16H_UNC    .OHMM              : ARC Non-BHCorr Attenuation Resistivity 16-in. at 2 MHz          
A22H_UNC    .OHMM              : ARC Non-BHCorr Attenuation Resistivity 22-in. at 2 MHz          
A28H_UNC    .OHMM              : ARC Non-BHCorr Attenuation Resistivity 28-in. at 2 MHz          
A34H_UNC    .OHMM              : ARC Non-BHCorr Attenuation Resistivity 34-in. at 2 MHz          
A40H_UNC    .OHMM              : ARC Non-BHCorr Attenuation Resistivity 40-in. at 2 MHz          
DRHB        .G/C3              : Bulk Density Correction, Bottom                                 
DRHO        .G/C3              : Bulk Density Correction                                         
ROBB        .G/C3              : Bulk Density, Bottom                                            
RHOB        .G/C3              : Bulk Density                                                    
TNPH        .PU                : Thermal Neutron Porosity (Ratio Method) in Selected Lithology   
GR_ARC      .GAPI              : ARC Gamma Ray                                                   
HORD        .IN                : Horizontal Hole Diameter                                        
VERD        .IN                : Vertical Hole Diameter                                          
ROP5_RM     .M/HR              : Rate of Penetration, Averaged over Last 5ft                     
#
~Parameter Information Block
#MNEM.UNIT                       Value:Description
#__________________________________________________________
#
~Other Information Block

#
~A    DEPT   P16H_UNC   P22H_UNC   P28H_UNC   P34H_UNC   P40H_UNC   A16H_UNC   A22H_UNC   A28H_UNC   A34H_UNC   A40H_UNC       DRHB       DRHO       ROBB       RHOB       TNPH     GR_ARC       HORD       VERD    ROP5_RM
# ...
   1118.77       3.75       3.76       3.74       3.76       3.82       2.76       2.87       2.97       3.11       3.25      -0.00       0.05       2.04       1.98      37.97     117.89      13.29      13.55      39.47
   1118.92       3.52       3.54       3.56       3.59       3.63       2.92       3.01       3.10       3.24       3.43       0.01       0.05       2.04       1.98      37.45     113.70      13.29      13.55      40.05
   1119.07       3.61       3.63       3.64       3.68       3.75       2.95       3.02       3.12       3.26       3.44       0.01       0.06       2.04       1.98      38.34     110.09      13.33      13.92      40.05
   1119.23       3.73       3.73       3.76       3.82       3.86       2.95       3.01       3.09       3.20       3.33       0.02       0.07       2.04       1.99      37.62     107.16      13.01      13.31      40.05
   1119.38       3.76       3.71       3.73       3.80       3.86       3.05       3.16       3.21       3.27       3.39       0.00       0.06       2.02       1.98      37.16     107.08      13.01      13.31      40.34
   1119.53       3.77       3.77       3.83       3.93       4.01       3.14       3.11       3.12       3.17       3.25       0.00       0.04       2.01       1.96      35.80     107.05      12.99      13.25      40.18
   1119.68       3.74       3.76       3.79       3.86       3.93       3.12       3.19       3.24       3.31       3.40      -0.01       0.04       1.98       1.95      34.25     106.54      13.00      13.42      39.95
   1119.84       3.85       3.90       3.95       4.01       4.08       3.14       3.19       3.22       3.27       3.35      -0.01       0.05       1.95       1.96      32.24     105.14      13.00      13.42      39.80
   1119.99       3.97       4.06       4.15       4.26       4.36       3.16       3.17       3.18       3.23       3.31      -0.01       0.07       1.93       1.96      32.13     105.73      13.01      13.73      40.02
   1120.14       4.04       4.16       4.31       4.47       4.60       3.16       3.17       3.19       3.22       3.24      -0.01       0.06       1.93       1.94      32.05     106.75      13.03      13.66      39.47
   1120.29       4.12       4.18       4.31       4.47       4.59       3.21       3.22       3.23       3.26       3.29      -0.01       0.04       1.93       1.91      32.20     109.46      13.03      13.66      39.76
   1120.44       4.13       4.19       4.35       4.54       4.66       3.28       3.25       3.25       3.31       3.40      -0.01       0.04       1.93       1.91      30.44     113.24      13.39      13.56      39.19
   1120.60       4.02       4.13       4.31       4.53       4.69       3.31       3.30       3.29       3.31       3.36      -0.01       0.04       1.94       1.90      28.57     114.34      12.86      13.79      39.19
   1120.75       3.95       4.14       4.37       4.57       4.70       3.31       3.31       3.33       3.36       3.37      -0.01       0.05       1.96       1.92      28.81     110.29      12.86      13.79      39.03
   1120.90       3.97       4.20       4.44       4.65       4.86       3.34       3.34       3.37       3.42       3.45      -0.00       0.05       1.99       1.93      29.79     103.16      13.33      13.78      38.64
   1121.05       4.03       4.29       4.62       4.95       5.24       3.34       3.34       3.36       3.39       3.41      -0.01       0.05       2.00       1.95      32.71      97.74      13.33      13.78      38.91
   1121.21       4.31       4.65       5.09       5.53       5.89       3.38       3.38       3.38       3.39       3.41      -0.02       0.05       2.00       1.95      31.73      95.81      13.18      13.73      38.89
   1121.36       4.55       4.81       5.20       5.66       6.03       3.43       3.40       3.43       3.47       3.48      -0.02       0.05       1.99       1.96      29.96      97.70      13.29      13.70      39.19
   1121.51       4.57       4.76       5.14       5.64       6.09       3.52       3.54       3.58       3.63       3.66      -0.03       0.05       1.99       1.96      29.33     101.73      13.29      13.70      39.19
   1121.66       4.41       4.70       5.09       5.52       5.89       3.65       3.68       3.72       3.79       3.85      -0.03       0.05       1.96       1.97      28.38     106.11      13.08      13.67      39.76
   1121.82       4.96       5.39       6.06       6.91       7.70       3.73       3.70       3.72       3.75       3.77      -0.04       0.05       1.91       1.95      28.06     108.25      13.20      13.66      39.78
   1121.97       5.09       5.71       6.43       7.30       8.32       3.82       3.79       3.84       3.89       3.86      -0.05       0.04       1.84       1.94      26.83     107.89      13.20      13.66      40.53
   1122.12       5.61       6.15       6.97       8.13       9.53       3.77       3.83       3.91       3.96       3.94      -0.05       0.04       1.80       1.91      25.94     106.57      12.78      13.59      40.64
   1122.27       6.19       6.92       7.91       9.43      11.44       3.88       3.90       4.00       4.09       4.09      -0.05       0.04       1.75       1.90      23.51     104.98      13.09      13.23      40.64
   1122.43       6.52       7.46       8.78      10.39      11.95       3.91       3.93       4.03       4.14       4.18      -0.05       0.04       1.74       1.89      21.63     103.76      12.84      13.03      41.25
   1122.58       7.07       8.08       9.65      11.68      13.72       3.94       4.03       4.17       4.31       4.39      -0.04       0.03       1.74       1.89      20.47     103.04      12.84      13.07      41.35
   1122.73       7.21       8.64      10.70      13.33      16.18       4.03       4.09       4.22       4.40       4.54      -0.03       0.03       1.75       1.88      20.21     100.68      12.84      13.07      41.88
   1122.88       7.64       9.32      11.38      13.66      16.10       4.06       4.14       4.32       4.56       4.74      -0.03       0.04       1.76       1.88      19.86      99.10      12.95      12.90      41.41
   1123.04       7.83       9.73      12.38      15.86      19.88       4.06       4.17       4.36       4.59       4.78      -0.02       0.04       1.77       1.87      19.94      97.50      13.10      13.05      41.56
   1123.19       7.67       9.84      13.04      17.32      22.22       4.12       4.24       4.43       4.69       4.92      -0.01       0.04       1.81       1.87      20.74      96.04      13.10      13.05      41.56
   1123.34       7.95      10.15      13.67      18.79      24.67       4.12       4.28       4.53       4.79       4.98      -0.01       0.04       1.87       1.89      21.95      94.85      13.14      13.07      41.39
   1123.49       8.08      10.31      14.08      19.72      26.21       4.14       4.31       4.54       4.81       5.05      -0.01       0.04       1.92       1.90      22.17      94.18      12.82      13.17      41.11
   1123.65       7.74      10.12      13.85      18.80      23.93       4.21       4.36       4.59       4.93       5.36      -0.02       0.03       1.94       1.90      22.59      93.42      12.82      13.17      40.84
   1123.80       7.77      10.31      14.09      19.36      26.16       4.24       4.42       4.70       5.11       5.60      -0.03       0.02       1.95       1.89      22.71      95.28      12.77      13.01      40.60
   1123.95       8.50      12.12      17.33      24.98      38.30       4.25       4.47       4.78       5.27       5.81      -0.03       0.02       1.95       1.89      23.36     101.34      12.96      13.18      40.34
   1124.10       9.01      13.00      19.15      28.48      43.97       4.29       4.50       4.84       5.43       6.04      -0.02       0.03       1.97       1.90      23.39     106.96      12.96      13.18      40.05
   1124.25       9.73      13.63      20.15      31.55      52.40       4.28       4.55       4.91       5.53       6.15      -0.01       0.03       1.99       1.90      23.15     110.77      12.78      12.80      39.47
