~Version Information
VERS.             2.0 : CWLS log ASCII standard - Version 2.0
WRAP.             NO  : One line per depth step
#
~Well Information Block
#MNEM.UNIT                   Data Type:Information
#__________________________________________________________
  STRT.M            397.0000 : START INDEX                   
  STOP.M           1185.9768 : STOP INDEX                    
  STEP.M              0.1524 : STEP                          
  NULL.              -999.25 : NULL VALUE                    
  COMP.              Chevron : COMPANY                       
  WELL.           A12a-CPP-A7 : WELL                          
   FLD.                  A12 : FIELD                         
   LOC.           North Sea Dutch Sector : LOCATION                      
  PROV.                      : PROVINCE                      
  CNTY.                      : COUNTY                        
  STAT.                      : STATE                         
  CTRY.           The Netherlands : COUNTRY                       
  SRVC.           Schlimberger D & M : SERVICE COMPANY               
  DATE.            30-Sep-07 : LOG DATE                      
   UWI.                      : UNIQUE WELL ID                
   API.                      : API NUMBER                    
#
~Curve Information Block
#MNEM.UNIT                     : Curve Description
#---------                     --------------------
DEPT        .M                 : Bit Depth 2hz                                                   
P16H_UNC    .OHMM              : ARC Non-BHCorr Phase-Shift Resistivity 16-in. at 2 MHz          
P22H_UNC    .OHMM              : ARC Non-BHCorr Phase-Shift Resistivity 22-in. at 2 MHz          
P28H_UNC    .OHMM              : ARC Non-BHCorr Phase-Shift Resistivity 28-in. at 2 MHz          
P34H_UNC    .OHMM              : ARC Non-BHCorr Phase-Shift Resistivity 34-in. at 2 MHz          
P40H_UNC    .OHMM              : ARC Non-BHCorr Phase-Shift Resistivity 40-in. at 2 MHz          
A16H_UNC    .OHMM              : ARC Non-BHCorr Attenuation Resistivity 16-in. at 2 MHz          
A22H_UNC    .OHMM              : ARC Non-BHCorr Attenuation Resistivity 22-in. at 2 MHz          
A28H_UNC    .OHMM              : ARC Non-BHCorr Attenuation Resistivity 28-in. at 2 MHz          
A34H_UNC    .OHMM              : ARC Non-BHCorr Attenuation Resistivity 34-in. at 2 MHz          
A40H_UNC    .OHMM              : ARC Non-BHCorr Attenuation Resistivity 40-in. at 2 MHz          
DRHB        .G/C3              : Bulk Density Correction, Bottom                                 
DRHO        .G/C3              : Bulk Density Correction                                         
ROBB        .G/C3              : Bulk Density, Bottom                                            
RHOB        .G/C3              : Bulk Density                                                    
TNPH        .PU                : Thermal Neutron Porosity (Ratio Method) in Selected Lithology   
GR_ARC      .GAPI              : ARC Gamma Ray                                                   
HORD        .IN                : Horizontal Hole Diameter                                        
VERD        .IN                : Vertical Hole Diameter                                          
ROP5_RM     .M/HR              : Rate of Penetration, Averaged over Last 5ft                     
#
~Parameter Information Block
#MNEM.UNIT                       Value:Description
#__________________________________________________________
#
~Other Information Block

#
~A    DEPT   P16H_UNC   P22H_UNC   P28H_UNC   P34H_UNC   P40H_UNC   A16H_UNC   A22H_UNC   A28H_UNC   A34H_UNC   A40H_UNC       DRHB       DRHO       ROBB       RHOB       TNPH     GR_ARC       HORD       VERD    ROP5_RM
# ...
    549.25       1.56       1.77       1.85       1.90       2.08       1.55       1.68       1.78       1.88       2.01       0.02       0.05       1.98       1.96      37.93      70.73      12.89      13.40      39.91
    549.40       1.47       1.56       1.57       1.59       1.73       1.35       1.46       1.57       1.69       1.81       0.03       0.04       1.98       1.95      38.74      72.97      12.73      13.06      39.76
    549.55       1.37       1.40       1.39       1.43       1.57       1.28       1.38       1.48       1.56       1.64       0.02       0.05       1.99       1.96      39.53      73.80      12.76      13.03      40.18
    549.71       1.31       1.31       1.29       1.30       1.35       1.28       1.35       1.41       1.49       1.59       0.00       0.05       1.99       1.97      40.61      71.93      12.76      13.03      39.91
    549.86       1.31       1.28       1.26       1.26       1.31       1.31       1.35       1.37       1.41       1.47      -0.00       0.05       2.00       1.98      37.37      69.33      12.47      13.15      39.64
    550.01       1.32       1.30       1.27       1.26       1.27       1.30       1.30       1.32       1.37       1.43      -0.01       0.03       2.00       1.97      35.29      72.77      12.61      12.93      39.51
    550.16       1.36       1.31       1.26       1.21       1.15       1.26       1.32       1.35       1.42       1.54      -0.01       0.03       2.02       1.98      34.76      81.00      12.60      12.86      40.16
    550.32       1.40       1.36       1.31       1.27       1.25       1.28       1.33       1.37       1.42       1.53       0.00       0.04       2.06       2.00      36.23      88.94      12.60      12.86      40.77
    550.47       1.46       1.43       1.39       1.36       1.35       1.30       1.32       1.35       1.39       1.44       0.00       0.04       2.10       2.03      37.81      93.41      13.07      13.26      41.25
    550.62       1.50       1.46       1.42       1.39       1.37       1.30       1.30       1.31       1.32       1.32       0.01       0.05       2.15       2.07      39.13      92.68      13.01      13.38      40.94
    550.77       1.51       1.45       1.42       1.40       1.38       1.31       1.31       1.31       1.31       1.31      -0.01       0.05       2.15       2.10      41.53      90.06      13.01      13.38      40.54
    550.93       1.52       1.47       1.45       1.42       1.38       1.35       1.33       1.31       1.30       1.31      -0.01       0.05       2.12       2.10      42.59      85.07      12.75      12.78      40.10
    551.08       1.53       1.48       1.45       1.41       1.35       1.34       1.34       1.33       1.32       1.31      -0.01       0.06       2.06       2.10      42.16      82.95      12.99      12.91      39.76
    551.23       1.50       1.44       1.41       1.38       1.35       1.30       1.33       1.35       1.37       1.39      -0.00       0.06       2.04       2.08      37.34      86.00      12.62      13.05      39.56
    551.38       1.42       1.40       1.38       1.36       1.35       1.32       1.34       1.36       1.36       1.36      -0.00       0.06       2.04       2.06      36.47      92.58      12.62      13.05      39.09
    551.54       1.45       1.43       1.40       1.38       1.37       1.27       1.30       1.31       1.32       1.31       0.00       0.05       2.06       2.04      37.77      95.15      12.63      13.47      38.12
    551.69       1.44       1.43       1.40       1.37       1.37       1.24       1.24       1.27       1.30       1.29      -0.00       0.04       2.06       2.03      43.19      95.36      13.21      13.60      37.84
    551.84       1.39       1.37       1.34       1.30       1.30       1.20       1.18       1.21       1.26       1.28      -0.00       0.05       2.07       2.03      50.10      94.80      13.21      13.60      36.87
    551.99       1.27       1.24       1.22       1.20       1.19       1.25       1.27       1.29       1.31       1.30      -0.00       0.05       2.08       2.04      48.01      91.88      12.92      13.20      36.24
    552.15       1.26       1.22       1.20       1.19       1.18       1.23       1.27       1.31       1.34       1.32      -0.00       0.06       2.07       2.05      46.71      86.29      12.80      12.95      35.73
    552.30       1.21       1.19       1.18       1.16       1.13       1.23       1.24       1.28       1.34       1.39       0.00       0.08       2.08       2.07      43.12      78.67      12.80      12.95      35.63
    552.45       1.17       1.14       1.12       1.11       1.08       1.27       1.28       1.30       1.38       1.47       0.00       0.08       2.08       2.07      41.31      74.36      13.09      13.03      34.80
    552.60       1.21       1.19       1.17       1.16       1.14       1.33       1.36       1.41       1.48       1.59       0.00       0.08       2.09       2.09      40.54      70.12      12.58      12.82      34.30
    552.75       1.28       1.27       1.26       1.24       1.19       1.35       1.40       1.44       1.49       1.55       0.00       0.06       2.08       2.08      38.82      67.41      12.64      13.21      34.08
    552.91       1.39       1.38       1.38       1.36       1.33       1.38       1.46       1.52       1.57       1.65       0.00       0.06       2.07       2.09      40.61      69.01      12.64      13.21      34.14
    553.06       1.50       1.48       1.46       1.47       1.50       1.44       1.49       1.53       1.59       1.67       0.00       0.05       2.08       2.08      39.45      75.12      12.29      12.71      34.41
    553.21       1.64       1.62       1.61       1.62       1.64       1.52       1.56       1.58       1.60       1.64       0.00       0.05       2.12       2.10      41.34      83.16      12.34      12.77      35.00
    553.36       1.74       1.72       1.71       1.71       1.71       1.58       1.62       1.62       1.63       1.67       0.01       0.05       2.16       2.12      41.45      89.86      12.34      12.77      35.25
    553.52       1.86       1.83       1.81       1.82       1.83       1.63       1.67       1.67       1.67       1.69       0.00       0.05       2.15       2.13      42.88      92.93      12.46      12.83      35.40
    553.67       1.94       1.92       1.92       1.95       1.97       1.71       1.72       1.71       1.70       1.71      -0.00       0.05       2.15       2.13      43.68      93.55      12.56      13.20      35.53
    553.82       1.98       1.96       1.97       2.00       2.02       1.74       1.74       1.73       1.72       1.71      -0.01       0.05       2.15       2.14      44.16      91.68      12.42      13.22      35.86
    553.97       2.01       1.99       2.01       2.04       2.05       1.73       1.72       1.71       1.70       1.68      -0.00       0.05       2.17       2.15      44.75      92.97      12.42      13.22      37.04
    554.13       1.97       1.98       2.01       2.04       2.03       1.74       1.70       1.66       1.65       1.65       0.00       0.06       2.18       2.16      44.96      95.48      12.45      12.94      37.72
    554.28       1.97       1.98       2.02       2.05       2.08       1.64       1.62       1.59       1.57       1.57       0.00       0.06       2.17       2.16      43.90      97.63      12.43      12.71      37.84
    554.43       1.99       2.00       2.00       2.02       2.06       1.55       1.55       1.54       1.54       1.53       0.00       0.06       2.16       2.15      46.30      98.75      12.55      13.03      37.68
    554.58       1.85       1.90       1.92       1.94       1.98       1.46       1.45       1.44       1.43       1.42       0.00       0.07       2.15       2.14      45.89      95.68      12.61      13.16      37.64
    554.74       1.76       1.82       1.85       1.88       1.95       1.41       1.40       1.40       1.38       1.36       0.01       0.06       2.16       2.12      47.82      91.28      12.49      12.97      37.84
