~Version Information
VERS.             2.0 : CWLS log ASCII standard - Version 2.0
WRAP.             NO  : One line per depth step
#
~Well Information Block
#MNEM.UNIT                   Data Type:Information
#__________________________________________________________
  STRT.M            397.0000 : START INDEX                   
  STOP.M           1185.9768 : STOP INDEX                    
  STEP.M              0.1524 : STEP                          
  NULL.              -999.25 : NULL VALUE                    
  COMP.              Chevron : COMPANY                       
  WELL.           A12a-CPP-A7 : WELL                          
   FLD.                  A12 : FIELD                         
   LOC.           North Sea Dutch Sector : LOCATION                      
  PROV.                      : PROVINCE                      
  CNTY.                      : COUNTY                        
  STAT.                      : STATE                         
  CTRY.           The Netherlands : COUNTRY                       
  SRVC.           Schlimberger D & M : SERVICE COMPANY               
  DATE.            30-Sep-07 : LOG DATE                      
   UWI.                      : UNIQUE WELL ID                
   API.                      : API NUMBER                    
#
~Curve Information Block
#MNEM.UNIT                     : Curve Description
#---------                     --------------------
DEPT        .M                 : Bit Depth 2hz                                                   
P16H_UNC    .OHMM              : ARC Non-BHCorr Phase-Shift Resistivity 16-in. at 2 MHz          
P22H_UNC    .OHMM              : ARC Non-BHCorr Phase-Shift Resistivity 22-in. at 2 MHz          
P28H_UNC    .OHMM              : ARC Non-BHCorr Phase-Shift Resistivity 28-in. at 2 MHz          
P34H_UNC    .OHMM              : ARC Non-BHCorr Phase-Shift Resistivity 34-in. at 2 MHz          
P40H_UNC    .OHMM              : ARC Non-BHCorr Phase-Shift Resistivity 40-in. at 2 MHz          
A16H_UNC    .OHMM              : ARC Non-BHCorr Attenuation Resistivity 16-in. at 2 MHz          
A22H_UNC    .OHMM              : ARC Non-BHCorr Attenuation Resistivity 22-in. at 2 MHz          
A28H_UNC    .OHMM              : ARC Non-BHCorr Attenuation Resistivity 28-in. at 2 MHz          
A34H_UNC    .OHMM              : ARC Non-BHCorr Attenuation Resistivity 34-in. at 2 MHz          
A40H_UNC    .OHMM              : ARC Non-BHCorr Attenuation Resistivity 40-in. at 2 MHz          
DRHB        .G/C3              : Bulk Density Correction, Bottom                                 
DRHO        .G/C3              : Bulk Density Correction                                         
ROBB        .G/C3              : Bulk Density, Bottom                                            
RHOB        .G/C3              : Bulk Density                                                    
TNPH        .PU                : Thermal Neutron Porosity (Ratio Method) in Selected Lithology   
GR_ARC      .GAPI              : ARC Gamma Ray                                                   
HORD        .IN                : Horizontal Hole Diameter                                        
VERD        .IN                : Vertical Hole Diameter                                          
ROP5_RM     .M/HR              : Rate of Penetration, Averaged over Last 5ft                     
#
~Parameter Information Block
#MNEM.UNIT                       Value:Description
#__________________________________________________________
#
~Other Information Block

#
~A    DEPT   P16H_UNC   P22H_UNC   P28H_UNC   P34H_UNC   P40H_UNC   A16H_UNC   A22H_UNC   A28H_UNC   A34H_UNC   A40H_UNC       DRHB       DRHO       ROBB       RHOB       TNPH     GR_ARC       HORD       VERD    ROP5_RM
# ...
    498.50       1.00       0.98       0.95       0.94       0.93       0.89       0.89       0.91       0.94       0.97       0.01       0.05       2.05       2.04      36.59      70.62      12.58      12.83      38.10
    498.65       0.99       0.98       0.96       0.93       0.91       0.90       0.89       0.90       0.93       0.96       0.01       0.05       2.04       2.04      38.30      74.30      12.45      12.78      37.95
    498.81       1.00       0.98       0.95       0.92       0.91       0.90       0.89       0.88       0.89       0.91       0.00       0.04       2.02       2.02      37.88      73.57      12.45      12.78      37.62
    498.96       0.99       0.97       0.94       0.91       0.89       0.90       0.90       0.90       0.89       0.90       0.00       0.05       2.03       2.03      40.55      71.96      12.69      12.75      37.69
    499.11       0.99       0.97       0.93       0.90       0.89       0.90       0.89       0.89       0.91       0.93       0.00       0.06       2.04       2.05      39.72      72.35      12.54      12.74      37.35
    499.26       0.99       0.97       0.93       0.90       0.89       0.90       0.89       0.90       0.92       0.94       0.01       0.06       2.05       2.05      39.21      75.56      12.54      12.74      37.58
    499.41       1.04       1.01       0.98       0.95       0.93       0.90       0.91       0.92       0.93       0.93       0.00       0.06       2.06       2.05      37.85      76.01      12.80      12.70      37.86
    499.57       1.07       1.04       1.01       0.98       0.95       0.89       0.89       0.90       0.91       0.90       0.00       0.05       2.05       2.03      39.95      73.27      12.67      13.07      38.10
    499.72       1.07       1.02       0.99       0.96       0.92       0.88       0.89       0.90       0.91       0.90       0.01       0.06       2.05       2.04      39.34      69.67      12.92      13.36      38.10
    499.87       1.04       0.99       0.95       0.92       0.88       0.88       0.90       0.91       0.91       0.90       0.01       0.05       2.03       2.03      40.71      67.78      12.92      13.36      38.37
    500.02       1.02       0.97       0.94       0.91       0.90       0.88       0.88       0.90       0.93       0.98       0.00       0.05       2.03       2.03      38.37      66.97      12.99      12.82      38.67
    500.18       1.02       0.98       0.95       0.93       0.93       0.89       0.90       0.93       0.97       1.03      -0.00       0.05       2.02       2.03      40.38      65.81      12.73      12.77      38.91
    500.33       1.02       1.00       0.98       0.97       0.96       0.91       0.91       0.93       0.97       1.01      -0.01       0.05       2.04       2.03      39.80      65.93      12.73      12.77      38.97
    500.48       1.03       1.01       0.99       0.96       0.95       0.91       0.89       0.90       0.93       0.96      -0.01       0.05       2.04       2.02      39.05      66.41      12.63      12.73      39.23
    500.63       1.06       1.03       0.99       0.96       0.94       0.91       0.87       0.87       0.88       0.90      -0.00       0.04       2.04       2.01      37.13      66.09      12.58      12.69      39.47
    500.79       1.04       1.00       0.97       0.94       0.92       0.90       0.88       0.87       0.90       0.94      -0.01       0.04       2.04       2.02      36.25      65.62      12.66      12.92      39.47
    500.94       1.01       0.97       0.94       0.92       0.90       0.89       0.88       0.90       0.93       0.97      -0.01       0.04       2.02       2.01      37.83      64.59      12.66      12.92      39.19
    501.09       0.98       0.94       0.92       0.92       0.92       0.89       0.89       0.91       0.94       0.99      -0.01       0.04       2.03       2.02      40.59      62.86      12.59      13.06      39.04
    501.24       0.98       0.94       0.92       0.91       0.91       0.90       0.90       0.91       0.93       0.97      -0.01       0.05       2.03       2.02      40.14      60.26      12.94      12.99      38.82
    501.40       0.97       0.95       0.93       0.90       0.86       0.93       0.91       0.91       0.92       0.93      -0.01       0.05       2.03       2.03      39.39      60.28      12.94      12.99      38.64
    501.55       0.97       0.95       0.92       0.90       0.88       0.93       0.91       0.90       0.93       0.98      -0.00       0.05       2.00       2.02      41.08      63.96      12.55      13.17      38.60
    501.70       0.99       0.98       0.97       0.95       0.92       0.93       0.96       0.98       0.99       1.01      -0.00       0.05       1.99       2.00      44.89      67.23      12.80      13.13      38.37
    501.85       1.01       1.01       1.00       0.99       0.99       0.94       0.96       0.98       0.99       0.99      -0.00       0.05       1.99       1.98      46.38      69.51      12.76      12.76      38.43
    502.01       1.04       1.02       1.00       0.97       0.96       0.91       0.92       0.92       0.91       0.90      -0.00       0.05       2.00       1.99      45.47      68.95      12.76      12.76      38.51
    502.16       1.04       1.00       0.97       0.95       0.92       0.89       0.90       0.92       0.92       0.90      -0.01       0.05       2.01       1.99      45.09      69.68      12.72      12.72      38.64
    502.31       1.00       0.96       0.94       0.92       0.89       0.87       0.89       0.92       0.94       0.93      -0.01       0.04       2.02       2.00      45.37      68.08      13.06      12.96      38.64
    502.46       0.96       0.93       0.91       0.90       0.87       0.87       0.89       0.92       0.94       0.95      -0.02       0.03       2.03       2.01      42.86      67.80      12.84      12.79      38.48
    502.62       0.95       0.92       0.89       0.88       0.87       0.90       0.91       0.91       0.94       0.98      -0.01       0.04       2.07       2.03      40.17      67.16      12.84      12.79      38.14
    502.77       0.96       0.95       0.93       0.91       0.91       0.92       0.93       0.94       0.96       1.01      -0.00       0.05       2.07       2.06      39.30      69.61      12.44      13.07      38.37
    502.92       0.98       0.97       0.95       0.94       0.93       0.92       0.94       0.96       1.00       1.05      -0.00       0.04       2.07       2.05      38.79      68.89      12.45      13.06      38.67
    503.07       1.10       1.07       1.04       1.01       0.99       0.96       0.94       0.93       0.93       0.93      -0.01       0.04       2.04       2.05      40.73      67.49      12.45      13.06      38.76
    503.22       1.06       1.03       1.01       0.99       0.98       0.95       0.96       0.98       0.99       1.00      -0.00       0.05       2.04       2.05      41.85      66.21      12.75      13.10      38.64
    503.38       1.03       1.01       0.99       0.98       0.96       0.97       0.98       0.99       1.00       1.01       0.00       0.05       2.05       2.06      43.01      69.73      12.49      12.76      38.54
    503.53       1.02       1.00       0.98       0.96       0.95       0.98       0.96       0.96       0.99       1.02       0.00       0.04       2.05       2.05      39.93      73.64      12.56      12.71      38.37
    503.68       1.01       0.99       0.97       0.96       0.96       0.97       0.96       0.98       1.02       1.07      -0.01       0.04       2.05       2.06      40.51      74.83      12.56      12.71      38.37
    503.83       1.02       1.01       0.99       0.98       0.96       0.96       0.98       1.02       1.04       1.04      -0.00       0.04       2.07       2.07      41.18      73.63      12.45      12.62      38.62
    503.99       1.03       1.02       1.00       0.98       0.95       0.99       1.02       1.06       1.07       1.06       0.00       0.05       2.07       2.08      42.83      73.26      12.41      12.73      38.99
