~Version Information
VERS.             2.0 : CWLS log ASCII standard - Version 2.0
WRAP.             NO  : One line per depth step
#
~Well Information Block
#MNEM.UNIT                   Data Type:Information
#__________________________________________________________
  STRT.M            397.0000 : START INDEX                   
  STOP.M           1185.9768 : STOP INDEX                    
  STEP.M              0.1524 : STEP                          
  NULL.              -999.25 : NULL VALUE                    
  COMP.              Chevron : COMPANY                       
  WELL.           A12a-CPP-A7 : WELL                          
   FLD.                  A12 : FIELD                         
   LOC.           North Sea Dutch Sector : LOCATION                      
  PROV.                      : PROVINCE                      
  CNTY.                      : COUNTY                        
  STAT.                      : STATE                         
  CTRY.           The Netherlands : COUNTRY                       
  SRVC.           Schlimberger D & M : SERVICE COMPANY               
  DATE.            30-Sep-07 : LOG DATE                      
   UWI.                      : UNIQUE WELL ID                
   API.                      : API NUMBER                    
#
~Curve Information Block
#MNEM.UNIT                     : Curve Description
#---------                     --------------------
DEPT        .M                 : Bit Depth 2hz                                                   
P16H_UNC    .OHMM              : ARC Non-BHCorr Phase-Shift Resistivity 16-in. at 2 MHz          
P22H_UNC    .OHMM              : ARC Non-BHCorr Phase-Shift Resistivity 22-in. at 2 MHz          
P28H_UNC    .OHMM              : ARC Non-BHCorr Phase-Shift Resistivity 28-in. at 2 MHz          
P34H_UNC    .OHMM              : ARC Non-BHCorr Phase-Shift Resistivity 34-in. at 2 MHz          
P40H_UNC    .OHMM              : ARC Non-BHCorr Phase-Shift Resistivity 40-in. at 2 MHz          
A16H_UNC    .OHMM              : ARC Non-BHCorr Attenuation Resistivity 16-in. at 2 MHz          
A22H_UNC    .OHMM              : ARC Non-BHCorr Attenuation Resistivity 22-in. at 2 MHz          
A28H_UNC    .OHMM              : ARC Non-BHCorr Attenuation Resistivity 28-in. at 2 MHz          
A34H_UNC    .OHMM              : ARC Non-BHCorr Attenuation Resistivity 34-in. at 2 MHz          
A40H_UNC    .OHMM              : ARC Non-BHCorr Attenuation Resistivity 40-in. at 2 MHz          
DRHB        .G/C3              : Bulk Density Correction, Bottom                                 
DRHO        .G/C3              : Bulk Density Correction                                         
ROBB        .G/C3              : Bulk Density, Bottom                                            
RHOB        .G/C3              : Bulk Density                                                    
TNPH        .PU                : Thermal Neutron Porosity (Ratio Method) in Selected Lithology   
GR_ARC      .GAPI              : ARC Gamma Ray                                                   
HORD        .IN                : Horizontal Hole Diameter                                        
VERD        .IN                : Vertical Hole Diameter                                          
ROP5_RM     .M/HR              : Rate of Penetration, Averaged over Last 5ft                     
#
~Parameter Information Block
#MNEM.UNIT                       Value:Description
#__________________________________________________________
#
~Other Information Block

#
~A    DEPT   P16H_UNC   P22H_UNC   P28H_UNC   P34H_UNC   P40H_UNC   A16H_UNC   A22H_UNC   A28H_UNC   A34H_UNC   A40H_UNC       DRHB       DRHO       ROBB       RHOB       TNPH     GR_ARC       HORD       VERD    ROP5_RM
# ...
   1169.52       8.92      10.40      12.22      14.69      17.80       5.94       6.35       6.82       7.57       8.40    -999.25    -999.25    -999.25    -999.25    -999.25      96.82    -999.25    -999.25      39.62
   1169.67       8.52       9.98      11.84      14.12      16.51       5.85       6.28       6.80       7.57       8.33    -999.25    -999.25    -999.25    -999.25    -999.25      99.84    -999.25    -999.25      39.19
   1169.82       8.14       9.76      11.54      13.68      16.42       5.60       6.16       6.69       7.41       8.26    -999.25    -999.25    -999.25    -999.25    -999.25     101.68    -999.25    -999.25      38.27
   1169.97       7.72       9.22      10.98      13.43      17.06       5.64       6.30       6.81       7.54       8.49    -999.25    -999.25    -999.25    -999.25    -999.25     106.21    -999.25    -999.25      37.84
   1170.13       7.85       9.34      11.21      13.46      15.97       5.76       6.33       6.86       7.61       8.44    -999.25    -999.25    -999.25    -999.25    -999.25     105.82    -999.25    -999.25      36.92
   1170.28       7.85       9.25      10.89      13.27      16.89       5.68       6.27       6.77       7.50       8.41    -999.25    -999.25    -999.25    -999.25    -999.25     106.16    -999.25    -999.25      35.56
   1170.43       7.88       9.07      10.93      13.51      16.31       5.80       6.28       6.77       7.56       8.52    -999.25    -999.25    -999.25    -999.25    -999.25     104.68    -999.25    -999.25      35.17
   1170.58       7.62       9.20      11.01      13.06      15.56       5.78       6.31       6.78       7.48       8.34    -999.25    -999.25    -999.25    -999.25    -999.25     104.60    -999.25    -999.25      33.72
   1170.74       7.44       8.70      10.42      12.37      14.21       5.77       6.32       6.84       7.47       8.05    -999.25    -999.25    -999.25    -999.25    -999.25     104.17    -999.25    -999.25      32.74
   1170.89       6.80       8.14       9.90      11.85      13.86       5.61       6.18       6.73       7.42       8.13    -999.25    -999.25    -999.25    -999.25    -999.25     105.64    -999.25    -999.25      32.47
   1171.04       6.56       7.89       9.61      11.66      14.04       5.52       6.15       6.71       7.34       7.98    -999.25    -999.25    -999.25    -999.25    -999.25     108.91    -999.25    -999.25      32.08
   1171.19       6.34       7.68       9.11      10.83      13.29       5.43       6.07       6.64       7.33       8.13    -999.25    -999.25    -999.25    -999.25    -999.25     111.39    -999.25    -999.25      28.88
   1171.35       6.43       7.65       9.01      10.60      12.58       5.33       5.94       6.50       7.15       7.92    -999.25    -999.25    -999.25    -999.25    -999.25     112.05    -999.25    -999.25      28.88
   1171.50       6.29       7.61       8.96      10.58      12.97       5.21       5.82       6.32       6.89       7.68    -999.25    -999.25    -999.25    -999.25    -999.25     108.78    -999.25    -999.25      25.12
   1171.65       6.19       7.26       8.46       9.87      11.57       5.16       5.73       6.28       6.89       7.64    -999.25    -999.25    -999.25    -999.25    -999.25     103.78    -999.25    -999.25      22.14
   1171.80       6.46       7.57       8.69      10.31      12.99       4.93       5.57       6.06       6.60       7.31    -999.25    -999.25    -999.25    -999.25    -999.25     101.46    -999.25    -999.25      28.24
   1171.96       6.85       7.88       9.00      10.48      12.63       4.95       5.49       6.00       6.58       7.22    -999.25    -999.25    -999.25    -999.25    -999.25     104.53    -999.25    -999.25      29.26
   1172.11       7.20       8.11       9.26      10.64      12.13       4.82       5.33       5.85       6.45       7.11    -999.25    -999.25    -999.25    -999.25    -999.25     106.40    -999.25    -999.25      30.14
   1172.26       7.08       7.83       8.82      10.19      11.85       4.89       5.32       5.82       6.42       7.04    -999.25    -999.25    -999.25    -999.25    -999.25     106.93    -999.25    -999.25      31.06
   1172.41       7.01       7.87       8.91      10.45      12.67       4.80       5.26       5.76       6.38       7.08    -999.25    -999.25    -999.25    -999.25    -999.25     107.96    -999.25    -999.25      31.29
   1172.57       6.91       7.94       9.09      10.49      12.24       4.88       5.36       5.82       6.36       6.95    -999.25    -999.25    -999.25    -999.25    -999.25     109.51    -999.25    -999.25      31.47
   1172.72       7.23       8.15       9.15      10.23      11.36       4.84       5.24       5.70       6.23       6.74    -999.25    -999.25    -999.25    -999.25    -999.25     112.89    -999.25    -999.25      32.27
   1172.87       6.93       7.91       8.88      10.17      12.08       4.75       5.26       5.78       6.39       7.11    -999.25    -999.25    -999.25    -999.25    -999.25     112.49    -999.25    -999.25      34.37
   1173.02       6.91       7.91       8.88      10.13      12.01       4.86       5.34       5.79       6.36       7.07    -999.25    -999.25    -999.25    -999.25    -999.25     112.15    -999.25    -999.25      37.63
   1173.18       7.13       8.20       9.29      10.68      12.73       4.85       5.29       5.80       6.42       7.07    -999.25    -999.25    -999.25    -999.25    -999.25     110.53    -999.25    -999.25      38.47
   1173.33       7.74       8.83      10.12      11.40      12.58       4.86       5.21       5.66       6.14       6.55    -999.25    -999.25    -999.25    -999.25    -999.25     109.70    -999.25    -999.25      38.27
   1173.48       8.05       8.74       9.66      10.97      12.60       4.79       5.15       5.56       6.13       6.84    -999.25    -999.25    -999.25    -999.25    -999.25     111.49    -999.25    -999.25      38.10
   1173.63       7.45       8.27       9.06      10.16      11.79       4.90       5.30       5.76       6.39       7.12    -999.25    -999.25    -999.25    -999.25    -999.25     112.61    -999.25    -999.25      39.24
   1173.78       7.22       7.99       8.79       9.67      10.66       4.90       5.31       5.80       6.36       6.88    -999.25    -999.25    -999.25    -999.25    -999.25     112.05    -999.25    -999.25      39.72
   1173.94       7.19       8.38       9.42      10.37      11.61       4.88       5.22       5.65       6.18       6.72    -999.25    -999.25    -999.25    -999.25    -999.25     109.48    -999.25    -999.25      40.34
   1174.09       7.98       9.14      10.24      11.57      13.58       4.72       5.07       5.49       6.10       6.88    -999.25    -999.25    -999.25    -999.25    -999.25     110.18    -999.25    -999.25      41.56
   1174.24       8.02       8.93      10.02      11.33      12.84       4.82       5.24       5.77       6.45       7.20    -999.25    -999.25    -999.25    -999.25    -999.25     112.39    -999.25    -999.25      41.25
   1174.39       8.14       8.89       9.88      11.12      12.45       4.79       5.20       5.82       6.55       7.24    -999.25    -999.25    -999.25    -999.25    -999.25     115.40    -999.25    -999.25      41.20
   1174.55       7.69       8.44       9.44      10.59      11.64       4.96       5.37       5.91       6.55       7.13    -999.25    -999.25    -999.25    -999.25    -999.25     116.33    -999.25    -999.25      40.94
   1174.70       7.86       8.83       9.87      11.14      12.77       4.90       5.29       5.72       6.37       7.23    -999.25    -999.25    -999.25    -999.25    -999.25    -999.25    -999.25    -999.25      40.78
   1174.85    -999.25    -999.25    -999.25    -999.25    -999.25    -999.25    -999.25    -999.25    -999.25    -999.25    -999.25    -999.25    -999.25    -999.25    -999.25    -999.25    -999.25    -999.25      40.68
   1175.00    -999.25    -999.25    -999.25    -999.25    -999.25    -999.25    -999.25    -999.25    -999.25    -999.25    -999.25    -999.25    -999.25    -999.25    -999.25    -999.25    -999.25    -999.25      40.94
