~Version Information
VERS.             2.0 : CWLS log ASCII standard - Version 2.0
WRAP.             NO  : One line per depth step
#
~Well Information Block
#MNEM.UNIT                   Data Type:Information
#__________________________________________________________
  STRT.M            397.0000 : START INDEX                   
  STOP.M           1185.9768 : STOP INDEX                    
  STEP.M              0.1524 : STEP                          
  NULL.              -999.25 : NULL VALUE                    
  COMP.              Chevron : COMPANY                       
  WELL.           A12a-CPP-A7 : WELL                          
   FLD.                  A12 : FIELD                         
   LOC.           North Sea Dutch Sector : LOCATION                      
  PROV.                      : PROVINCE                      
  CNTY.                      : COUNTY                        
  STAT.                      : STATE                         
  CTRY.           The Netherlands : COUNTRY                       
  SRVC.           Schlimberger D & M : SERVICE COMPANY               
  DATE.            30-Sep-07 : LOG DATE                      
   UWI.                      : UNIQUE WELL ID                
   API.                      : API NUMBER                    
#
~Curve Information Block
#MNEM.UNIT                     : Curve Description
#---------                     --------------------
DEPT        .M                 : Bit Depth 2hz                                                   
P16H_UNC    .OHMM              : ARC Non-BHCorr Phase-Shift Resistivity 16-in. at 2 MHz          
P22H_UNC    .OHMM              : ARC Non-BHCorr Phase-Shift Resistivity 22-in. at 2 MHz          
P28H_UNC    .OHMM              : ARC Non-BHCorr Phase-Shift Resistivity 28-in. at 2 MHz          
P34H_UNC    .OHMM              : ARC Non-BHCorr Phase-Shift Resistivity 34-in. at 2 MHz          
P40H_UNC    .OHMM              : ARC Non-BHCorr Phase-Shift Resistivity 40-in. at 2 MHz          
A16H_UNC    .OHMM              : ARC Non-BHCorr Attenuation Resistivity 16-in. at 2 MHz          
A22H_UNC    .OHMM              : ARC Non-BHCorr Attenuation Resistivity 22-in. at 2 MHz          
A28H_UNC    .OHMM              : ARC Non-BHCorr Attenuation Resistivity 28-in. at 2 MHz          
A34H_UNC    .OHMM              : ARC Non-BHCorr Attenuation Resistivity 34-in. at 2 MHz          
A40H_UNC    .OHMM              : ARC Non-BHCorr Attenuation Resistivity 40-in. at 2 MHz          
DRHB        .G/C3              : Bulk Density Correction, Bottom                                 
DRHO        .G/C3              : Bulk Density Correction                                         
ROBB        .G/C3              : Bulk Density, Bottom                                            
RHOB        .G/C3              : Bulk Density                                                    
TNPH        .PU                : Thermal Neutron Porosity (Ratio Method) in Selected Lithology   
GR_ARC      .GAPI              : ARC Gamma Ray                                                   
HORD        .IN                : Horizontal Hole Diameter                                        
VERD        .IN                : Vertical Hole Diameter                                          
ROP5_RM     .M/HR              : Rate of Penetration, Averaged over Last 5ft                     
#
~Parameter Information Block
#MNEM.UNIT                       Value:Description
#__________________________________________________________
#
~Other Information Block

#
~A    DEPT   P16H_UNC   P22H_UNC   P28H_UNC   P34H_UNC   P40H_UNC   A16H_UNC   A22H_UNC   A28H_UNC   A34H_UNC   A40H_UNC       DRHB       DRHO       ROBB       RHOB       TNPH     GR_ARC       HORD       VERD    ROP5_RM
# ...
    910.13       2.19       2.26       2.34       2.43       2.53       1.89       1.93       1.96       2.00       2.04       0.00       0.05       2.14       2.11      50.84     115.23      13.05      13.42      30.08
    910.29       2.18       2.25       2.33       2.43       2.54       1.90       1.93       1.96       2.00       2.06       0.00       0.05       2.13       2.10      49.42     117.66      13.08      13.37      31.22
    910.44       2.19       2.26       2.35       2.45       2.56       1.90       1.94       1.96       2.00       2.04      -0.00       0.05       2.13       2.11      48.77     119.13      13.13      13.42      32.27
    910.59       2.20       2.27       2.36       2.47       2.59       1.91       1.93       1.96       1.99       2.02      -0.00       0.05       2.13       2.11      49.26     118.21      13.11      13.44      31.98
    910.74       2.20       2.28       2.37       2.46       2.57       1.90       1.92       1.94       1.98       2.03      -0.01       0.05       2.13       2.11      49.71     116.30      13.19      13.46      31.69
    910.89       2.22       2.29       2.37       2.46       2.56       1.87       1.92       1.97       2.02       2.06      -0.01       0.04       2.12       2.10      51.33     114.75      13.12      13.47      31.35
    911.05       2.25       2.33       2.42       2.51       2.61       1.86       1.90       1.95       2.01       2.07      -0.01       0.05       2.10       2.10      49.21     110.25      13.35      13.44      31.18
    911.20       2.25       2.35       2.44       2.54       2.64       1.85       1.89       1.94       2.01       2.07      -0.00       0.05       2.09       2.10      50.72     112.65      13.35      13.29      30.82
    911.35       2.27       2.34       2.43       2.54       2.66       1.86       1.91       1.97       2.01       2.04       0.00       0.06       2.10       2.11      47.61     115.87      13.35      13.49      31.90
    911.50       2.27       2.37       2.46       2.56       2.67       1.86       1.89       1.93       1.99       2.06       0.00       0.06       2.09       2.11      50.07     117.96      13.22      13.51      31.53
    911.66       2.25       2.34       2.44       2.55       2.67       1.89       1.93       1.96       2.00       2.04       0.00       0.06       2.10       2.10      49.82     113.73      13.35      13.50      31.53
    911.81       2.27       2.38       2.47       2.57       2.68       1.88       1.89       1.92       1.98       2.05       0.00       0.06       2.11       2.10      51.24     112.46      13.41      13.52      31.90
    911.96       2.32       2.39       2.47       2.57       2.69       1.84       1.90       1.96       1.99       2.02       0.00       0.07       2.11       2.11      49.71     115.83      13.28      13.54      31.82
    912.11       2.27       2.38       2.49       2.60       2.72       1.90       1.90       1.92       1.97       2.03       0.00       0.07       2.11       2.12      49.69     119.57      13.26      13.55      31.71
    912.27       2.33       2.42       2.51       2.60       2.71       1.85       1.88       1.93       2.00       2.08      -0.00       0.06       2.10       2.10      51.08     122.92      12.83      13.44      31.90
    912.42       2.33       2.43       2.51       2.59       2.70       1.84       1.88       1.93       1.99       2.07       0.00       0.05       2.11       2.10      52.02     124.56      12.72      13.48      31.35
    912.57       2.35       2.43       2.50       2.60       2.72       1.85       1.89       1.95       2.00       2.05       0.00       0.05       2.11       2.10      50.30     124.84      13.01      13.42      29.95
    912.72       2.33       2.39       2.48       2.59       2.73       1.88       1.93       1.96       1.99       2.01       0.00       0.06       2.10       2.11      52.28     121.07      12.87      13.44      29.65
    912.88       2.29       2.40       2.49       2.59       2.68       1.91       1.92       1.94       1.98       2.06       0.00       0.06       2.11       2.11      51.46     115.12      13.27      13.43      28.88
    913.03       2.29       2.38       2.48       2.59       2.70       1.93       1.94       1.95       1.97       2.01       0.00       0.06       2.12       2.11      51.95     111.56      12.36      13.40      29.03
    913.18       2.31       2.41       2.50       2.58       2.68       1.89       1.91       1.94       2.00       2.08       0.00       0.05       2.13       2.10      48.93     113.37      13.16      13.45      29.03
    913.33       2.32       2.41       2.49       2.57       2.67       1.89       1.91       1.95       2.02       2.10       0.00       0.05       2.12       2.10      51.46     119.18      12.56      13.42      29.03
    913.49       2.30       2.40       2.49       2.57       2.66       1.90       1.91       1.94       2.01       2.09       0.00       0.05       2.12       2.10      51.49     124.50      12.44      13.32      29.03
    913.64       2.31       2.39       2.47       2.56       2.66       1.88       1.91       1.95       2.01       2.07      -0.00       0.04       2.10       2.10      49.25     124.86      12.61      13.35      47.71
    913.79       2.28       2.38       2.47       2.56       2.66       1.90       1.91       1.94       2.00       2.07      -0.01       0.03       2.10       2.10      47.37     122.58      12.95      13.35      48.41
    913.94       2.29       2.38       2.46       2.55       2.65       1.88       1.90       1.94       2.00       2.06      -0.01       0.03       2.11       2.10      51.56     118.27      12.64      13.35      49.88
    914.10       2.30       2.36       2.43       2.52       2.63       1.87       1.93       1.97       2.01       2.04       0.00       0.04       2.13       2.11      55.90     114.64      12.33      13.25      51.77
    914.25       2.27       2.34       2.41       2.50       2.61       1.88       1.94       1.99       2.04       2.07       0.00       0.04       2.14       2.11      60.37     112.97      13.03      13.37      52.25
    914.40       2.27       2.35       2.43       2.52       2.61       1.89       1.94       1.99       2.03       2.06      -0.00       0.05       2.12       2.11      54.23     113.76      13.07      13.41      36.23
    914.55       2.27       2.35       2.45       2.56       2.67       1.89       1.94       1.99       2.03       2.06       0.00       0.06       2.13       2.12      51.65     114.65      13.10      13.41      35.40
    914.70       2.25       2.34       2.49       2.66       2.78       1.93       1.95       1.96       1.98       2.02       0.00       0.06       2.11       2.12      49.13     117.15      13.06      13.39      34.53
    914.86       2.30       2.39       2.52       2.66       2.78       1.89       1.91       1.95       2.01       2.06      -0.00       0.06       2.11       2.11      51.11     116.60      13.08      16.78      34.08
    915.01       2.32       2.41       2.52       2.65       2.75       1.89       1.90       1.94       2.01       2.07      -0.01       0.04       2.09       2.10      48.64     117.77      13.09      16.77      32.66
    915.16       2.31       2.41       2.48       2.55       2.66       1.90       1.91       1.95       2.03       2.10      -0.00       0.04       2.10       2.09      47.96     116.89      13.10      13.43      31.53
    915.31       2.23       2.46       2.55       2.61       2.80       1.87       1.81       1.86       1.94       1.97       0.00       0.05       2.11       2.11      49.20     117.06      13.14      13.27      30.31
    915.47       2.44       2.67       2.75       2.82       3.05       1.75       1.78       1.84       1.93       2.02       0.00       0.05       2.09       2.08      55.42     115.75      13.04      13.42      29.03
    915.62       2.42       2.56       2.66       2.80       3.08       1.75       1.83       1.90       1.98       2.09      -0.01       0.02       2.07       2.08      56.85     111.77      13.28      13.42      27.57
