~Version Information
VERS.             2.0 : CWLS log ASCII standard - Version 2.0
WRAP.             NO  : One line per depth step
#
~Well Information Block
#MNEM.UNIT                   Data Type:Information
#__________________________________________________________
  STRT.M            397.0000 : START INDEX                   
  STOP.M           1185.9768 : STOP INDEX                    
  STEP.M              0.1524 : STEP                          
  NULL.              -999.25 : NULL VALUE                    
  COMP.              Chevron : COMPANY                       
  WELL.           A12a-CPP-A7 : WELL                          
   FLD.                  A12 : FIELD                         
   LOC.           North Sea Dutch Sector : LOCATION                      
  PROV.                      : PROVINCE                      
  CNTY.                      : COUNTY                        
  STAT.                      : STATE                         
  CTRY.           The Netherlands : COUNTRY                       
  SRVC.           Schlimberger D & M : SERVICE COMPANY               
  DATE.            30-Sep-07 : LOG DATE                      
   UWI.                      : UNIQUE WELL ID                
   API.                      : API NUMBER                    
#
~Curve Information Block
#MNEM.UNIT                     : Curve Description
#---------                     --------------------
DEPT        .M                 : Bit Depth 2hz                                                   
P16H_UNC    .OHMM              : ARC Non-BHCorr Phase-Shift Resistivity 16-in. at 2 MHz          
P22H_UNC    .OHMM              : ARC Non-BHCorr Phase-Shift Resistivity 22-in. at 2 MHz          
P28H_UNC    .OHMM              : ARC Non-BHCorr Phase-Shift Resistivity 28-in. at 2 MHz          
P34H_UNC    .OHMM              : ARC Non-BHCorr Phase-Shift Resistivity 34-in. at 2 MHz          
P40H_UNC    .OHMM              : ARC Non-BHCorr Phase-Shift Resistivity 40-in. at 2 MHz          
A16H_UNC    .OHMM              : ARC Non-BHCorr Attenuation Resistivity 16-in. at 2 MHz          
A22H_UNC    .OHMM              : ARC Non-BHCorr Attenuation Resistivity 22-in. at 2 MHz          
A28H_UNC    .OHMM              : ARC Non-BHCorr Attenuation Resistivity 28-in. at 2 MHz          
A34H_UNC    .OHMM              : ARC Non-BHCorr Attenuation Resistivity 34-in. at 2 MHz          
A40H_UNC    .OHMM              : ARC Non-BHCorr Attenuation Resistivity 40-in. at 2 MHz          
DRHB        .G/C3              : Bulk Density Correction, Bottom                                 
DRHO        .G/C3              : Bulk Density Correction                                         
ROBB        .G/C3              : Bulk Density, Bottom                                            
RHOB        .G/C3              : Bulk Density                                                    
TNPH        .PU                : Thermal Neutron Porosity (Ratio Method) in Selected Lithology   
GR_ARC      .GAPI              : ARC Gamma Ray                                                   
HORD        .IN                : Horizontal Hole Diameter                                        
VERD        .IN                : Vertical Hole Diameter                                          
ROP5_RM     .M/HR              : Rate of Penetration, Averaged over Last 5ft                     
#
~Parameter Information Block
#MNEM.UNIT                       Value:Description
#__________________________________________________________
#
~Other Information Block

#
~A    DEPT   P16H_UNC   P22H_UNC   P28H_UNC   P34H_UNC   P40H_UNC   A16H_UNC   A22H_UNC   A28H_UNC   A34H_UNC   A40H_UNC       DRHB       DRHO       ROBB       RHOB       TNPH     GR_ARC       HORD       VERD    ROP5_RM
# ...
   1017.27       5.38       3.09       2.47       2.39       2.26       2.17       6.30      12.61       6.63       3.94      -0.00       0.05       2.15       2.14      44.62     112.88      13.11      13.33      38.22
   1017.42       3.40       3.42       3.08       2.33       1.70       5.17       3.90       3.12       3.46       5.15      -0.00       0.05       2.15       2.14      47.78     111.12      13.12      13.44      38.29
   1017.57      10.44       7.17       4.60       3.31       2.86     300.00     300.00     500.00     500.00      12.02      -0.00       0.05       2.15       2.14      43.85     112.11      13.12      13.42      38.14
   1017.73       3.10       3.16       2.93       2.51       2.19       3.52       3.74       3.85       4.61       6.92      -0.01       0.05       2.13       2.12      43.54     113.08      13.12      13.42      38.36
   1017.88       7.05       3.99       3.33       3.38       3.24     300.00       7.88       4.05       3.86       4.55      -0.00       0.05       2.14       2.13      42.74     113.24      13.02      13.41      38.37
   1018.03       3.39       3.86       4.05       3.62       3.05       2.96      11.68      16.01       5.76       3.36       0.00       0.05       2.16       2.13      44.49     111.93      13.12      13.24      38.10
   1018.18       3.93       3.01       2.55       2.64       3.16       1.41       2.66       4.28       3.48       2.29       0.00       0.05       2.14       2.13      46.28     110.74      13.10      13.25      38.37
   1018.34       3.05       2.63       2.85       3.38       3.47       2.56       3.30       3.72       3.04       2.29      -0.00       0.04       2.14       2.12      44.48     109.43      13.10      13.25      38.10
   1018.49       4.19       3.53       3.42       2.96       2.12     300.00      34.41      26.55     500.00     700.00      -0.01       0.05       2.13       2.13      44.49     109.68      13.15      13.33      38.10
   1018.64       2.53       1.98       1.74       1.72       1.74      19.03       2.24       1.44       1.20       0.97      -0.01       0.04       2.14       2.14      45.06     111.49      13.17      13.22      38.10
   1018.79       6.20       3.60       2.55       2.27       2.29       6.47       2.76       2.27       2.33       2.28      -0.01       0.05       2.12       2.14      40.27     111.43      13.17      13.22      38.01
   1018.95       8.52       5.45       3.22       2.49       2.68     300.00     300.00      12.11       9.55      11.97      -0.01       0.05       2.11       2.13      47.07     110.98      13.06      13.28      37.88
   1019.10       5.75       4.02       3.30       3.63       5.02      13.71       4.65       3.84       4.86       7.95      -0.01       0.05       2.10       2.12      44.83     109.51      12.76      13.29      38.06
   1019.25       6.31       3.41       2.52       2.57       3.08     300.00       9.90       5.19       4.28       3.78      -0.01       0.04       2.11       2.11      43.96     108.28      13.06      13.39      37.84
   1019.40       3.27       3.33       3.01       2.55       2.30       1.78       3.85       5.78       4.61       3.63      -0.01       0.04       2.13       2.13      47.60     104.46      13.06      13.39      37.84
   1019.56       6.29       2.90       2.29       2.55       2.90       1.01       4.25       9.97       3.26       1.63       0.00       0.05       2.15       2.14      48.84     104.25      13.05      13.26      38.10
   1019.71       3.49       2.94       2.45       2.16       2.05       3.81       4.28       3.88       2.92       2.32       0.01       0.05       2.16       2.15      46.78     106.38      13.12      13.18      38.00
   1019.86       2.92       2.47       2.49       2.55       2.25     300.00     300.00       8.58       3.62       3.40       0.01       0.05       2.15       2.14      43.19     108.88      13.11      13.24      37.96
   1020.01       5.22       3.93       3.09       2.45       1.99       5.18       4.08       2.75       2.20       2.24       0.01       0.05       2.15       2.14      43.11     106.36      13.11      13.24      37.96
   1020.17       6.65       4.74       3.45       3.02       3.17       1.40       1.47       3.31      13.05       9.58      -0.00       0.05       2.13       2.14      43.34     104.68      13.17      13.21      38.01
   1020.32      10.21       3.81       2.57       2.38       2.34       3.20     300.00     500.00      15.70       3.09      -0.01       0.04       2.14       2.13      45.89     104.33      13.15      13.19      37.91
   1020.47       5.19       5.08       3.73       2.93       2.99     300.00       5.13       1.81       1.95       2.19      -0.00       0.04       2.14       2.12      46.39     105.53      13.15      13.19      38.06
   1020.62       3.91       3.04       2.55       2.35       2.26     300.00     300.00       6.58       3.31       2.58       0.00       0.02       2.16       2.11      51.60     103.02      13.17      13.12      37.84
   1020.78      11.36       3.80       2.65       3.32       6.03     300.00     300.00     500.00       5.50       1.62       0.02       0.02       2.10       2.10      51.51     102.94      13.13      13.19      38.10
   1020.93       2.77       2.81       3.08       3.23       2.97       2.34       2.43       3.15       3.58       2.74      -0.01       0.02       2.10       2.12      53.26     105.47      13.03      13.37      37.84
   1021.08       5.53       3.97       3.39       3.08       2.65       4.78     300.00     500.00     500.00       9.19      -0.01       0.04       2.12       2.12      50.06     110.22      13.03      13.37      37.98
   1021.23       2.91       2.89       2.80       2.45       2.02     300.00       5.50       3.34       2.52       1.91      -0.01       0.05       2.13       2.14      46.16     110.81      12.90      13.19      38.10
   1021.38       3.22       3.04       2.92       2.82       2.73     300.00     300.00       8.35       8.74      17.61      -0.01       0.05       2.12       2.13      43.34     106.24      13.20      13.24      38.10
   1021.54       4.08       3.41       3.04       2.69       2.29       1.99       2.84       2.96       1.95       1.24      -0.01       0.05       2.13       2.14      42.80     103.28      13.20      13.24      38.10
   1021.69       5.92       4.30       2.49       1.85       2.03       2.90       4.62       8.10       7.96       4.84      -0.01       0.04       2.14       2.12      45.16     103.61      13.13      13.46      38.10
   1021.84       4.16       2.60       2.06       2.10       2.41       4.94      16.14      30.50      10.81       5.54      -0.00       0.05       2.15       2.13      46.22     107.69      13.24      13.37      38.10
   1021.99      10.90       8.14       6.35       5.68       5.78     300.00     300.00     500.00       2.87       1.90       0.00       0.05       2.14       2.13      44.69     107.80      13.00      13.21      38.10
   1022.15       3.93       3.05       2.47       2.22       2.17       2.62       2.57       2.78       2.86       2.58       0.01       0.06       2.14       2.13      43.92     105.20      13.00      13.21      38.37
   1022.30      14.41       4.90       3.39       3.46       3.84       3.55       9.92      92.09      10.43       3.04       0.01       0.06       2.12       2.13      46.06     104.53      12.58      13.33      37.80
   1022.45      32.73       6.16       3.52       2.95       2.71       6.94     300.00     500.00     500.00     700.00       0.00       0.06       2.13       2.13      52.96     105.90      12.94      12.80      37.54
   1022.60       6.85       3.47       2.73       2.95       3.35       3.23       1.39       1.52       2.19       1.94       0.00       0.06       2.15       2.14      50.65     108.57      12.94      12.80      37.15
   1022.76       3.46       2.90       2.88       3.15       3.22       1.72       2.12       2.74       2.66       1.94       0.00       0.06       2.15       2.14      43.30     111.20      13.24      13.13      36.55
