~VERSION INFORMATION
VERS.                                                 2.0:   CWLS Log ASCII Standard-VERSION 2.0
WRAP.                                                  NO:   One line per depth step
~Well Information Block
STRT.M                                           700.0000:   Top Depth
STOP.M                                          1057.0000:   Bottom Depth
STEP.M                                             .20000:   Depth Increment
NULL.                                            -999.250:   Null Value
FLD .                                         SCHOONEBEEK:   Field Name
WELL.                                      SCHOONEBEEK- 3:   NAME
EDF .m                                              15.12:   ELEV DRILL FLOOR
EPD .                                                   0:   ELEV PERM DATUM
EGL .m                                               12.8:   GROUND LEVEL
LMF .                                                  DF:   LOGS MEAS FROM
COMP.                                                BPME:   OPERATOR
PDAT.                                                 NAP:   PERM DATUM
SPUD.                                          2043/09/12:   SPUD DATE
UWBI.                                      11000074043001:   UWBI
~PARAMETER INFORMATION (log)
LNAM.                                RUN 03 RAW OH 7 3/5":   NAME
LTYP.                                                 03R:   LOG TYPE
LVSN.                                                   1:   LOG VERSION
BS  .3/5"                                               7:   BIT SIZE
BLI .M                                               1057:   BOTTOM DEPTH LOGGED
BHIS.                                                MCCC:   BRIEF HISTORY
FHIS.                                     MERGE/COPY/COPY:   FULL HISTORY
MRT .                                                    :   MAX REC TEMP
DFD .                                                    :   MUD DENSITY
DFT .                                                 N/A:   MUD TYPE
RMS .                                                    :   RM
MST .                                                    :   RM TEMP
RMCS.                                                    :   RMC
MCST.                                                    :   RMC TEMP
RMFS.                                                    :   RMF
MFST.                                                    :   RMF TEMP
TCS .                                                 N/A:   TIME SINCE CIRCLN
TLI .M                                                700:   TOP DEPTH LOGGED
~Curve Information Block
#MNEM.UNIT                                        API CODE    No Description
#=========                                        ========    == ===========
DEPT.M                                       00 001 00 00:     1  DEPTH
SN.OHMM                                                  :     2  SHORT NORMAL
SP.MV                                                    :     3  Spontaneous potential
~ASCII
# ...
  797.2000     1.3850    51.4100
  797.4000     1.3770    51.2780
  797.6000     1.3660    51.1450
  797.8000     1.3370    51.0120
  798.0000     1.3090    50.1160
  798.2000     1.2810    48.8690
  798.4000     1.2680    47.6230
  798.6000     1.2510    46.3760
  798.8000     1.2340    45.8160
  799.0000     1.2170    45.5340
  799.2000     1.1990    46.0750
  799.4000     1.1890    46.4470
  799.6000     1.1800    46.8190
  799.8000     1.2070    46.7090
  800.0000     1.2210    46.3010
  800.2000     1.2230    45.7400
  800.4000     1.2120    45.1790
  800.6000     1.1990    44.6190
  800.8000     1.1860    44.0580
  801.0000     1.1740    43.4980
  801.2000     1.1610    42.2710
  801.4000     1.1480    41.9300
  801.6000     1.1360    41.8170
  801.8000     1.2010    42.4960
  802.0000     1.2990    42.9690
  802.2000     1.3800    43.4420
  802.4000     1.4340    43.9150
  802.6000     1.4890    44.3880
  802.8000     1.5060    46.0370
  803.0000     1.5070    47.3120
  803.2000     1.5070    46.6920
  803.4000     1.5680    46.6520
  803.6000     1.6540    46.6110
  803.8000     1.7230    46.5700
  804.0000     1.7920    46.5290
  804.2000     1.9390    46.2250
  804.4000     2.1160    45.9300
  804.6000     2.4170    45.6340
  804.8000     3.6780    45.3390
  805.0000     4.9390    45.7660
  805.2000     9.5490    45.9760
  805.4000    14.6700    46.1860
  805.6000    19.7930    47.3900
  805.8000    36.7850    47.0210
  806.0000    59.0240    45.8470
  806.2000    83.9450    44.6720
  806.4000    96.3560    43.4980
  806.6000   108.2500    42.3240
  806.8000   120.1440    41.1500
  807.0000   136.8210    39.9760
  807.2000   141.8830    38.5640
  807.4000   146.1320    37.4640
  807.6000   145.1910    36.3750
  807.8000   144.2410    32.2170
  808.0000   142.8720    31.4890
  808.2000   141.5030    30.7620
  808.4000   140.1330    28.9620
  808.6000   135.3330    27.3640
  808.8000   130.6470    25.7650
  809.0000   124.8080    24.7570
  809.2000   118.7530    23.9820
  809.4000   112.7000    23.2060
  809.6000   106.8640    23.0650
  809.8000   102.8150    23.5040
  810.0000    98.7660    23.9430
  810.2000    94.0880    24.3810
  810.4000    86.7150    24.8200
  810.6000    76.8180    24.8010
  810.8000    72.4400    24.7950
  811.0000    68.7900    24.7890
  811.2000    65.1390    23.7610
  811.4000    61.6930    22.9630
  811.6000    58.1960    22.1650
  811.8000    54.9120    21.3670
  812.0000    51.6040    21.0860
  812.2000    48.4950    20.8580
  812.4000    45.4680    20.6300
  812.6000    42.4410    20.4020
  812.8000    40.0440    19.8860
  813.0000    37.8270    19.2930
  813.2000    35.6100    18.7000
  813.4000    33.3940    18.1080
  813.6000    31.5450    17.5150
  813.8000    29.5870    16.9220
  814.0000    27.6290    16.3290
  814.2000    25.6710    15.7360
  814.4000    24.9120    15.1430
  814.6000    23.8490    15.3380
  814.8000    22.7850    15.2960
  815.0000    21.7220    15.2540
  815.2000    20.6590    15.2130
  815.4000    19.5960    15.1710
  815.6000    19.7080    15.1300
  815.8000    18.8740    15.0880
  816.0000    18.8580    15.0470
  816.2000    18.7710    15.0050
  816.4000    18.6400    15.1670
  816.6000    18.5080    15.4800
  816.8000    18.1950    15.7940
  817.0000    17.9350    16.1080
  817.2000    18.2230    16.4210
  817.4000    18.4870    16.9800
  817.6000    18.7510    17.5200
  817.8000    19.0160    18.2490
  818.0000    19.2800    18.9220
  818.2000    19.5440    19.5960
  818.4000    20.1560    20.2690
  818.6000    19.6350    20.9420
  818.8000    19.2430    21.6160
  819.0000    18.8570    21.9130
  819.2000    18.4700    22.2770
  819.4000    18.2320    22.6420
  819.6000    18.2470    23.0060
  819.8000    18.5120    23.3710
  820.0000    18.7540    23.7350
  820.2000    18.9970    24.0990
  820.4000    19.0400    24.9210
  820.6000    19.1400    25.6070
  820.8000    19.2390    26.2940
  821.0000    19.1630    26.9800
  821.2000    19.0770    27.6670
  821.4000    18.9370    28.3530
  821.6000    18.7960    28.7680
  821.8000    17.5160    28.9080
  822.0000    17.0250    28.9060
  822.2000    16.5330    28.9050
  822.4000    15.0680    28.9040
  822.6000    14.4420    28.9030
  822.8000    13.8450    28.9010
  823.0000    13.2490    28.9000
  823.2000    13.6170    28.8990
  823.4000    13.7500    28.3040
  823.6000    13.8830    27.8670
  823.8000    14.4000    27.4290
  824.0000    14.8000    26.9910
  824.2000    14.6920    27.1650
  824.4000    14.5250    27.6090
  824.6000    14.3050    28.0540
  824.8000    14.0790    28.4980
  825.0000    13.8530    28.9430
  825.2000    12.0790    29.9760
  825.4000    11.6110    30.9420
  825.6000    11.2530    31.9070
  825.8000    10.8950    31.9300
  826.0000    10.7970    32.1150
  826.2000    10.6920    32.2990
  826.4000    10.5870    32.4840
  826.6000    10.4820    32.6680
  826.8000    10.3770    32.8530
  827.0000    10.2720    33.0370
  827.2000    10.1670    33.2220
  827.4000     9.8430    33.4070
  827.6000     9.4940    33.5910
  827.8000     9.1460    33.7760
  828.0000     8.4170    34.7240
  828.2000     7.8140    35.7020
  828.4000     7.2770    36.6810
  828.6000     6.7550    37.6590
  828.8000     6.2320    38.6370
  829.0000     5.5450    39.6150
  829.2000     4.8210    40.5930
  829.4000     4.1900    41.5710
  829.6000     3.6410    42.4670
  829.8000     3.0910    43.3040
  830.0000     3.0740    44.1420
  830.2000     2.0570    44.9790
  830.4000     1.9890    44.7940
  830.6000     1.9210    44.8320
  830.8000     1.8520    44.8710
  831.0000     1.7020    44.9090
  831.2000     1.5720    44.5080
  831.4000     1.4790    44.1120
  831.6000     1.3850    43.7160
  831.8000     1.2910    44.1250
  832.0000     1.5360    44.4560
  832.2000     1.6300    44.7860
  832.4000     1.7250    45.1170
  832.6000     1.8190    45.4480
  832.8000     1.7950    45.7780
  833.0000     1.7550    45.9240
  833.2000     1.7050    46.0740
  833.4000     1.6540    46.2230
  833.6000     1.5630    46.3720
  833.8000     1.4620    46.4450
  834.0000     1.3710    46.4980
  834.2000     1.2890    46.6900
  834.4000     1.2070    46.8520
  834.6000     1.1260    47.0140
  834.8000     1.0750    47.1760
  835.0000     1.1000    47.3370
  835.2000     1.1450    47.4990
  835.4000     1.3170    47.6610
  835.6000     1.4140    47.8230
  835.8000     1.4480    47.9840
  836.0000     1.4830    48.1460
  836.2000     1.5170    48.7760
  836.4000     1.5510    49.3800
  836.6000     1.6770    49.9850
  836.8000     1.9360    50.5890
  837.0000     2.0620    50.4160
  837.2000     1.9150    50.4020
  837.4000     1.7550    50.3870
  837.6000     1.5960    46.7350
  837.8000     1.5550    46.6190
  838.0000     1.4870    46.5540
  838.2000     1.4190    46.4890
  838.4000     1.3500    46.4250
  838.6000     1.3060    46.3600
  838.8000     1.2730    45.4670
  839.0000     1.3550    44.7670
  839.2000     1.5020    44.4780
  839.4000     1.6390    44.2270
  839.6000     1.7850    44.2580
  839.8000     1.9470    44.3740
  840.0000     2.0550    44.4900
  840.2000     2.1190    47.0610
  840.4000     2.1560    48.5580
  840.6000     2.1670    48.8320
  840.8000     2.1780    48.4200
  841.0000     2.1890    48.2000
  841.2000     2.2010    47.9800
  841.4000     2.2120    47.7590
  841.6000     2.3560    47.5380
  841.8000     3.3190    47.3170
  842.0000     3.0940    47.0950
  842.2000     3.2730    47.8660
  842.4000     3.4140    48.5450
  842.6000     3.2410    49.2230
  842.8000     3.1160    49.9010
  843.0000     2.7420    50.5800
  843.2000     2.6230    51.2580
  843.4000     2.7120    53.3640
  843.6000     2.8080    54.0480
  843.8000     2.9040    54.1120
  844.0000     3.3930    53.1080
  844.2000     3.3130    52.2640
  844.4000     3.2890    51.4190
  844.6000     3.2880    50.5740
  844.8000     3.2850    49.7290
  845.0000     3.2820    50.2640
  845.2000     3.2800    50.3870
  845.4000     3.2770    50.5270
  845.6000     3.1940    50.6670
