~VERSION INFORMATION
VERS.                                                 2.0:   CWLS Log ASCII Standard-VERSION 2.0
WRAP.                                                  NO:   One line per depth step
~Well Information Block
STRT.M                                           245.9736:   Top Depth
STOP.M                                           781.9644:   Bottom Depth
STEP.M                                             .15240:   Depth Increment
NULL.                                            -999.250:   Null Value
FLD .                                         SCHOONEBEEK:   Field Name
WELL.                                      SCHOONEBEEK- 3:   NAME
EDF .m                                              15.12:   ELEV DRILL FLOOR
EPD .                                                   0:   ELEV PERM DATUM
EGL .m                                               12.8:   GROUND LEVEL
LMF .                                                  DF:   LOGS MEAS FROM
COMP.                                                BPME:   OPERATOR
PDAT.                                                 NAP:   PERM DATUM
SPUD.                                          2043/09/12:   SPUD DATE
UWBI.                                      11000074043001:   UWBI
WELL.                                      SCHOONEBEEK- 3:   HOLE NAME
~PARAMETER INFORMATION (log)
LNAM.                               RUN 01 RAW OH 10 1/2":   NAME
LTYP.                                                 01R:   LOG TYPE
LVSN.                                                   1:   LOG VERSION
BS  .1/2"                                              10:   BIT SIZE
BLI .M                                                782:   BOTTOM DEPTH LOGGED
BHIS.                                                MCCC:   BRIEF HISTORY
FHIS.                                     MERGE/COPY/COPY:   FULL HISTORY
MRT .                                                    :   MAX REC TEMP
DFD .                                                    :   MUD DENSITY
DFT .                                                 N/A:   MUD TYPE
RMS .                                                    :   RM
MST .                                                    :   RM TEMP
RMCS.                                                    :   RMC
MCST.                                                    :   RMC TEMP
RMFS.                                                    :   RMF
MFST.                                                    :   RMF TEMP
TCS .                                                 N/A:   TIME SINCE CIRCLN
TLI .M                                                246:   TOP DEPTH LOGGED
~Curve Information Block
#MNEM.UNIT                                        API CODE    No Description
#=========                                        ========    == ===========
DEPT.M                                       00 001 00 00:     1  DEPTH
SN.OHMM                                                  :     2  SHORT NORMAL
SP.MV                                                    :     3  Spontaneous potential
~ASCII
# ...
  542.2392     6.0530    21.6140
  542.3916     6.9750    23.9320
  542.5440     7.6700    25.6250
  542.6964     8.0530    26.8350
  542.8488     8.3610    27.9120
  543.0012     8.7010    29.1890
  543.1536     9.0650    30.4220
  543.3060     9.4280    31.1590
  543.4584     9.7230    31.4690
  543.6108     9.6120    31.5410
  543.7632     9.4120    31.1880
  543.9156     9.2630    30.3630
  544.0680     9.2200    29.2760
  544.2204     9.2880    28.7960
  544.3728     9.3210    29.3430
  544.5252     9.4110    30.0190
  544.6776     9.9400    30.2750
  544.8300    10.6500    30.3660
  544.9824    11.1010    30.2390
  545.1348    11.7190    29.9150
  545.2872    11.9790    29.7160
  545.4396    11.3090    29.7610
  545.5920    10.6640    30.0870
  545.7444    10.2230    30.6200
  545.8968     9.5740    31.3910
  546.0492     9.3480    32.6390
  546.2016     9.8100    33.9010
  546.3540    10.2620    34.7940
  546.5064    10.6040    35.7310
  546.6588    11.0090    37.2400
  546.8112    11.3950    39.0630
  546.9636    11.8610    40.5150
  547.1160    12.4700    41.3430
  547.2684    13.2430    42.0000
  547.4208    14.0330    43.1160
  547.5732    14.2840    44.5150
  547.7256    13.9490    45.3300
  547.8780    13.5540    45.4070
  548.0304    13.2030    45.5160
  548.1828    12.8280    46.0300
  548.3352    12.4690    46.2420
  548.4876    12.1080    46.2270
  548.6400    11.7280    46.2200
  548.7924    11.2590    46.0520
  548.9448    10.7530    45.9490
  549.0972    10.2730    46.1940
  549.2496     9.7670    46.5210
  549.4020     9.2770    46.7540
  549.5544     8.8210    47.0580
  549.7068     8.3700    47.5530
  549.8592     8.0870    48.2320
  550.0116     7.9850    48.9880
  550.1640     7.8800    49.7120
  550.3164     7.7800    50.3720
  550.4688     7.6580    50.8990
  550.6212     7.5500    51.1980
  550.7736     7.4300    51.0300
  550.9260     7.2470    50.5140
  551.0784     7.0190    50.0270
  551.2308     6.7910    49.6020
  551.3832     6.5490    49.1210
  551.5356     6.3200    48.9100
  551.6880     6.1690    49.2020
  551.8404     6.0620    49.5430
  551.9928     5.9250    49.6630
  552.1452     5.7720    49.9340
  552.2976     5.6580    50.3180
  552.4500     5.6050    50.2590
  552.6024     5.6160    49.8520
  552.7548     5.7050    49.6200
  552.9072     5.8250    49.3980
  553.0596     5.9620    48.8370
  553.2120     6.1080    48.2990
  553.3644     6.2600    48.1090
  553.5168     6.4250    47.8370
  553.6692     6.6020    47.1540
  553.8216     6.7540    46.4410
  553.9740     6.8730    46.0250
  554.1264     7.0110    45.7040
  554.2788     7.1790    45.2920
  554.4312     7.3230    44.9520
  554.5836     7.4380    44.8350
  554.7360     7.5240    44.8460
  554.8884     7.4890    44.8280
  555.0408     7.2700    44.7950
  555.1932     6.9540    44.8630
  555.3456     6.6360    44.9790
  555.4980     6.3150    44.9720
  555.6504     5.9990    44.9420
  555.8028     5.7790    45.1030
  555.9552     5.7030    45.2910
  556.1076     5.6970    45.2400
  556.2600     5.6760    45.1110
  556.4124     5.6450    45.1220
  556.5648     5.6380    45.1260
  556.7172     5.6380    45.0110
  556.8696     5.6210    44.9480
  557.0220     5.6020    44.9920
  557.1744     5.5810    44.9670
  557.3268     5.5360    44.8450
  557.4792     5.4740    44.7910
  557.6316     5.4290    44.8590
  557.7840     5.4140    44.9480
  557.9364     5.4210    44.9920
  558.0888     5.4520    44.9950
  558.2412     5.5110    44.9450
  558.3936     5.5840    44.8420
  558.5460     5.6570    44.6900
  558.6984     5.7350    44.4680
  558.8508     5.8470    44.2460
  559.0032     5.9910    44.1770
  559.1556     6.1160    44.2240
  559.3080     6.2550    44.1990
  559.4604     6.4820    44.1560
  559.6128     6.6060    44.3250
  559.7652     6.3230    44.6660
  559.9176     5.8080    44.9460
  560.0700     5.5550    45.0870
  560.2224     5.6420    45.1340
  560.3748     5.7770    45.1290
  560.5272     5.8840    45.1630
  560.6796     6.0390    45.2610
  560.8320     6.1750    45.3020
  560.9844     6.2380    45.2770
  561.1368     6.2890    45.3170
  561.2892     6.3620    45.4120
  561.4416     6.4480    45.4540
  561.5940     6.5310    45.4540
  561.7464     6.5110    45.4470
  561.8988     6.3250    45.4010
  562.0512     6.0770    45.3570
  562.2036     5.8970    45.3940
  562.3560     5.7780    45.4560
  562.5084     5.6590    45.4600
  562.6608     5.5190    45.4370
  562.8132     5.3710    45.4390
  562.9656     5.2190    45.4540
  563.1180     5.0690    45.4520
  563.2704     4.9220    45.4350
  563.4228     4.7740    45.4380
  563.5752     4.6220    45.4870
  563.7276     4.4720    45.5500
  563.8800     4.3290    45.6280
  564.0324     4.1770    45.7640
  564.1848     4.0150    45.8900
  564.3372     3.8880    45.9310
  564.4896     3.8200    46.0290
  564.6420     3.7740    46.3030
  564.7944     3.7270    46.5670
  564.9468     3.7020    46.6360
  565.0992     3.6990    46.6300
  565.2516     3.6970    46.7010
  565.4040     3.7320    46.8330
  565.5564     3.8320    47.0020
  565.7088     3.9380    47.1520
  565.8612     3.9930    47.1410
  566.0136     4.0410    46.9830
  566.1660     4.1340    46.8720
  566.3184     4.2470    46.8170
  566.4708     4.3440    46.6640
  566.6232     4.4370    46.4240
  566.7756     4.5360    46.1900
  566.9280     4.6360    45.8900
  567.0804     4.7350    45.5040
  567.2328     4.8310    45.2320
  567.3852     4.9230    45.1700
  567.5376     5.0150    45.1360
  567.6900     5.0940    44.9390
  567.8424     5.1260    44.5970
  567.9948     5.1130    44.2510
  568.1472     5.0900    43.9970
  568.2996     5.0710    43.8340
  568.4520     5.0410    43.7480
  568.6044     5.0020    43.7610
  568.7568     4.9730    43.8930
  568.9092     4.9490    44.1660
  569.0616     4.9030    44.5710
  569.2140     4.8330    44.9720
  569.3664     4.7630    45.2520
  569.5188     4.6860    45.4630
  569.6712     4.5710    45.5420
  569.8236     4.4280    45.2470
  569.9760     4.2970    44.6930
  570.1284     4.1870    44.3620
  570.2808     3.9900    44.3710
  570.4332     3.9650    44.4300
  570.5856     3.9360    44.4930
  570.7380     3.9110    44.7740
  570.8904     3.8770    45.2100
  571.0428     3.8200    45.5770
  571.1952     3.7540    45.9870
  571.3476     3.6880    46.6870
  571.5000     3.6090    47.4660
  571.6524     3.5120    47.8410
  571.8048     3.4090    47.7890
  571.9572     3.3220    47.7220
  572.1096     3.2260    47.7930
  572.2620     3.1540    47.8010
  572.4144     3.1340    47.7060
  572.5668     3.1310    47.6660
  572.7192     3.1270    47.6220
  572.8716     3.1300    47.3880
  573.0240     3.1340    47.0830
  573.1764     3.1630    46.9380
  573.3288     3.2180    46.8760
  573.4812     3.2440    46.8070
  573.6336     3.2420    46.8450
  573.7860     3.2460    46.8150
  573.9384     3.2360    46.4300
  574.0908     3.2100    46.0190
  574.2432     3.2020    45.9810
  574.3956     3.1990    45.9840
  574.5480     3.1950    45.6900
  574.7004     3.1980    45.3500
  574.8528     3.2140    45.1470
  575.0052     3.2300    45.0320
  575.1576     3.2390    45.1100
  575.3100     3.2480    45.4130
  575.4624     3.2610    45.8030
  575.6148     3.2760    46.3940
  575.7672     3.2890    47.3310
  575.9196     3.3020    48.2960
  576.0720     3.3160    48.8080
  576.2244     3.3300    48.7970
  576.3768     3.3440    48.5720
  576.5292     3.3660    48.3280
  576.6816     3.3930    47.8970
  576.8340     3.4100    47.1610
  576.9864     3.4260    46.4470
  577.1388     3.4600    46.0580
  577.2912     3.5000    45.7910
  577.4436     3.5190    45.3950
  577.5960     3.5260    45.0070
  577.7484     3.5460    44.7990
  577.9008     3.5680    44.6740
  578.0532     3.5630    44.4900
  578.2056     3.5360    44.2440
  578.3580     3.5060    43.9910
  578.5104     3.4810    43.7730
  578.6628     3.4590    43.5730
  578.8152     3.4460    43.2460
  578.9676     3.4350    42.7090
  579.1200     3.4230    42.2480
