~VERSION INFORMATION
VERS.                                                 2.0:   CWLS Log ASCII Standard-VERSION 2.0
WRAP.                                                  NO:   One line per depth step
~Well Information Block
STRT.M                                           700.0000:   Top Depth
STOP.M                                          1057.0000:   Bottom Depth
STEP.M                                             .20000:   Depth Increment
NULL.                                            -999.250:   Null Value
FLD .                                         SCHOONEBEEK:   Field Name
WELL.                                      SCHOONEBEEK- 3:   NAME
EDF .m                                              15.12:   ELEV DRILL FLOOR
EPD .                                                   0:   ELEV PERM DATUM
EGL .m                                               12.8:   GROUND LEVEL
LMF .                                                  DF:   LOGS MEAS FROM
COMP.                                                BPME:   OPERATOR
PDAT.                                                 NAP:   PERM DATUM
SPUD.                                          2043/09/12:   SPUD DATE
UWBI.                                      11000074043001:   UWBI
~PARAMETER INFORMATION (log)
LNAM.                                RUN 03 RAW OH 7 3/5":   NAME
LTYP.                                                 03R:   LOG TYPE
LVSN.                                                   1:   LOG VERSION
BS  .3/5"                                               7:   BIT SIZE
BLI .M                                               1057:   BOTTOM DEPTH LOGGED
BHIS.                                                MCCC:   BRIEF HISTORY
FHIS.                                     MERGE/COPY/COPY:   FULL HISTORY
MRT .                                                    :   MAX REC TEMP
DFD .                                                    :   MUD DENSITY
DFT .                                                 N/A:   MUD TYPE
RMS .                                                    :   RM
MST .                                                    :   RM TEMP
RMCS.                                                    :   RMC
MCST.                                                    :   RMC TEMP
RMFS.                                                    :   RMF
MFST.                                                    :   RMF TEMP
TCS .                                                 N/A:   TIME SINCE CIRCLN
TLI .M                                                700:   TOP DEPTH LOGGED
~Curve Information Block
#MNEM.UNIT                                        API CODE    No Description
#=========                                        ========    == ===========
DEPT.M                                       00 001 00 00:     1  DEPTH
SN.OHMM                                                  :     2  SHORT NORMAL
SP.MV                                                    :     3  Spontaneous potential
~ASCII
# ...
  894.4000     2.2280    48.1630
  894.6000     2.1300    48.1020
  894.8000     2.0200    48.0410
  895.0000     1.9130    47.8660
  895.2000     1.8060    47.6410
  895.4000     1.6990    47.4170
  895.6000     1.5920    47.4870
  895.8000     1.4580    47.5860
  896.0000     1.3120    47.6850
  896.2000     1.2510    47.7840
  896.4000     1.2080    47.8830
  896.6000     1.1820    47.9810
  896.8000     1.1630    48.0800
  897.0000     1.1430    48.1790
  897.2000     1.1240    48.2780
  897.4000     1.1050    48.3770
  897.6000     1.1450    48.4760
  897.8000     1.1680    48.4500
  898.0000     1.1650    48.4320
  898.2000     1.1520    48.4150
  898.4000     1.1400    48.3970
  898.6000     1.1270    48.3790
  898.8000     1.1290    48.3610
  899.0000     1.1480    48.3430
  899.2000     1.1770    48.3250
  899.4000     1.2060    48.3070
  899.6000     1.2370    48.2900
  899.8000     1.2940    48.2720
  900.0000     1.3430    48.2540
  900.2000     1.3930    48.2360
  900.4000     1.3690    48.2180
  900.6000     1.3700    48.2000
  900.8000     1.3700    48.2790
  901.0000     1.3710    48.4400
  901.2000     1.3710    48.6010
  901.4000     1.4020    48.7620
  901.6000     1.4260    48.9220
  901.8000     1.4490    49.0830
  902.0000     1.4730    49.2440
  902.2000     1.5110    49.4050
  902.4000     1.5750    49.5660
  902.6000     1.5860    49.7260
  902.8000     1.5480    49.8870
  903.0000     1.5100    50.0480
  903.2000     1.4730    50.1090
  903.4000     1.4350    50.1040
  903.6000     1.3970    50.1000
  903.8000     1.3750    50.0950
  904.0000     1.3510    50.0900
  904.2000     1.3820    50.0860
  904.4000     1.4000    50.0810
  904.6000     1.4170    50.0760
  904.8000     1.4340    50.0720
  905.0000     1.4590    50.0670
  905.2000     1.4880    50.0630
  905.4000     1.5160    50.0580
  905.6000     1.8280    50.0530
  905.8000     1.7380    50.0490
  906.0000     1.6910    50.1900
  906.2000     1.6440    50.3240
  906.4000     1.5970    50.4590
  906.6000     1.5500    51.0450
  906.8000     1.5030    51.5450
  907.0000     1.4570    52.0440
  907.2000     1.4110    52.5440
  907.4000     1.3650    53.0440
  907.6000     1.3190    53.0150
  907.8000     1.2730    53.1420
  908.0000     1.2880    52.7200
  908.2000     1.3240    51.8350
  908.4000     1.3590    51.6100
  908.6000     1.4220    51.9410
  908.8000     1.4990    52.2720
  909.0000     1.9370    52.6030
  909.2000     1.8540    52.3180
  909.4000     1.7430    51.9560
  909.6000     1.6620    51.5950
  909.8000     1.5810    51.2330
  910.0000     1.5010    50.8720
  910.2000     1.4200    50.5100
  910.4000     1.3090    50.3500
  910.6000     1.1910    50.3390
  910.8000     1.2330    50.7220
  911.0000     1.2910    51.0660
  911.2000     1.3400    50.9270
  911.4000     1.3920    50.8640
  911.6000     1.4430    50.8010
  911.8000     1.4950    50.7380
  912.0000     1.6260    50.6750
  912.2000     2.1040    50.6120
  912.4000     2.0660    49.8500
  912.6000     2.0120    49.2100
  912.8000     1.9570    49.6690
  913.0000     1.9030    50.2660
  913.2000     1.8380    50.8630
  913.4000     1.7710    50.7780
  913.6000     1.7040    49.8350
  913.8000     1.5240    48.7070
  914.0000     1.5380    48.6020
  914.2000     1.5720    48.2690
  914.4000     1.6060    49.1890
  914.6000     1.6400    49.7170
  914.8000     1.6740    49.9200
  915.0000     1.7080    49.9280
  915.2000     1.8010    49.9350
  915.4000     1.9940    50.3300
  915.6000     2.0820    51.0200
  915.8000     2.0740    51.7090
  916.0000     2.0080    52.3980
  916.2000     1.9550    53.0880
  916.4000     1.8970    53.7780
  916.6000     1.8340    54.4670
  916.8000     1.7720    54.8150
  917.0000     1.7100    54.9290
  917.2000     1.6480    55.0440
  917.4000     1.5860    54.8160
  917.6000     1.5240    54.6020
  917.8000     1.4710    54.3880
  918.0000     1.4200    54.6510
  918.2000     1.3690    54.8170
  918.4000     1.3890    54.9830
  918.6000     1.4260    55.1490
  918.8000     1.6780    55.6100
  919.0000     1.8730    56.1510
  919.2000     2.3120    56.6930
  919.4000     2.4690    57.4510
  919.6000     2.4490    57.4870
  919.8000     2.4450    55.8200
  920.0000     2.4270    54.3820
  920.2000     2.4380    52.9430
  920.4000     2.4910    53.6170
  920.6000     2.5430    54.2760
  920.8000     2.9630    55.1570
  921.0000     2.8670    56.0380
  921.2000     2.8210    56.9200
  921.4000     2.7750    57.2890
  921.6000     2.7290    57.5500
  921.8000     2.6830    57.2980
  922.0000     2.6050    57.1160
  922.2000     2.5340    56.9350
  922.4000     2.4630    57.8930
  922.6000     2.1970    58.5720
  922.8000     2.1850    59.2340
  923.0000     2.7080    59.8960
  923.2000     2.8170    60.5580
  923.4000     2.7490    61.2200
  923.6000     2.7000    61.8820
  923.8000     2.6510    62.5430
  924.0000     2.6020    61.5060
  924.2000     2.4740    61.0330
  924.4000     2.3680    60.5600
  924.6000     2.2610    60.0870
  924.8000     2.1540    59.7640
  925.0000     1.6420    59.5480
  925.2000     1.6270    59.3320
  925.4000     1.5930    59.1170
  925.6000     1.5600    59.4920
  925.8000     1.5270    59.7140
  926.0000     1.4890    59.9370
  926.2000     1.4500    60.1590
  926.4000     1.4990    60.3810
  926.6000     1.5320    60.2580
  926.8000     1.5150    60.2480
  927.0000     1.4900    60.2380
  927.2000     1.4630    59.3730
  927.4000     1.4360    58.6750
  927.6000     1.4100    57.9810
  927.8000     1.4150    57.2860
  928.0000     1.4260    56.9120
  928.2000     1.5190    56.7000
  928.4000     1.5890    57.1310
  928.6000     1.6740    57.3800
  928.8000     2.5700    57.6280
  929.0000     2.5810    57.8770
  929.2000     2.6060    57.4120
  929.4000     2.6490    56.9360
  929.6000     2.6950    56.4600
  929.8000     2.7410    55.9840
  930.0000     2.7870    55.5080
  930.2000     3.3680    55.0330
  930.4000     3.5020    54.0480
  930.6000     3.5800    53.0620
  930.8000     3.6570    54.3810
  931.0000     3.7400    55.6180
  931.2000     3.8250    56.7590
  931.4000     3.9100    57.9000
  931.6000     3.8940    58.5160
  931.8000     3.8700    59.0190
  932.0000     3.7620    59.5210
  932.2000     3.1010    59.4440
  932.4000     2.6860    58.8780
  932.6000     2.3730    58.3120
  932.8000     2.4090    57.7460
  933.0000     2.4450    57.1800
  933.2000     2.4330    56.6150
  933.4000     2.4140    56.0490
  933.6000     2.3030    55.4830
  933.8000     2.2140    56.7470
  934.0000     2.2080    57.5810
  934.2000     2.2610    58.4150
  934.4000     2.3070    59.2490
  934.6000     2.3550    58.9320
  934.8000     2.4030    58.7760
  935.0000     2.4510    58.6190
  935.2000     2.6050    58.4630
  935.4000     2.7880    59.4810
  935.6000     2.7390    61.2970
  935.8000     2.6890    62.5330
  936.0000     2.6530    62.9500
  936.2000     2.6260    63.0320
  936.4000     2.6680    62.2780
  936.6000     2.7240    61.2070
  936.8000     2.7810    60.1360
  937.0000     2.8370    59.0650
  937.2000     2.8940    57.9930
  937.4000     2.9500    56.9220
  937.6000     2.8800    55.8510
  937.8000     2.5930    55.4970
  938.0000     2.4840    55.1240
  938.2000     2.3800    54.8280
  938.4000     2.2750    54.5330
  938.6000     2.1710    54.2370
  938.8000     2.0660    53.9410
  939.0000     1.9380    53.6460
  939.2000     1.8080    53.3500
  939.4000     1.7840    53.4930
  939.6000     1.7320    53.5230
  939.8000     1.6800    53.5520
  940.0000     1.6270    53.5820
  940.2000     1.5750    53.6110
  940.4000     1.7020    53.6410
  940.6000     1.7380    53.6700
  940.8000     1.7690    53.7000
  941.0000     1.8240    53.7290
  941.2000     1.9000    54.0480
  941.4000     2.7700    54.4730
  941.6000     2.7020    54.8980
  941.8000     2.6330    55.3230
  942.0000     2.5650    55.7480
  942.2000     2.5040    56.1730
  942.4000     2.4350    56.7120
  942.6000     2.3670    57.3350
  942.8000     2.2990    57.0210
