~VERSION INFORMATION
VERS.                                                 2.0:   CWLS Log ASCII Standard-VERSION 2.0
WRAP.                                                  NO:   One line per depth step
~Well Information Block
STRT.M                                           245.9736:   Top Depth
STOP.M                                           781.9644:   Bottom Depth
STEP.M                                             .15240:   Depth Increment
NULL.                                            -999.250:   Null Value
FLD .                                         SCHOONEBEEK:   Field Name
WELL.                                      SCHOONEBEEK- 3:   NAME
EDF .m                                              15.12:   ELEV DRILL FLOOR
EPD .                                                   0:   ELEV PERM DATUM
EGL .m                                               12.8:   GROUND LEVEL
LMF .                                                  DF:   LOGS MEAS FROM
COMP.                                                BPME:   OPERATOR
PDAT.                                                 NAP:   PERM DATUM
SPUD.                                          2043/09/12:   SPUD DATE
UWBI.                                      11000074043001:   UWBI
WELL.                                      SCHOONEBEEK- 3:   HOLE NAME
~PARAMETER INFORMATION (log)
LNAM.                               RUN 01 RAW OH 10 1/2":   NAME
LTYP.                                                 01R:   LOG TYPE
LVSN.                                                   1:   LOG VERSION
BS  .1/2"                                              10:   BIT SIZE
BLI .M                                                782:   BOTTOM DEPTH LOGGED
BHIS.                                                MCCC:   BRIEF HISTORY
FHIS.                                     MERGE/COPY/COPY:   FULL HISTORY
MRT .                                                    :   MAX REC TEMP
DFD .                                                    :   MUD DENSITY
DFT .                                                 N/A:   MUD TYPE
RMS .                                                    :   RM
MST .                                                    :   RM TEMP
RMCS.                                                    :   RMC
MCST.                                                    :   RMC TEMP
RMFS.                                                    :   RMF
MFST.                                                    :   RMF TEMP
TCS .                                                 N/A:   TIME SINCE CIRCLN
TLI .M                                                246:   TOP DEPTH LOGGED
~Curve Information Block
#MNEM.UNIT                                        API CODE    No Description
#=========                                        ========    == ===========
DEPT.M                                       00 001 00 00:     1  DEPTH
SN.OHMM                                                  :     2  SHORT NORMAL
SP.MV                                                    :     3  Spontaneous potential
~ASCII
# ...
  431.1396     3.0360    50.5870
  431.2920     3.0110    50.7180
  431.4444     2.9920    50.8880
  431.5968     2.9680    51.0630
  431.7492     2.9470    51.2500
  431.9016     2.9260    51.6510
  432.0540     2.8880    52.3030
  432.2064     2.8830    52.9450
  432.3588     2.9540    53.3850
  432.5112     3.0370    53.6500
  432.6636     3.0670    53.8230
  432.8160     3.0640    53.9990
  432.9684     3.0550    54.1830
  433.1208     3.0380    54.1970
  433.2732     2.9820    53.9480
  433.4256     2.8730    53.6130
  433.5780     2.7530    53.3770
  433.7304     2.6520    53.2260
  433.8828     2.5440    53.0650
  434.0352     2.4150    52.8940
  434.1876     2.2860    52.8770
  434.3400     2.1590    53.1260
  434.4924     2.0250    53.4780
  434.6448     1.8970    53.7990
  434.7972     1.8020    54.2660
  434.9496     1.7390    54.9580
  435.1020     1.7210    55.6010
  435.2544     1.7150    56.0170
  435.4068     1.7030    56.3020
  435.5592     1.6930    56.4760
  435.7116     1.6850    56.4880
  435.8640     1.6670    56.4650
  436.0164     1.5760    56.4740
  436.1688     1.5030    56.3320
  436.3212     1.5420    55.9640
  436.4736     1.5950    55.6050
  436.6260     1.6400    55.5130
  436.7784     1.6930    55.8020
  436.9308     1.7370    56.4330
  437.0832     1.7930    57.1510
  437.2356     1.8330    57.7270
  437.3880     1.8800    58.2940
  437.5404     1.9580    58.9270
  437.6928     2.0520    59.2320
  437.8452     2.1080    58.9480
  437.9976     2.1030    58.3940
  438.1500     2.0680    57.8300
  438.3024     2.0410    57.2100
  438.4548     2.0180    56.7160
  438.6072     1.9890    56.5850
  438.7596     1.9620    56.6340
  438.9120     1.9390    56.7620
  439.0644     1.9090    57.1880
  439.2168     1.8810    57.7810
  439.3692     1.8620    58.2130
  439.5216     1.8390    58.6150
  439.6740     1.8170    58.9470
  439.8264     1.8340    58.5280
  439.9788     1.9990    57.1430
  440.1312     2.1550    55.5520
  440.2836     2.2820    54.5510
  440.4360     2.4290    54.5100
  440.5884     2.5180    55.3930
  440.7408     2.5850    56.5940
  440.8932     2.6360    57.5960
  441.0456     2.6820    58.6930
  441.1980     2.7470    59.9300
  441.3504     2.8100    60.0900
  441.5028     2.8700    58.2820
  441.6552     2.9330    55.6970
  441.8076     2.9950    53.8970
  441.9600     3.0580    52.1290
  442.1124     3.1190    48.8700
  442.2648     3.1740    45.2300
  442.4172     3.2500    43.5920
  442.5696     3.3330    43.8090
  442.7220     3.3690    43.9990
  442.8744     3.3540    43.6810
  443.0268     3.3320    43.4960
  443.1792     3.3180    43.6460
  443.3316     3.2910    44.1140
  443.4840     3.2610    44.6750
  443.6364     3.2610    44.6890
  443.7888     3.2560    44.1340
  443.9412     3.2340    43.7730
  444.0936     3.2840    43.8150
  444.2460     3.3870    43.8210
  444.3984     3.4370    43.7110
  444.5508     3.4210    43.7270
  444.7032     3.3940    43.9430
  444.8556     3.3720    44.3980
  445.0080     3.3410    44.9900
  445.1604     3.3060    45.3260
  445.3128     3.2740    45.3130
  445.4652     3.2390    45.3220
  445.6176     3.2010    45.3380
  445.7700     3.1650    45.1490
  445.9224     3.1300    45.4220
  446.0748     3.0940    46.8190
  446.2272     3.0570    48.3800
  446.3796     3.0210    48.9540
  446.5320     2.9860    49.2920
  446.6844     2.9500    50.4620
  446.8368     2.9100    51.7280
  446.9892     2.8720    52.0720
  447.1416     2.8460    51.9330
  447.2940     2.8310    51.9090
  447.4464     2.8290    51.7170
  447.5988     2.8410    51.1890
  447.7512     2.8590    50.6140
  447.9036     2.8740    50.1330
  448.0560     2.8900    49.9000
  448.2084     2.9100    50.0030
  448.3608     2.9260    49.9870
  448.5132     2.9380    49.8480
  448.6656     2.9570    50.7590
  448.8180     2.9850    53.0610
  448.9704     3.0130    55.0600
  449.1228     3.0380    55.5080
  449.2752     3.0650    55.2710
  449.4276     3.0940    55.2870
  449.5800     3.1180    54.9780
  449.7324     3.1440    53.7050
  449.8848     3.1790    51.9880
  450.0372     3.1910    50.3480
  450.1896     3.1480    48.3680
  450.3420     3.0710    45.9180
  450.4944     3.0130    44.1570
  450.6468     2.9840    44.0460
  450.7992     2.9550    44.9570
  450.9516     2.9110    45.8640
  451.1040     2.8640    46.5870
  451.2564     2.8230    47.2410
  451.4088     2.7820    47.9790
  451.5612     2.7380    49.1680
  451.7136     2.6890    50.6040
  451.8660     2.6450    51.5670
  452.0184     2.6130    52.1740
  452.1708     2.5860    53.0080
  452.3232     2.5560    53.6930
  452.4756     2.5240    53.5910
  452.6280     2.4940    53.0560
  452.7804     2.4620    52.7080
  452.9328     2.4320    52.5660
  453.0852     2.4020    52.5890
  453.2376     2.3700    53.0070
  453.3900     2.3380    53.8070
  453.5424     2.3130    54.6830
  453.6948     2.2820    55.5750
  453.8472     2.2260    56.7070
  453.9996     2.1640    57.9970
  454.1520     2.1280    59.0100
  454.3044     2.1180    59.6470
  454.4568     2.1110    60.2490
  454.6092     2.0980    60.9320
  454.7616     2.0920    61.4630
  454.9140     2.0970    61.7750
  455.0664     2.1060    62.0120
  455.2188     2.1160    62.2530
  455.3712     2.1250    62.4980
  455.5236     2.1300    62.7230
  455.6760     2.1310    62.9230
  455.8284     2.1320    63.2000
  455.9808     2.1340    63.6120
  456.1332     2.1380    64.0240
  456.2856     2.1400    64.2910
  456.4380     2.1370    64.3730
  456.5904     2.1340    64.2110
  456.7428     2.1330    63.7950
  456.8952     2.1310    63.3170
  457.0476     2.1270    62.9470
  457.2000     2.1260    62.5810
  457.3524     2.1320    62.0610
  457.5048     2.1380    61.5540
  457.6572     2.1420    61.3450
  457.8096     2.1460    61.2850
  457.9620     2.1520    60.9450
  458.1144     2.1570    60.3870
  458.2668     2.1580    60.0760
  458.4192     2.1580    60.0040
  458.5716     2.1580    59.7700
  458.7240     2.1580    59.4250
  458.8764     2.1580    59.2910
  459.0288     2.1580    59.2550
  459.1812     2.1580    59.1260
  459.3336     2.1580    59.1240
  459.4860     2.1580    59.3140
  459.6384     2.1530    59.3260
  459.7908     2.1450    59.0810
  459.9432     2.1390    58.9530
  460.0956     2.1320    59.0530
  460.2480     2.1200    59.1350
  460.4004     2.1080    59.1220
  460.5528     2.1010    59.1110
  460.7052     2.1000    59.0890
  460.8576     2.1040    59.0150
  461.0100     2.1120    58.9200
  461.1624     2.1210    58.8080
  461.3148     2.1350    58.6830
  461.4672     2.1550    58.6020
  461.6196     2.1740    58.5470
  461.7720     2.1850    58.4740
  461.9244     2.1890    58.4530
  462.0768     2.1950    58.4520
  462.2292     2.2030    58.2220
  462.3816     2.2080    57.7890
  462.5340     2.2080    57.5340
  462.6864     2.2090    57.4820
  462.8388     2.2090    57.2600
  462.9912     2.2070    56.9540
  463.1436     2.2030    57.0150
  463.2960     2.2020    57.4040
  463.4484     2.2020    57.7300
  463.6008     2.2020    57.9230
  463.7532     2.2030    58.1130
  463.9056     2.2070    58.3500
  464.0580     2.2120    58.6480
  464.2104     2.2140    58.8770
  464.3628     2.2150    58.8420
  464.5152     2.2150    58.6430
  464.6676     2.2150    58.4800
  464.8200     2.2150    58.2860
  464.9724     2.2150    58.0460
  465.1248     2.2150    57.9250
  465.2772     2.2150    57.8000
  465.4296     2.2140    57.4400
  465.5820     2.2160    57.0990
  465.7344     2.2200    57.1200
  465.8868     2.2210    57.3350
  466.0392     2.2220    57.4900
  466.1916     2.2270    57.6710
  466.3440     2.2330    57.8970
  466.4964     2.2400    58.0060
  466.6488     2.2450    58.0560
  466.8012     2.2490    58.1750
  466.9536     2.2540    58.1910
  467.1060     2.2600    58.0090
  467.2584     2.2640    57.9000
  467.4108     2.2670    57.8800
  467.5632     2.2720    57.5440
  467.7156     2.2770    56.9240
  467.8680     2.2790    56.5620
  468.0204     2.2770    56.5430
