~VERSION INFORMATION
VERS.                                                 2.0:   CWLS Log ASCII Standard-VERSION 2.0
WRAP.                                                  NO:   One line per depth step
~Well Information Block
STRT.M                                           245.9736:   Top Depth
STOP.M                                           781.9644:   Bottom Depth
STEP.M                                             .15240:   Depth Increment
NULL.                                            -999.250:   Null Value
FLD .                                         SCHOONEBEEK:   Field Name
WELL.                                      SCHOONEBEEK- 3:   NAME
EDF .m                                              15.12:   ELEV DRILL FLOOR
EPD .                                                   0:   ELEV PERM DATUM
EGL .m                                               12.8:   GROUND LEVEL
LMF .                                                  DF:   LOGS MEAS FROM
COMP.                                                BPME:   OPERATOR
PDAT.                                                 NAP:   PERM DATUM
SPUD.                                          2043/09/12:   SPUD DATE
UWBI.                                      11000074043001:   UWBI
WELL.                                      SCHOONEBEEK- 3:   HOLE NAME
~PARAMETER INFORMATION (log)
LNAM.                               RUN 01 RAW OH 10 1/2":   NAME
LTYP.                                                 01R:   LOG TYPE
LVSN.                                                   1:   LOG VERSION
BS  .1/2"                                              10:   BIT SIZE
BLI .M                                                782:   BOTTOM DEPTH LOGGED
BHIS.                                                MCCC:   BRIEF HISTORY
FHIS.                                     MERGE/COPY/COPY:   FULL HISTORY
MRT .                                                    :   MAX REC TEMP
DFD .                                                    :   MUD DENSITY
DFT .                                                 N/A:   MUD TYPE
RMS .                                                    :   RM
MST .                                                    :   RM TEMP
RMCS.                                                    :   RMC
MCST.                                                    :   RMC TEMP
RMFS.                                                    :   RMF
MFST.                                                    :   RMF TEMP
TCS .                                                 N/A:   TIME SINCE CIRCLN
TLI .M                                                246:   TOP DEPTH LOGGED
~Curve Information Block
#MNEM.UNIT                                        API CODE    No Description
#=========                                        ========    == ===========
DEPT.M                                       00 001 00 00:     1  DEPTH
SN.OHMM                                                  :     2  SHORT NORMAL
SP.MV                                                    :     3  Spontaneous potential
~ASCII
# ...
  468.1728     2.2790    56.5000
  468.3252     2.2840    56.5150
  468.4776     2.2900    56.9220
  468.6300     2.2990    57.5090
  468.7824     2.3140    57.8260
  468.9348     2.3310    57.9390
  469.0872     2.3470    58.2170
  469.2396     2.3660    58.6670
  469.3920     2.3890    58.9510
  469.5444     2.4070    58.9430
  469.6968     2.4130    58.8530
  469.8492     2.4110    58.7760
  470.0016     2.4090    58.5390
  470.1540     2.4060    58.1170
  470.3064     2.3980    57.7180
  470.4588     2.3970    57.3940
  470.6112     2.4130    57.0940
  470.7636     2.4410    56.9600
  470.9160     2.4660    57.1160
  471.0684     2.4770    57.4500
  471.2208     2.4700    57.9190
  471.3732     2.4520    58.7120
  471.5256     2.4340    60.0240
  471.6780     2.4250    61.6900
  471.8304     2.4170    62.8060
  471.9828     2.4020    62.3290
  472.1352     2.3890    60.6400
  472.2876     2.3850    59.3370
  472.4400     2.3850    58.8900
  472.5924     2.3860    58.2740
  472.7448     2.3940    57.2480
  472.8972     2.4060    56.6880
  473.0496     2.4150    56.6550
  473.2020     2.4240    56.4640
  473.3544     2.4410    56.2060
  473.5068     2.4600    56.3230
  473.6592     2.4760    56.5690
  473.8116     2.4920    56.7000
  473.9640     2.5100    56.9650
  474.1164     2.5260    57.3360
  474.2688     2.5380    57.4790
  474.4212     2.5420    57.5300
  474.5736     2.5440    57.7860
  474.7260     2.5450    58.0680
  474.8784     2.5470    58.1380
  475.0308     2.5570    58.1530
  475.1832     2.5770    58.2960
  475.3356     2.5970    58.5370
  475.4880     2.6030    58.7940
  475.6404     2.6010    58.9500
  475.7928     2.5990    58.9300
  475.9452     2.5940    58.8670
  476.0976     2.5830    58.8850
  476.2500     2.5750    58.8480
  476.4024     2.5740    58.6260
  476.5548     2.5830    58.3520
  476.7072     2.6010    58.1510
  476.8596     2.6220    57.9330
  477.0120     2.6420    57.6310
  477.1644     2.6700    57.3330
  477.3168     2.7040    57.0650
  477.4692     2.7360    56.7500
  477.6216     2.7660    56.3980
  477.7740     2.7970    56.1040
  477.9264     2.8220    55.8830
  478.0788     2.8320    55.7000
  478.2312     2.8320    55.5670
  478.3836     2.8340    55.4960
  478.5360     2.8280    55.4660
  478.6884     2.7910    55.4860
  478.8408     2.7270    55.5820
  478.9932     2.6620    55.6740
  479.1456     2.6070    55.6090
  479.2980     2.5520    55.4490
  479.4504     2.4940    55.4580
  479.6028     2.4350    55.5930
  479.7552     2.3780    55.5390
  479.9076     2.3250    55.4140
  480.0600     2.2670    55.6870
  480.2124     2.2000    56.3250
  480.3648     2.1430    56.8170
  480.5172     2.1120    56.9520
  480.6696     2.1020    56.9000
  480.8220     2.1180    56.7990
  480.9744     2.1660    56.6770
  481.1268     2.2210    56.5450
  481.2792     2.2580    56.4020
  481.4316     2.2900    56.2690
  481.5840     2.3300    56.1860
  481.7364     2.3670    56.1550
  481.8888     2.4090    56.1780
  482.0412     2.4650    56.2960
  482.1936     2.5010    56.4870
  482.3460     2.4840    56.6420
  482.4984     2.4420    56.7300
  482.6508     2.4100    56.8480
  482.8032     2.3840    57.0480
  482.9556     2.3620    57.2370
  483.1080     2.3600    57.2920
  483.2604     2.3730    57.2050
  483.4128     2.3730    57.0860
  483.5652     2.3800    56.9560
  483.7176     2.4310    56.6590
  483.8700     2.5060    56.1980
  484.0224     2.5520    55.8240
  484.1748     2.5840    55.5220
  484.3272     2.6400    54.9360
  484.4796     2.6910    54.0230
  484.6320     2.6860    53.1460
  484.7844     2.6430    52.4370
  484.9368     2.6050    51.6670
  485.0892     2.5720    50.7470
  485.2416     2.5350    49.9210
  485.3940     2.5020    49.4080
  485.5464     2.4720    49.2300
  485.6988     2.4400    49.4630
  485.8512     2.4040    50.1720
  486.0036     2.3680    50.9230
  486.1560     2.3360    51.0740
  486.3084     2.3180    50.6960
  486.4608     2.3120    50.3520
  486.6132     2.3020    50.0620
  486.7656     2.2860    49.5660
  486.9180     2.2730    49.1770
  487.0704     2.2620    49.2450
  487.2228     2.2490    49.4630
  487.3752     2.2280    49.6630
  487.5276     2.1910    50.2110
  487.6800     2.1560    50.9840
  487.8324     2.1560    51.3600
  487.9848     2.1880    51.4670
  488.1372     2.2150    51.8710
  488.2896     2.2200    52.2650
  488.4420     2.2250    52.0110
  488.5944     2.2360    51.3690
  488.7468     2.2430    50.9160
  488.8992     2.2460    50.5780
  489.0516     2.2520    50.1070
  489.2040     2.2550    49.7380
  489.3564     2.2530    49.7490
  489.5088     2.2600    49.9610
  489.6612     2.2850    50.0870
  489.8136     2.3210    50.1310
  489.9660     2.3540    50.0980
  490.1184     2.3850    49.8210
  490.2708     2.4210    49.3380
  490.4232     2.4550    48.9020
  490.5756     2.4750    48.5150
  490.7280     2.4860    48.0910
  490.8804     2.5070    47.8190
  491.0328     2.5370    47.7760
  491.1852     2.5550    47.7310
  491.3376     2.5500    47.6730
  491.4900     2.5290    47.8030
  491.6424     2.5040    48.0110
  491.7948     2.4760    48.1420
  491.9472     2.4480    48.4200
  492.0996     2.4310    48.9530
  492.2520     2.4240    49.3740
  492.4044     2.4200    49.5020
  492.5568     2.4280    49.7080
  492.7092     2.4640    50.2160
  492.8616     2.5190    50.6880
  493.0140     2.5550    50.8910
  493.1664     2.5630    51.0510
  493.3188     2.5720    51.2150
  493.4712     2.5880    51.1020
  493.6236     2.5740    50.7910
  493.7760     2.5200    50.5960
  493.9284     2.4670    50.3250
  494.0808     2.4420    49.6740
  494.2332     2.4270    48.9500
  494.3856     2.4070    48.5410
  494.5380     2.3980    48.2320
  494.6904     2.4010    47.7290
  494.8428     2.3990    47.2730
  494.9952     2.4050    47.1960
  495.1476     2.4430    47.3630
  495.3000     2.5000    47.6260
  495.4524     2.5450    48.2380
  495.6048     2.5830    49.1080
  495.7572     2.6250    49.5100
  495.9096     2.6630    49.3510
  496.0620     2.6980    49.4530
  496.2144     2.7470    49.9620
  496.3668     2.8120    50.0890
  496.5192     2.8880    49.6500
  496.6716     2.9770    49.1450
  496.8240     3.0470    48.6300
  496.9764     3.0650    47.9150
  497.1288     3.0620    47.1890
  497.2812     3.0710    46.6160
  497.4336     3.0480    46.1460
  497.5860     2.9730    45.8410
  497.7384     2.8940    45.7370
  497.8908     2.8450    45.6980
  498.0432     2.7980    45.7130
  498.1956     2.7390    45.8650
  498.3480     2.6810    46.0070
  498.5004     2.6310    45.9090
  498.6528     2.5780    45.6350
  498.8052     2.5190    45.4690
  498.9576     2.4650    45.5490
  499.1100     2.4400    45.8010
  499.2624     2.4490    46.2530
  499.4148     2.4670    47.1200
  499.5672     2.4870    48.3190
  499.7196     2.5180    49.2900
  499.8720     2.5520    49.7430
  500.0244     2.5840    49.9730
  500.1768     2.6340    49.9830
  500.3292     2.6920    49.3380
  500.4816     2.7150    48.2940
  500.6340     2.6980    47.7680
  500.7864     2.6770    47.9830
  500.9388     2.6660    48.4330
  501.0912     2.6590    48.9630
  501.2436     2.6550    49.6440
  501.3960     2.6590    50.1850
  501.5484     2.6690    50.4120
  501.7008     2.6840    50.5590
  501.8532     2.7000    50.7130
  502.0056     2.7130    50.7490
  502.1580     2.7300    50.7190
  502.3104     2.7550    50.7250
  502.4628     2.7830    50.7050
  502.6152     2.8090    50.6130
  502.7676     2.8370    50.5270
  502.9200     2.8700    50.5500
  503.0724     2.8990    50.6340
  503.2248     2.9210    50.6690
  503.3772     2.9410    50.8440
  503.5296     2.9710    51.4070
  503.6820     3.0080    51.9970
  503.8344     3.0380    52.2960
  503.9868     3.0520    52.7530
  504.1392     3.0550    53.2000
  504.2916     3.0560    52.3860
  504.4440     3.0480    50.4330
  504.5964     3.0280    49.0850
  504.7488     3.0140    48.5830
  504.9012     3.0310    47.5940
  505.0536     3.0640    46.1980
