~VERSION INFORMATION
VERS.                                                 2.0:   CWLS Log ASCII Standard-VERSION 2.0
WRAP.                                                  NO:   One line per depth step
~Well Information Block
STRT.M                                           245.9736:   Top Depth
STOP.M                                           781.9644:   Bottom Depth
STEP.M                                             .15240:   Depth Increment
NULL.                                            -999.250:   Null Value
FLD .                                         SCHOONEBEEK:   Field Name
WELL.                                      SCHOONEBEEK- 3:   NAME
EDF .m                                              15.12:   ELEV DRILL FLOOR
EPD .                                                   0:   ELEV PERM DATUM
EGL .m                                               12.8:   GROUND LEVEL
LMF .                                                  DF:   LOGS MEAS FROM
COMP.                                                BPME:   OPERATOR
PDAT.                                                 NAP:   PERM DATUM
SPUD.                                          2043/09/12:   SPUD DATE
UWBI.                                      11000074043001:   UWBI
WELL.                                      SCHOONEBEEK- 3:   HOLE NAME
~PARAMETER INFORMATION (log)
LNAM.                               RUN 01 RAW OH 10 1/2":   NAME
LTYP.                                                 01R:   LOG TYPE
LVSN.                                                   1:   LOG VERSION
BS  .1/2"                                              10:   BIT SIZE
BLI .M                                                782:   BOTTOM DEPTH LOGGED
BHIS.                                                MCCC:   BRIEF HISTORY
FHIS.                                     MERGE/COPY/COPY:   FULL HISTORY
MRT .                                                    :   MAX REC TEMP
DFD .                                                    :   MUD DENSITY
DFT .                                                 N/A:   MUD TYPE
RMS .                                                    :   RM
MST .                                                    :   RM TEMP
RMCS.                                                    :   RMC
MCST.                                                    :   RMC TEMP
RMFS.                                                    :   RMF
MFST.                                                    :   RMF TEMP
TCS .                                                 N/A:   TIME SINCE CIRCLN
TLI .M                                                246:   TOP DEPTH LOGGED
~Curve Information Block
#MNEM.UNIT                                        API CODE    No Description
#=========                                        ========    == ===========
DEPT.M                                       00 001 00 00:     1  DEPTH
SN.OHMM                                                  :     2  SHORT NORMAL
SP.MV                                                    :     3  Spontaneous potential
~ASCII
  245.9736     1.4310    70.7700
  246.1260     1.8610    67.6620
  246.2784     1.9820    65.4870
  246.4308     2.0700    63.9340
  246.5832     2.5810    62.8460
  246.7356     3.0870    62.6910
  246.8880     3.2900    62.3800
  247.0404     3.4790    62.2250
  247.1928     3.4790    62.2250
  247.3452     3.4790    62.2250
  247.4976     3.4660    62.2250
  247.6500     3.4280    62.3800
  247.8024     3.3710    62.3800
  247.9548     3.2980    61.9140
  248.1072     3.3000    61.9020
  248.2596     3.2370    61.4520
  248.4120     3.1830    60.9620
  248.5644     3.1360    60.5640
  248.7168     3.1270    60.3470
  248.8692     3.1040    60.3720
  249.0216     3.0510    60.5220
  249.1740     3.0190    60.6680
  249.3264     2.9650    60.8490
  249.4788     2.9130    61.1080
  249.6312     2.8980    61.3300
  249.7836     2.7920    61.4330
  249.9360     2.6950    61.5830
  250.0884     2.6550    61.9690
  250.2408     2.5660    62.4770
  250.3932     2.5470    62.8710
  250.5456     2.5640    63.1600
  250.6980     2.5590    63.4440
  250.8504     2.5750    63.6290
  251.0028     2.6140    63.6050
  251.1552     2.6260    63.4870
  251.3076     2.6290    63.4190
  251.4600     2.6370    63.3440
  251.6124     2.6260    63.1330
  251.7648     2.6010    62.8460
  251.9172     2.5690    62.6670
  252.0696     2.5010    62.5750
  252.2220     2.4040    62.3310
  252.3744     2.3180    61.9220
  252.5268     2.2730    61.6210
  252.6792     2.2700    61.4400
  252.8316     2.2740    61.0970
  252.9840     2.2710    60.5820
  253.1364     2.2720    60.1670
  253.2888     2.2780    59.8920
  253.4412     2.2850    59.6010
  253.5936     2.2910    59.2910
  253.7460     2.2980    59.0790
  253.8984     2.3030    58.9960
  254.0508     2.3040    58.9730
  254.2032     2.3030    58.9280
  254.3556     2.3040    58.8460
  254.5080     2.3010    58.7960
  254.6604     2.2910    58.8050
  254.8128     2.2730    58.8170
  254.9652     2.2430    58.8080
  255.1176     2.1980    58.8050
  255.2700     2.1380    58.8110
  255.4224     2.0910    58.8080
  255.5748     2.0780    58.8050
  255.7272     2.0880    58.8080
  255.8796     2.0950    58.8070
  256.0320     2.1020    58.8040
  256.1844     2.1130    58.8080
  256.3368     2.1120    58.8080
  256.4892     2.0910    58.8010
  256.6416     2.0630    58.8070
  256.7940     2.0390    58.8180
  256.9464     2.0150    58.7790
  257.0988     1.9920    58.6840
  257.2512     1.9650    58.6260
  257.4036     1.9390    58.6530
  257.5560     1.9290    58.6760
  257.7084     1.9400    58.6100
  257.8608     1.9560    58.5240
  258.0132     1.9720    58.4990
  258.1656     1.9860    58.4660
  258.3180     1.9890    58.3730
  258.4704     1.9710    58.3200
  258.6228     1.9450    58.3480
  258.7752     1.9250    58.3390
  258.9276     1.9070    58.2480
  259.0800     1.8850    58.1900
  259.2324     1.8640    58.1930
  259.3848     1.8460    58.1550
  259.5372     1.8240    58.0660
  259.6896     1.8040    58.0160
  259.8420     1.7930    58.0020
  259.9944     1.7940    57.9340
  260.1468     1.7960    57.8160
  260.2992     1.7990    57.7450
  260.4516     1.8100    57.7330
  260.6040     1.8310    57.6860
  260.7564     1.8530    57.5910
  260.9088     1.8760    57.5520
  261.0612     1.9020    57.5750
  261.2136     1.9320    57.5410
  261.3660     1.9610    57.4390
  261.5184     1.9900    57.3870
  261.6708     2.0210    57.4110
  261.8232     2.0470    57.4190
  261.9756     2.0630    57.3980
  262.1280     2.0620    57.4080
  262.2804     2.0370    57.4270
  262.4328     1.9950    57.3770
  262.5852     1.9580    57.2830
  262.7376     1.9310    57.2390
  262.8900     1.9040    57.2510
  263.0424     1.8740    57.2570
  263.1948     1.8450    57.2430
  263.3472     1.8160    57.2370
  263.4996     1.7870    57.2370
  263.6520     1.7590    57.2310
  263.8044     1.7300    57.2230
  263.9568     1.6970    57.2200
  264.1092     1.6710    57.2150
  264.2616     1.6590    57.2090
  264.4140     1.6590    57.2040
  264.5664     1.6710    57.1990
  264.7188     1.6930    57.1940
  264.8712     1.7170    57.1890
  265.0236     1.7400    57.1840
  265.1760     1.7670    57.1790
  265.3284     1.7980    57.1740
  265.4808     1.8310    57.1690
  265.6332     1.8630    57.1640
  265.7856     1.8940    57.1590
  265.9380     1.9200    57.1540
  266.0904     1.9500    57.1490
  266.2428     1.9890    57.1440
  266.3952     2.0290    57.1390
  266.5476     2.0560    57.1330
  266.7000     2.0730    57.1290
  266.8524     2.0880    57.1240
  267.0048     2.1000    57.1180
  267.1572     2.1010    57.1130
  267.3096     2.0940    57.1090
  267.4620     2.0860    57.1030
  267.6144     2.0790    57.0970
  267.7668     2.0660    57.0990
  267.9192     2.0450    57.1140
  268.0716     2.0220    57.1320
  268.2240     2.0020    57.1490
  268.3764     1.9880    57.1640
  268.5288     1.9730    57.1810
  268.6812     1.9430    57.1980
  268.8336     1.8980    57.2140
  268.9860     1.8590    57.2300
  269.1384     1.8360    57.2470
  269.2908     1.8130    57.2640
  269.4432     1.7880    57.2800
  269.5956     1.7770    57.2960
  269.7480     1.7810    57.3130
  269.9004     1.7890    57.3290
  270.0528     1.8210    57.3460
  270.2052     1.8850    57.3620
  270.3576     1.9520    57.3790
  270.5100     1.9950    57.3950
  270.6624     2.0250    57.4120
  270.8148     2.0520    57.4280
  270.9672     2.0730    57.4450
  271.1196     2.0860    57.4610
  271.2720     2.0900    57.4780
  271.4244     2.0820    57.4950
  271.5768     2.0680    57.5090
  271.7292     2.0550    57.5260
  271.8816     2.0350    57.5470
  272.0340     2.0080    57.5580
  272.1864     1.9890    57.5440
  272.3388     1.9770    57.5150
  272.4912     1.9500    57.4860
  272.6436     1.9060    57.4620
  272.7960     1.8690    57.4350
  272.9484     1.8500    57.4070
  273.1008     1.8240    57.3810
  273.2532     1.7770    57.3550
  273.4056     1.7250    57.3280
  273.5580     1.6940    57.3010
  273.7104     1.6800    57.2740
  273.8628     1.6670    57.2480
  274.0152     1.6610    57.2210
  274.1676     1.6770    57.1940
  274.3200     1.7070    57.1680
  274.4724     1.7290    57.1410
  274.6248     1.7410    57.1140
  274.7772     1.7630    57.0870
  274.9296     1.7940    57.0610
  275.0820     1.8130    57.0340
  275.2344     1.8180    57.0070
  275.3868     1.8160    56.9810
  275.5392     1.8030    56.9540
  275.6916     1.7860    56.9270
  275.8440     1.7790    56.9000
  275.9964     1.7740    56.8740
  276.1488     1.7670    56.8480
  276.3012     1.7790    56.8180
  276.4536     1.8130    56.7900
  276.6060     1.8410    56.7710
  276.7584     1.8600    56.7550
  276.9108     1.8980    56.7360
  277.0632     1.9480    56.7170
  277.2156     1.9720    56.6980
  277.3680     1.9730    56.6800
  277.5204     1.9720    56.6610
  277.6728     1.9620    56.6430
  277.8252     1.9320    56.6250
  277.9776     1.8980    56.6050
  278.1300     1.8740    56.5870
  278.2824     1.8640    56.5710
  278.4348     1.8770    56.5500
  278.5872     1.9110    56.5290
  278.7396     1.9440    56.5140
  278.8920     1.9680    56.4950
  279.0444     1.9850    56.4690
  279.1968     1.9840    56.4870
  279.3492     1.9620    56.6150
  279.5016     1.9310    56.8030
  279.6540     1.8880    56.9400
  279.8064     1.8200    57.0680
  279.9588     1.7280    57.2970
  280.1112     1.6270    57.5440
  280.2636     1.5420    57.6980
  280.4160     1.4970    57.9020
  280.5684     1.4840    58.2020
  280.7208     1.4660    58.2760
  280.8732     1.4500    57.9280
  281.0256     1.4700    57.4010
  281.1780     1.5180    56.9180
  281.3304     1.5630    56.4650
  281.4828     1.6130    56.0800
  281.6352     1.6930    55.9210
  281.7876     1.7620    56.0480
  281.9400     1.8100    56.3330
  282.0924     1.8680    56.6640
  282.2448     1.9420    57.2520
  282.3972     2.0090    58.2770
  282.5496     2.0570    59.2250
  282.7020     2.0920    59.4810
  282.8544     2.1430    59.2670
