~VERSION INFORMATION
VERS.                                                 2.0:   CWLS Log ASCII Standard-VERSION 2.0
WRAP.                                                  NO:   One line per depth step
~Well Information Block
STRT.M                                           700.0000:   Top Depth
STOP.M                                          1057.0000:   Bottom Depth
STEP.M                                             .20000:   Depth Increment
NULL.                                            -999.250:   Null Value
FLD .                                         SCHOONEBEEK:   Field Name
WELL.                                      SCHOONEBEEK- 3:   NAME
EDF .m                                              15.12:   ELEV DRILL FLOOR
EPD .                                                   0:   ELEV PERM DATUM
EGL .m                                               12.8:   GROUND LEVEL
LMF .                                                  DF:   LOGS MEAS FROM
COMP.                                                BPME:   OPERATOR
PDAT.                                                 NAP:   PERM DATUM
SPUD.                                          2043/09/12:   SPUD DATE
UWBI.                                      11000074043001:   UWBI
~PARAMETER INFORMATION (log)
LNAM.                                RUN 03 RAW OH 7 3/5":   NAME
LTYP.                                                 03R:   LOG TYPE
LVSN.                                                   1:   LOG VERSION
BS  .3/5"                                               7:   BIT SIZE
BLI .M                                               1057:   BOTTOM DEPTH LOGGED
BHIS.                                                MCCC:   BRIEF HISTORY
FHIS.                                     MERGE/COPY/COPY:   FULL HISTORY
MRT .                                                    :   MAX REC TEMP
DFD .                                                    :   MUD DENSITY
DFT .                                                 N/A:   MUD TYPE
RMS .                                                    :   RM
MST .                                                    :   RM TEMP
RMCS.                                                    :   RMC
MCST.                                                    :   RMC TEMP
RMFS.                                                    :   RMF
MFST.                                                    :   RMF TEMP
TCS .                                                 N/A:   TIME SINCE CIRCLN
TLI .M                                                700:   TOP DEPTH LOGGED
~Curve Information Block
#MNEM.UNIT                                        API CODE    No Description
#=========                                        ========    == ===========
DEPT.M                                       00 001 00 00:     1  DEPTH
SN.OHMM                                                  :     2  SHORT NORMAL
SP.MV                                                    :     3  Spontaneous potential
~ASCII
# ...
  991.6000     1.2150    50.6380
  991.8000     1.2240    50.4790
  992.0000     1.2340    50.3210
  992.2000     1.2430    50.1630
  992.4000     1.2280    50.0040
  992.6000     1.2170    49.8460
  992.8000     1.2070    49.9300
  993.0000     1.1960    49.9490
  993.2000     1.1860    49.9680
  993.4000     1.1760    49.9870
  993.6000     1.2140    50.0050
  993.8000     1.2420    50.0240
  994.0000     1.2780    50.0430
  994.2000     1.3400    50.0620
  994.4000     1.4020    50.0810
  994.6000     1.8320    50.1000
  994.8000     1.8110    50.1190
  995.0000     1.7900    50.1380
  995.2000     1.7690    50.0600
  995.4000     1.7480    49.9690
  995.6000     1.7260    49.8780
  995.8000     1.6970    49.7870
  996.0000     1.6670    49.6960
  996.2000     1.6870    49.6050
  996.4000     1.7120    49.3360
  996.6000     1.7380    49.0000
  996.8000     1.7630    48.2400
  997.0000     1.7890    47.4590
  997.2000     1.8670    46.6770
  997.4000     2.0410    46.3280
  997.6000     2.0990    45.9070
  997.8000     2.0190    45.4860
  998.0000     1.9400    45.0660
  998.2000     1.8600    44.6450
  998.4000     1.7630    44.2240
  998.6000     1.6530    43.8030
  998.8000     1.5420    44.0480
  999.0000     1.3550    44.1560
  999.2000     1.2930    44.2640
  999.4000     1.3320    44.3720
  999.6000     1.3710    44.4800
  999.8000     1.4540    44.5880
 1000.0000     1.5360    45.6570
 1000.2000     1.5860    46.4900
 1000.4000     1.5090    47.3230
 1000.6000     1.4320    48.9390
 1000.8000     1.3900    51.1500
 1001.0000     1.3390    51.2140
 1001.2000     1.2880    50.9140
 1001.4000     1.2370    50.5120
 1001.6000     1.1860    50.1100
 1001.8000     1.1030    49.7080
 1002.0000     1.1280    49.3060
 1002.2000     1.1460    48.9040
 1002.4000     1.1640    48.7880
 1002.6000     1.1820    48.6230
 1002.8000     1.2000    48.4580
 1003.0000     1.2430    48.2930
 1003.2000     1.2790    48.1280
 1003.4000     1.3140    47.7110
 1003.6000     1.3020    47.3720
 1003.8000     1.2670    47.0330
 1004.0000     1.2330    46.6930
 1004.2000     1.1990    46.3540
 1004.4000     1.1380    46.8720
 1004.6000     1.1470    47.3820
 1004.8000     1.1570    47.8910
 1005.0000     1.1220    48.4000
 1005.2000     1.0880    48.9100
 1005.4000     1.0530    49.4190
 1005.6000      .9950    49.1220
 1005.8000      .9510    49.4650
 1006.0000      .9080    49.8310
 1006.2000      .9470    50.1960
 1006.4000      .9650    51.0110
 1006.6000      .9820    52.0380
 1006.8000      .9990    53.0640
 1007.0000     1.0160    54.0900
 1007.2000     1.0870    53.9020
 1007.4000     1.1630    53.8280
 1007.6000     1.1490    52.9080
 1007.8000     1.1020    52.1960
 1008.0000     1.0350    51.4840
 1008.2000     1.0820    50.7710
 1008.4000     1.0950    48.9650
 1008.6000     1.1080    47.6320
 1008.8000     1.1010    46.2990
 1009.0000     1.0910    44.9670
 1009.2000     1.0820    45.3770
 1009.4000     1.0370    45.2230
 1009.6000      .9870    45.2140
 1009.8000      .9380    45.2710
 1010.0000      .8880    45.3280
 1010.2000      .8390    45.3840
 1010.4000      .7890    45.4410
 1010.6000      .8280    45.4980
 1010.8000      .8500    45.5550
 1011.0000      .8730    45.6120
 1011.2000      .9090    45.6690
 1011.4000      .9490    45.3140
 1011.6000     1.0490    45.0900
 1011.8000     1.1560    44.8650
 1012.0000     1.1460    44.7620
 1012.2000     1.1390    45.2410
 1012.4000     1.1040    45.6670
 1012.6000     1.0970    46.0940
 1012.8000     1.1010    46.5200
 1013.0000     1.1330    46.9470
 1013.2000     1.1580    47.3730
 1013.4000     1.1820    46.8580
 1013.6000     1.2070    46.5290
 1013.8000     1.2320    46.2000
 1014.0000     1.2570    45.8720
 1014.2000     1.3150    46.6010
 1014.4000     1.4030    47.4650
 1014.6000     1.4910    49.5740
 1014.8000     1.4350    52.4540
 1015.0000     1.3780    51.4360
 1015.2000     1.3210    50.8250
 1015.4000     1.2640    49.9440
 1015.6000     1.2070    49.0630
 1015.8000     1.2040    48.1820
 1016.0000     1.2330    47.3020
 1016.2000     1.2620    46.4210
 1016.4000     1.2920    45.5400
 1016.6000     1.3240    45.7160
 1016.8000     1.3200    45.5760
 1017.0000     1.2920    45.4350
 1017.2000     1.2640    45.2950
 1017.4000     1.2360    45.1540
 1017.6000     1.2350    45.0140
 1017.8000     1.2300    44.8740
 1018.0000     1.2260    44.7330
 1018.2000     1.2220    44.5930
 1018.4000     1.2170    44.9930
 1018.6000     1.2050    45.4080
 1018.8000     1.1920    45.8230
 1019.0000     1.1800    46.2390
 1019.2000     1.2310    46.1940
 1019.4000     1.2860    46.1840
 1019.6000     1.3410    46.1590
 1019.8000     1.4780    46.1330
 1020.0000     1.5900    46.1070
 1020.2000     1.4500    46.0810
 1020.4000     1.3740    46.0550
 1020.6000     1.2980    46.0290
 1020.8000     1.0820    46.0040
 1021.0000     1.0900    45.9780
 1021.2000     1.1070    46.6390
 1021.4000     1.1230    47.2190
 1021.6000     1.1400    47.8000
 1021.8000     1.1560    49.1210
 1022.0000     1.1730    50.4600
 1022.2000     1.1890    51.8010
 1022.4000     1.2220    51.7800
 1022.6000     1.2700    52.0100
 1022.8000     1.4100    52.2400
 1023.0000     1.4050    52.1410
 1023.2000     1.4000    52.1390
 1023.4000     1.3950    52.1360
 1023.6000     1.3960    52.1340
 1023.8000     1.3980    52.1310
 1024.0000     1.4010    52.1280
 1024.2000     1.4030    52.1260
 1024.4000     1.4050    52.1230
 1024.6000     1.4080    52.1210
 1024.8000     1.4080    52.1180
 1025.0000     1.4080    52.1160
 1025.2000     1.4070    52.1130
 1025.4000     1.4060    52.1100
 1025.6000     1.4050    52.1080
 1025.8000     1.4040    52.1050
 1026.0000     1.4030    52.1030
 1026.2000     1.4030    52.1000
 1026.4000     1.4020    52.0980
 1026.6000     1.3960    52.0950
 1026.8000     1.3910    52.0920
 1027.0000     1.3860    52.0900
 1027.2000     1.3820    52.0870
 1027.4000     1.3770    52.0850
 1027.6000     1.3720    52.0820
 1027.8000     1.3680    52.0800
 1028.0000     1.3630    52.0610
 1028.2000     1.3580    52.0460
 1028.4000     1.3540    52.0310
 1028.6000     1.3540    52.0160
 1028.8000     1.3530    52.0010
 1029.0000     1.3520    51.9860
 1029.2000     1.3520    51.9720
 1029.4000     1.3510    51.9570
 1029.6000     1.3500    51.9420
 1029.8000     1.3500    51.9270
 1030.0000     1.3490    51.9120
 1030.2000     1.3480    51.8970
 1030.4000     1.3480    51.8820
 1030.6000     1.3540    51.8670
 1030.8000     1.3580    51.8520
 1031.0000     1.3620    51.8370
 1031.2000     1.3650    51.8220
 1031.4000     1.3690    51.8070
 1031.6000     1.3730    51.7920
 1031.8000     1.3770    51.7770
 1032.0000     1.3810    51.7620
 1032.2000     1.3850    51.7470
 1032.4000     1.3890    51.7320
 1032.6000     1.3920    51.7170
 1032.8000     1.3940    51.7020
 1033.0000     1.3930    51.6870
 1033.2000     1.3770    51.6860
 1033.4000     1.3640    51.6840
 1033.6000     1.3500    51.6820
 1033.8000     1.3370    51.6800
 1034.0000     1.3470    51.6780
 1034.2000     1.3500    51.6760
 1034.4000     1.3520    51.6740
 1034.6000     1.3550    51.6720
 1034.8000     1.3580    51.6700
 1035.0000     1.3630    51.6680
 1035.2000     1.3670    51.6660
 1035.4000     1.3710    51.6640
 1035.6000     1.3740    51.6620
 1035.8000     1.3780    51.6600
 1036.0000     1.3820    51.6580
 1036.2000     1.3860    51.6560
 1036.4000     1.3890    51.6540
 1036.6000     1.3930    51.6520
 1036.8000     1.3970    51.6500
 1037.0000     1.3910    51.6480
 1037.2000     1.3880    51.6460
 1037.4000     1.3850    51.6440
 1037.6000     1.3820    51.6420
 1037.8000     1.3780    51.6410
 1038.0000     1.3750    51.6390
 1038.2000     1.3720    51.6370
 1038.4000     1.3720    51.6280
 1038.6000     1.3710    51.6180
 1038.8000     1.3710    51.6080
 1039.0000     1.3710    51.5970
 1039.2000     1.3710    51.5870
 1039.4000     1.3700    51.5770
 1039.6000     1.3700    51.5670
 1039.8000     1.3700    51.5570
 1040.0000     1.3680    51.5470
