~VERSION INFORMATION
VERS.                                                 2.0:   CWLS Log ASCII Standard-VERSION 2.0
WRAP.                                                  NO:   One line per depth step
~Well Information Block
STRT.M                                           700.0000:   Top Depth
STOP.M                                          1057.0000:   Bottom Depth
STEP.M                                             .20000:   Depth Increment
NULL.                                            -999.250:   Null Value
FLD .                                         SCHOONEBEEK:   Field Name
WELL.                                      SCHOONEBEEK- 3:   NAME
EDF .m                                              15.12:   ELEV DRILL FLOOR
EPD .                                                   0:   ELEV PERM DATUM
EGL .m                                               12.8:   GROUND LEVEL
LMF .                                                  DF:   LOGS MEAS FROM
COMP.                                                BPME:   OPERATOR
PDAT.                                                 NAP:   PERM DATUM
SPUD.                                          2043/09/12:   SPUD DATE
UWBI.                                      11000074043001:   UWBI
~PARAMETER INFORMATION (log)
LNAM.                                RUN 03 RAW OH 7 3/5":   NAME
LTYP.                                                 03R:   LOG TYPE
LVSN.                                                   1:   LOG VERSION
BS  .3/5"                                               7:   BIT SIZE
BLI .M                                               1057:   BOTTOM DEPTH LOGGED
BHIS.                                                MCCC:   BRIEF HISTORY
FHIS.                                     MERGE/COPY/COPY:   FULL HISTORY
MRT .                                                    :   MAX REC TEMP
DFD .                                                    :   MUD DENSITY
DFT .                                                 N/A:   MUD TYPE
RMS .                                                    :   RM
MST .                                                    :   RM TEMP
RMCS.                                                    :   RMC
MCST.                                                    :   RMC TEMP
RMFS.                                                    :   RMF
MFST.                                                    :   RMF TEMP
TCS .                                                 N/A:   TIME SINCE CIRCLN
TLI .M                                                700:   TOP DEPTH LOGGED
~Curve Information Block
#MNEM.UNIT                                        API CODE    No Description
#=========                                        ========    == ===========
DEPT.M                                       00 001 00 00:     1  DEPTH
SN.OHMM                                                  :     2  SHORT NORMAL
SP.MV                                                    :     3  Spontaneous potential
~ASCII
# ...
  943.0000     2.1070    56.9110
  943.2000     1.8300    56.8020
  943.4000     2.0070    56.6920
  943.6000     2.4800    56.0020
  943.8000     3.6830    55.1970
  944.0000     4.0340    54.3920
  944.2000     3.8150    53.5870
  944.4000     3.7410    54.2710
  944.6000     3.6670    54.6430
  944.8000     3.5940    55.2390
  945.0000     3.3530    56.0500
  945.2000     3.1280    56.8620
  945.4000     1.6880    57.0630
  945.6000     1.5630    57.2090
  945.8000     1.5430    55.8480
  946.0000     1.5800    54.9050
  946.2000     1.6170    53.9460
  946.4000     1.8240    53.8150
  946.6000     1.7260    54.0410
  946.8000     1.7480    54.2670
  947.0000     1.7780    54.4920
  947.2000     1.8080    54.7180
  947.4000     1.8600    54.7820
  947.6000     1.9210    54.8500
  947.8000     1.9820    54.9190
  948.0000     2.4600    54.9880
  948.2000     2.4280    55.0570
  948.4000     2.3930    55.1260
  948.6000     2.3550    55.1950
  948.8000     2.3180    55.8110
  949.0000     2.3600    56.2680
  949.2000     2.4090    56.7260
  949.4000     2.4590    57.1830
  949.6000     2.5090    57.6410
  949.8000     2.6200    56.4010
  950.0000     2.7700    55.4470
  950.2000     2.8630    54.4930
  950.4000     2.6120    53.5390
  950.6000     2.4280    53.0210
  950.8000     2.2570    53.4940
  951.0000     1.7210    54.0230
  951.2000     1.6360    54.5520
  951.4000     1.6470    55.0820
  951.6000     1.6820    55.2210
  951.8000     1.7160    55.1410
  952.0000     1.7510    55.0600
  952.2000     1.8110    54.7080
  952.4000     1.8900    54.2780
  952.6000     2.9250    53.8490
  952.8000     2.8550    53.4190
  953.0000     2.7860    52.9900
  953.2000     2.7160    54.5040
  953.4000     2.6470    55.3790
  953.6000     2.5780    56.2550
  953.8000     2.5090    57.1300
  954.0000     2.4270    58.0050
  954.2000     2.3470    58.1420
  954.4000     2.2660    57.8900
  954.6000     2.4030    57.0900
  954.8000     2.4790    56.3270
  955.0000     2.5540    55.5640
  955.2000     2.8300    55.1750
  955.4000     2.5880    54.9090
  955.6000     2.4000    54.6430
  955.8000     2.2230    54.5500
  956.0000     2.1890    54.5490
  956.2000     2.1510    54.5490
  956.4000     2.1040    54.5490
  956.6000     2.0570    54.5490
  956.8000     1.9670    54.5490
  957.0000     1.8740    54.5490
  957.2000     1.7500    54.5490
  957.4000     1.6150    54.5480
  957.6000     1.6010    54.5480
  957.8000     1.6170    54.5480
  958.0000     1.5940    54.5480
  958.2000     1.5830    54.7210
  958.4000     1.5710    54.8580
  958.6000     1.5600    54.9950
  958.8000     1.5490    55.1330
  959.0000     1.5370    55.2700
  959.2000     1.5260    55.6180
  959.4000     1.5140    55.9750
  959.6000     1.5560    56.3320
  959.8000     1.5850    56.6890
  960.0000     1.6140    57.0460
  960.2000     1.6430    57.4030
  960.4000     1.7230    57.7600
  960.6000     1.8020    58.1170
  960.8000     2.4100    58.4740
  961.0000     2.4280    58.8310
  961.2000     2.4470    59.1880
  961.4000     2.4650    58.3740
  961.6000     2.4840    57.8400
  961.8000     2.4320    57.3060
  962.0000     2.3790    56.7720
  962.2000     2.3180    56.2390
  962.4000     2.2570    55.7050
  962.6000     2.1970    55.1710
  962.8000     2.1360    54.6370
  963.0000     2.0750    54.8640
  963.2000     2.0110    54.9050
  963.4000     1.9450    54.9460
  963.6000     1.9830    54.9510
  963.8000     2.0260    54.9650
  964.0000     2.0690    54.4280
  964.2000     2.1120    54.0540
  964.4000     2.3010    53.6790
  964.6000     2.2820    53.3050
  964.8000     2.1820    52.5540
  965.0000     2.0810    51.8250
  965.2000     1.9790    51.0960
  965.4000     1.8780    50.3660
  965.6000     1.8200    49.6370
  965.8000     1.7520    50.3740
  966.0000     1.7780    50.6770
  966.2000     1.8110    50.9800
  966.4000     1.8440    51.2840
  966.6000     1.8770    51.9470
  966.8000     1.9100    52.5100
  967.0000     3.3740    53.0730
  967.2000     3.2710    53.6360
  967.4000     3.1680    53.8270
  967.6000     3.0660    54.0200
  967.8000     2.9630    54.2130
  968.0000     2.8600    53.8730
  968.2000     2.7570    53.6820
  968.4000     2.5520    53.4900
  968.6000     2.3620    52.8450
  968.8000     2.1740    52.3310
  969.0000     1.9890    51.8170
  969.2000     1.8030    52.3700
  969.4000     1.6100    52.6650
  969.6000     1.4210    53.2560
  969.8000     1.4390    53.9770
  970.0000     1.3920    54.6990
  970.2000     1.4600    55.4200
  970.4000     1.4920    56.1420
  970.6000     1.5240    56.8630
  970.8000     1.5560    56.6180
  971.0000     1.5870    56.6480
  971.2000     1.6590    56.3150
  971.4000     2.3940    55.7930
  971.6000     2.3800    55.2700
  971.8000     2.2840    54.7480
  972.0000     2.2000    54.2260
  972.2000     2.1290    54.3690
  972.4000     2.0580    54.3520
  972.6000     1.9860    54.3350
  972.8000     1.8530    54.3180
  973.0000     1.5540    54.3020
  973.2000     1.2610    54.2850
  973.4000     1.0990    54.2680
  973.6000     1.0670    54.2520
  973.8000     1.0690    54.2350
  974.0000     1.1110    54.2180
  974.2000     1.1450    53.9390
  974.4000     1.1780    53.6920
  974.6000     1.4790    53.4440
  974.8000     1.4480    52.7940
  975.0000     1.5040    52.1580
  975.2000     1.5300    51.5210
  975.4000     1.6080    50.8840
  975.6000     1.6690    50.8980
  975.8000     2.2950    50.7310
  976.0000     1.8550    50.9470
  976.2000     1.7500    51.3610
  976.4000     1.6450    51.8190
  976.6000     1.5670    52.2710
  976.8000     1.4860    52.7180
  977.0000     1.4040    53.1660
  977.2000     1.3220    53.3620
  977.4000     1.3230    53.3580
  977.6000     1.2960    53.3540
  977.8000     1.2700    53.3510
  978.0000     1.2430    53.3470
  978.2000     1.2170    53.3430
  978.4000     1.3430    53.4790
  978.6000     1.4480    53.6950
  978.8000     1.6150    53.9100
  979.0000     1.6150    54.1250
  979.2000     1.5860    54.3410
  979.4000     1.5470    54.5560
  979.6000     1.5080    54.7710
  979.8000     1.4690    54.4420
  980.0000     1.4300    54.1080
  980.2000     1.3960    53.7730
  980.4000     1.3530    53.4390
  980.6000     1.3120    53.1050
  980.8000     1.5570    52.9880
  981.0000     2.5720    53.0470
  981.2000     2.5380    53.1060
  981.4000     2.4100    53.1640
  981.6000     2.3150    53.2230
  981.8000     2.2200    53.2810
  982.0000     2.1250    53.3400
  982.2000     2.0300    53.3980
  982.4000     1.9340    53.4570
  982.6000     1.4290    53.5150
  982.8000     1.1300    53.5740
  983.0000     1.0370    53.6330
  983.2000     1.0730    53.6910
  983.4000     1.0860    53.7500
  983.6000     1.1040    53.8080
  983.8000     1.1230    53.8670
  984.0000     1.1420    53.9250
  984.2000     1.1970    53.9840
  984.4000     1.2540    54.0430
  984.6000     1.3110    54.1010
  984.8000     1.3060    54.0110
  985.0000     1.3070    53.9500
  985.2000     1.3080    53.8900
  985.4000     1.2860    53.8290
  985.6000     1.2660    53.7680
  985.8000     1.2460    53.7080
  986.0000     1.2260    53.6200
  986.2000     1.2260    53.5130
  986.4000     1.2350    53.4060
  986.6000     1.2440    53.2980
  986.8000     1.2520    53.1910
  987.0000     1.2610    53.0840
  987.2000     1.2700    53.2160
  987.4000     1.3090    53.2840
  987.6000     1.3480    53.3510
  987.8000     1.7790    53.4190
  988.0000     1.6670    53.4870
  988.2000     1.5830    53.5550
  988.4000     1.5480    53.6230
  988.6000     1.5030    53.6910
  988.8000     1.4580    53.7590
  989.0000     1.4130    53.8270
  989.2000     1.3690    53.5020
  989.4000     1.3820    53.2330
  989.6000     1.4070    52.9640
  989.8000     1.4320    52.6940
  990.0000     1.4570    52.4260
  990.2000     1.4820    52.1560
  990.4000     1.5070    51.8870
  990.6000     1.2980    51.6180
  990.8000     1.2330    51.3490
  991.0000     1.2010    51.0800
  991.2000     1.1990    50.9540
  991.4000     1.2060    50.7960
