~VERSION INFORMATION
VERS.                                                 2.0:   CWLS Log ASCII Standard-VERSION 2.0
WRAP.                                                  NO:   One line per depth step
~Well Information Block
STRT.M                                           245.9736:   Top Depth
STOP.M                                           781.9644:   Bottom Depth
STEP.M                                             .15240:   Depth Increment
NULL.                                            -999.250:   Null Value
FLD .                                         SCHOONEBEEK:   Field Name
WELL.                                      SCHOONEBEEK- 3:   NAME
EDF .m                                              15.12:   ELEV DRILL FLOOR
EPD .                                                   0:   ELEV PERM DATUM
EGL .m                                               12.8:   GROUND LEVEL
LMF .                                                  DF:   LOGS MEAS FROM
COMP.                                                BPME:   OPERATOR
PDAT.                                                 NAP:   PERM DATUM
SPUD.                                          2043/09/12:   SPUD DATE
UWBI.                                      11000074043001:   UWBI
WELL.                                      SCHOONEBEEK- 3:   HOLE NAME
~PARAMETER INFORMATION (log)
LNAM.                               RUN 01 RAW OH 10 1/2":   NAME
LTYP.                                                 01R:   LOG TYPE
LVSN.                                                   1:   LOG VERSION
BS  .1/2"                                              10:   BIT SIZE
BLI .M                                                782:   BOTTOM DEPTH LOGGED
BHIS.                                                MCCC:   BRIEF HISTORY
FHIS.                                     MERGE/COPY/COPY:   FULL HISTORY
MRT .                                                    :   MAX REC TEMP
DFD .                                                    :   MUD DENSITY
DFT .                                                 N/A:   MUD TYPE
RMS .                                                    :   RM
MST .                                                    :   RM TEMP
RMCS.                                                    :   RMC
MCST.                                                    :   RMC TEMP
RMFS.                                                    :   RMF
MFST.                                                    :   RMF TEMP
TCS .                                                 N/A:   TIME SINCE CIRCLN
TLI .M                                                246:   TOP DEPTH LOGGED
~Curve Information Block
#MNEM.UNIT                                        API CODE    No Description
#=========                                        ========    == ===========
DEPT.M                                       00 001 00 00:     1  DEPTH
SN.OHMM                                                  :     2  SHORT NORMAL
SP.MV                                                    :     3  Spontaneous potential
~ASCII
# ...
  579.2724     3.4090    42.0900
  579.4248     3.3940    41.7690
  579.5772     3.3770    40.7520
  579.7296     3.3590    39.4770
  579.8820     3.3470    38.7720
  580.0344     3.3380    38.6340
  580.1868     3.3280    38.5180
  580.3392     3.3140    38.2820
  580.4916     3.2970    38.1160
  580.6440     3.2750    38.0510
  580.7964     3.2550    37.9730
  580.9488     3.2390    37.8520
  581.1012     3.2170    37.8090
  581.2536     3.1850    37.8780
  581.4060     3.1560    37.8920
  581.5584     3.1360    37.9440
  581.7108     3.1210    38.4500
  581.8632     3.1190    39.3100
  582.0156     3.1360    39.9290
  582.1680     3.1600    40.3460
  582.3204     3.1740    41.0840
  582.4728     3.1810    41.9880
  582.6252     3.1980    42.5080
  582.7776     3.2290    42.6990
  582.9300     3.2610    42.8760
  583.0824     3.2860    42.9920
  583.2348     3.3090    42.9710
  583.3872     3.3360    42.9380
  583.5396     3.3620    42.9210
  583.6920     3.3850    42.8580
  583.8444     3.4080    42.7570
  583.9968     3.4290    42.6390
  584.1492     3.4330    42.5190
  584.3016     3.4150    42.4770
  584.4540     3.3900    42.6560
  584.6064     3.3720    43.2410
  584.7588     3.3590    44.0550
  584.9112     3.3490    44.4650
  585.0636     3.3450    44.4540
  585.2160     3.3500    44.7500
  585.3684     3.3590    44.9840
  585.5208     3.3730    43.8320
  585.6732     3.3810    41.7310
  585.8256     3.3830    40.6030
  585.9780     3.3860    40.8580
  586.1304     3.3780    41.5480
  586.2828     3.3350    42.4310
  586.4352     3.2650    43.4700
  586.5876     3.1970    44.1090
  586.7400     3.1350    44.4040
  586.8924     3.0730    44.9370
  587.0448     3.0360    45.5350
  587.1972     3.0390    45.7100
  587.3496     3.0600    45.5450
  587.5020     3.0770    45.2800
  587.6544     3.0900    44.9810
  587.8068     3.0980    44.7230
  587.9592     3.1110    44.4520
  588.1116     3.1260    44.0400
  588.2640     3.1230    43.6500
  588.4164     3.1190    43.5100
  588.5688     3.1710    43.6070
  588.7212     3.2600    43.8810
  588.8736     3.3080    44.2420
  589.0260     3.3190    44.4740
  589.1784     3.3770    44.6390
  589.3308     3.4880    45.0970
  589.4832     3.5780    45.7860
  589.6356     3.6240    46.2780
  589.7880     3.6670    46.5320
  589.9404     3.7180    46.7080
  590.0928     3.7510    46.6130
  590.2452     3.7560    46.1490
  590.3976     3.7560    45.7200
  590.5500     3.7630    45.5990
  590.7024     3.7700    45.6030
  590.8548     3.7690    45.6170
  591.0072     3.7640    45.7400
  591.1596     3.7620    45.9230
  591.3120     3.7640    46.0580
  591.4644     3.7690    46.2350
  591.6168     3.7820    46.5360
  591.7692     3.8020    46.8310
  591.9216     3.8180    47.0030
  592.0740     3.8290    47.1070
  592.2264     3.8410    47.2530
  592.3788     3.8560    47.4980
  592.5312     3.8620    47.8210
  592.6836     3.8680    48.1300
  592.8360     3.8840    48.3720
  592.9884     3.8680    48.6270
  593.1408     3.7960    49.0230
  593.2932     3.7160    49.5260
  593.4456     3.6550    49.9210
  593.5980     3.6000    50.0810
  593.7504     3.5380    50.1650
  593.9028     3.4760    50.3680
  594.0552     3.4190    50.6330
  594.2076     3.3550    50.8250
  594.3600     3.2890    50.9800
  594.5124     3.2350    51.1720
  594.6648     3.1930    51.3720
  594.8172     3.1390    51.5450
  594.9696     3.0700    51.7220
  595.1220     3.0240    51.9200
  595.2744     3.0340    52.1070
  595.4268     3.0790    52.2640
  595.5792     3.1180    52.4670
  595.7316     3.1550    52.8300
  595.8840     3.1870    53.2950
  596.0364     3.1970    53.6260
  596.1888     3.2060    53.7070
  596.3412     3.2240    53.6710
  596.4936     3.2380    53.6660
  596.6460     3.2490    53.6850
  596.7984     3.2540    53.6780
  596.9508     3.2360    53.6690
  597.1032     3.1980    53.6810
  597.2556     3.1540    53.6820
  597.4080     3.1140    53.6660
  597.5604     3.0800    53.6780
  597.7128     3.0440    53.6960
  597.8652     3.0100    53.6430
  598.0176     2.9800    53.5490
  598.1700     2.9480    53.5160
  598.3224     2.9110    53.5270
  598.4748     2.8820    53.4970
  598.6272     2.8620    53.4210
  598.7796     2.8430    53.3260
  598.9320     2.8210    53.2120
  599.0844     2.7980    53.1020
  599.2368     2.7790    53.0120
  599.3892     2.7590    52.9100
  599.5416     2.7340    52.7870
  599.6940     2.7150    52.6880
  599.8464     2.7210    52.6330
  599.9988     2.7550    52.5940
  600.1512     2.7960    52.5680
  600.3036     2.8330    52.6120
  600.4560     2.8730    52.7500
  600.6084     2.9110    52.9010
  600.7608     2.9490    53.0400
  600.9132     2.9900    53.2360
  601.0656     3.0240    53.3710
  601.2180     3.0610    53.1840
  601.3704     3.1300    52.7600
  601.5228     3.2130    52.4720
  601.6752     3.2570    52.3820
  601.8276     3.2720    52.3060
  601.9800     3.3270    52.3070
  602.1324     3.4270    52.5530
  602.2848     3.4950    52.9240
  602.4372     3.4920    53.2120
  602.5896     3.4620    53.3700
  602.7420     3.4400    53.3540
  602.8944     3.4210    53.0870
  603.0468     3.3960    52.7070
  603.1992     3.3760    52.4770
  603.3516     3.3550    52.4250
  603.5040     3.3270    52.4140
  603.6564     3.3060    52.4770
  603.8088     3.3010    52.7240
  603.9612     3.2990    53.0630
  604.1136     3.3030    53.3460
  604.2660     3.3330    53.5750
  604.4184     3.3760    53.7660
  604.5708     3.4010    53.8810
  604.7232     3.4120    53.9600
  604.8756     3.4290    54.0190
  605.0280     3.4410    53.9440
  605.1804     3.4400    53.7180
  605.3328     3.4420    53.5050
  605.4852     3.4430    53.3670
  605.6376     3.4340    53.2150
  605.7900     3.4520    53.0490
  605.9424     3.5260    52.9330
  606.0948     3.6070    52.8540
  606.2472     3.6320    52.7870
  606.3996     3.6210    52.7510
  606.5520     3.6160    52.7120
  606.7044     3.6110    52.6340
  606.8568     3.5920    52.5780
  607.0092     3.5700    52.5890
  607.1616     3.5420    52.6050
  607.3140     3.4970    52.5890
  607.4664     3.4460    52.5830
  607.6188     3.4020    52.6170
  607.7712     3.3590    52.7120
  607.9236     3.3130    52.9230
  608.0760     3.2690    53.2200
  608.2284     3.2230    53.4840
  608.3808     3.1780    53.7060
  608.5332     3.1590    53.9810
  608.6856     3.1830    54.2780
  608.8380     3.2250    54.4590
  608.9904     3.2490    54.4630
  609.1428     3.2550    54.2730
  609.2952     3.2630    53.8420
  609.4476     3.2770    53.2060
  609.6000     3.2900    52.5310
  609.7524     3.2980    51.9570
  609.9048     3.2860    51.4660
  610.0572     3.2440    50.9290
  610.2096     3.1930    50.3020
  610.3620     3.1760    49.7440
  610.5144     3.2010    49.4380
  610.6668     3.2330    49.3780
  610.8192     3.2490    49.4390
  610.9716     3.2600    49.5470
  611.1240     3.2730    49.6750
  611.2764     3.2610    49.7970
  611.4288     3.2150    49.9090
  611.5812     3.1700    50.0210
  611.7336     3.1490    50.1500
  611.8860     3.1260    50.2910
  612.0384     3.0780    50.3970
  612.1908     3.0200    50.4310
  612.3432     2.9680    50.4220
  612.4956     2.9280    50.4060
  612.6480     2.9160    50.3860
  612.8004     2.9340    50.3600
  612.9528     2.9570    50.3240
  613.1052     2.9780    50.2920
  613.2576     2.9970    50.2860
  613.4100     2.9880    50.2710
  613.5624     2.9260    50.2300
  613.7148     2.8430    50.2960
  613.8672     2.7800    50.5750
  614.0196     2.7270    50.8960
  614.1720     2.6520    51.0370
  614.3244     2.5620    51.0560
  614.4768     2.4970    51.1380
  614.6292     2.4710    51.2950
  614.7816     2.4520    51.4350
  614.9340     2.4400    51.5490
  615.0864     2.4420    51.6830
  615.2388     2.4390    51.8360
  615.3912     2.4260    51.9470
  615.5436     2.4170    51.9780
  615.6960     2.4110    51.9720
  615.8484     2.4090    51.9900
  616.0008     2.4260    52.0350
  616.1532     2.4680    52.0790
