~VERSION INFORMATION
VERS.                                                 2.0:   CWLS Log ASCII Standard-VERSION 2.0
WRAP.                                                  NO:   One line per depth step
~Well Information Block
STRT.M                                           950.0000:   Top Depth
STOP.M                                          1110.6000:   Bottom Depth
STEP.M                                             .20000:   Depth Increment
NULL.                                            -999.250:   Null Value
FLD .                                         SCHOONEBEEK:   Field Name
WELL.                                      SCHOONEBEEK- 3:   NAME
EDF .m                                              15.12:   ELEV DRILL FLOOR
EPD .                                                   0:   ELEV PERM DATUM
EGL .m                                               12.8:   GROUND LEVEL
LMF .                                                  DF:   LOGS MEAS FROM
COMP.                                                BPME:   OPERATOR
PDAT.                                                 NAP:   PERM DATUM
SPUD.                                          2043/09/12:   SPUD DATE
UWBI.                                      11000074043001:   UWBI
WELL.                                      SCHOONEBEEK- 3:   HOLE NAME
~PARAMETER INFORMATION (log)
LNAM.                                RUN 04 RAW OH 7 3/5":   NAME
LTYP.                                                 04R:   LOG TYPE
LVSN.                                                   1:   LOG VERSION
BS  .3/5"                                               7:   BIT SIZE
BLI .M                                               1114:   BOTTOM DEPTH LOGGED
BHIS.                                                MCCC:   BRIEF HISTORY
FHIS.                                     MERGE/COPY/COPY:   FULL HISTORY
MRT .                                                    :   MAX REC TEMP
DFD .                                                    :   MUD DENSITY
DFT .                                                 N/A:   MUD TYPE
RMS .                                                    :   RM
MST .                                                    :   RM TEMP
RMCS.                                                    :   RMC
MCST.                                                    :   RMC TEMP
RMFS.                                                    :   RMF
MFST.                                                    :   RMF TEMP
TCS .                                                 N/A:   TIME SINCE CIRCLN
TLI .M                                                950:   TOP DEPTH LOGGED
~Curve Information Block
#MNEM.UNIT                                        API CODE    No Description
#=========                                        ========    == ===========
DEPT.M                                       00 001 00 00:     1  DEPTH
SN.OHMM                                                  :     2  SHORT NORMAL
SP.MV                                                    :     3  Spontaneous potential
~ASCII
# ...
 1047.2000    11.8000    14.6840
 1047.4000    12.2080    16.4220
 1047.6000    12.5070    17.2670
 1047.8000    12.8050    17.5250
 1048.0000    13.1040    17.7830
 1048.2000    15.7430    18.5460
 1048.4000    16.6600    22.0460
 1048.6000    17.1420    22.6480
 1048.8000    13.4480    21.8350
 1049.0000    12.9960    21.0220
 1049.2000    12.5440    20.2090
 1049.4000     8.7940    17.5820
 1049.6000     8.3170    17.3660
 1049.8000     7.8410    20.3400
 1050.0000     7.0650    22.4350
 1050.2000     6.2920    21.0390
 1050.4000     5.1070    19.9650
 1050.6000     3.3150    18.8910
 1050.8000     3.4610    17.8170
 1051.0000     3.6540    16.7430
 1051.2000     3.8280    15.7200
 1051.4000     2.9930    14.7130
 1051.6000     2.3520    14.4590
 1051.8000     2.4270    14.4920
 1052.0000     2.5200    15.1830
 1052.2000     2.6140    15.7410
 1052.4000     2.7080    16.3000
 1052.6000     3.1590    16.6410
 1052.8000     3.5380    16.7900
 1053.0000     3.9170    16.3960
 1053.2000     4.5190    15.9620
 1053.4000     3.6260    15.1560
 1053.6000     3.4740    14.1890
 1053.8000     3.5400    13.8100
 1054.0000     4.6180    14.3230
 1054.2000     5.4260    15.8460
 1054.4000     6.2290    17.5510
 1054.6000     7.0340    16.7800
 1054.8000     6.3490    16.1500
 1055.0000     2.9270    15.5200
 1055.2000     2.1700    14.8900
 1055.4000     1.1430    14.2600
 1055.6000      .9310    13.6300
 1055.8000     1.0290    13.1720
 1056.0000     1.0360    12.6790
 1056.2000     1.0430    12.1860
 1056.4000     1.1800    12.2190
 1056.6000     1.2850    12.2840
 1056.8000     1.3890    12.3500
 1057.0000     1.7960    12.4150
 1057.2000     2.1510    12.4110
 1057.4000     2.7150    12.3590
 1057.6000     2.3580    12.3070
 1057.8000     2.1230    12.2550
 1058.0000     1.7740    12.2030
 1058.2000     2.3490    12.1510
 1058.4000     2.9240    12.0990
 1058.6000     5.0980    12.1600
 1058.8000     3.3270    12.2090
 1059.0000     2.3160    12.2570
 1059.2000     1.7120    12.3060
 1059.4000     1.4290    12.3540
 1059.6000     1.1470    12.4020
 1059.8000      .9830    12.4510
 1060.0000      .8480    12.4990
 1060.2000      .9080    12.5480
 1060.4000      .9090    12.5970
 1060.6000      .9260    12.6450
 1060.8000      .9560    12.6940
 1061.0000      .9860    12.7430
 1061.2000     1.0160    12.7910
 1061.4000     1.0450    12.8400
 1061.6000      .9750    12.8890
 1061.8000      .9310    12.9370
 1062.0000      .8880    12.9860
 1062.2000      .8440    13.0340
 1062.4000      .8980    13.0830
 1062.6000     1.0290    13.1320
 1062.8000     1.1750    13.1800
 1063.0000     1.2170    13.2290
 1063.2000     1.2430    13.2780
 1063.4000     1.2260    13.3260
 1063.6000     1.3300    13.3750
 1063.8000     1.4330    13.4240
 1064.0000     1.7310    13.4720
 1064.2000     2.0600    13.1720
 1064.4000     2.3890    12.9380
 1064.6000     2.4420    12.4470
 1064.8000     2.4970    11.9850
 1065.0000     2.5530    11.5230
 1065.2000     2.6090    11.0610
 1065.4000     3.1050    10.5990
 1065.6000     5.1710    10.1370
 1065.8000     5.9630     9.6750
 1066.0000     6.9220     8.8800
 1066.2000    11.2610     8.1180
 1066.4000    12.5900     7.8150
 1066.6000    10.7110     7.6620
 1066.8000     9.6400     7.7210
 1067.0000     8.0740     7.7610
 1067.2000     6.6760     7.8020
 1067.4000     5.5550     7.8420
 1067.6000     4.6890     7.8820
 1067.8000     3.8190     7.9150
 1068.0000     3.3250     7.8910
 1068.2000     3.5790     7.8310
 1068.4000     3.8320     7.7720
 1068.6000     4.0850     7.7120
 1068.8000     4.4660     7.6520
 1069.0000     4.0090     7.5930
 1069.2000     2.8860     7.5330
 1069.4000     2.5560     7.4740
 1069.6000     2.0960     7.4140
 1069.8000     1.9510     7.3540
 1070.0000     1.5550     7.2950
 1070.2000     1.4230     7.2350
 1070.4000     1.1340     7.1760
 1070.6000      .9350     6.6150
 1070.8000      .7690     6.1670
 1071.0000      .8210     5.7190
 1071.2000      .8580     5.2720
 1071.4000      .8950     4.8240
 1071.6000      .9320     4.3760
 1071.8000     1.0240     4.4460
 1072.0000     1.1000     5.8440
 1072.2000      .9810     5.7580
 1072.4000      .8790     5.7400
 1072.6000      .7840     5.7220
 1072.8000      .7450     5.7040
 1073.0000      .7050     5.9950
 1073.2000      .6650     6.5190
 1073.4000      .6250     7.0430
 1073.6000      .5920     8.0390
 1073.8000      .5580     9.1030
 1074.0000      .5530     9.5970
 1074.2000      .5490     9.7450
 1074.4000      .5460     9.3670
 1074.6000      .5420     9.1230
 1074.8000      .5380     8.8790
 1075.0000      .5350     7.5450
 1075.2000      .5310     7.4370
 1075.4000      .5090     7.4020
 1075.6000      .4810     7.3670
 1075.8000      .4540     7.3320
 1076.0000      .4260     7.2980
 1076.2000      .3940     7.2630
 1076.4000      .3910     7.2280
 1076.6000      .4000     7.1930
 1076.8000      .4480     6.9800
 1077.0000      .4870     6.7890
 1077.2000      .5270     6.5990
 1077.4000      .5660     6.0890
 1077.6000      .6730     5.6180
 1077.8000      .6120     5.4620
 1078.0000      .5930     5.4600
 1078.2000      .6200     5.4710
 1078.4000      .6420     5.4820
 1078.6000      .6630     5.0700
 1078.8000      .6850     4.7440
 1079.0000      .7070     4.4180
 1079.2000      .7500     4.0930
 1079.4000      .7930     3.7670
 1079.6000      .8360     3.6470
 1079.8000      .8790     3.7640
 1080.0000      .9220     4.0010
 1080.2000      .9670     4.2380
 1080.4000      .9900     4.2020
 1080.6000     1.0010     4.0300
 1080.8000      .9990     3.8590
 1081.0000     1.0000     3.6880
 1081.2000     1.0010     3.5160
 1081.4000     1.0180     3.3450
 1081.6000     1.0320     3.1740
 1081.8000     1.0470     3.0020
 1082.0000     1.0890     2.8590
 1082.2000     1.1360     2.7190
 1082.4000     1.1840     2.7130
 1082.6000     1.2340     2.9030
 1082.8000     1.3210     3.1280
 1083.0000     1.4020     3.3520
 1083.2000     1.5980     3.5770
 1083.4000     1.3410     3.5460
 1083.6000     1.2510     3.4390
 1083.8000     1.1610     3.3320
 1084.0000     1.0710     3.2260
 1084.2000      .8680     3.1190
 1084.4000      .8890     3.4560
 1084.6000      .8750     3.6920
 1084.8000      .8600     3.9280
 1085.0000      .8460     4.1640
 1085.2000      .8480     4.0210
 1085.4000      .8490     3.9220
 1085.6000      .8510     3.8230
 1085.8000      .8530     3.7240
 1086.0000      .8540     3.6250
 1086.2000      .8560     3.5260
 1086.4000      .8580     3.4270
 1086.6000      .8590     3.3290
 1086.8000      .8610     3.1700
 1087.0000      .8630     3.0170
 1087.2000      .8650     2.8630
 1087.4000      .8660     2.7090
 1087.6000      .8670     2.6710
 1087.8000      .8660     2.6760
 1088.0000      .8650     2.6800
 1088.2000      .8650     2.6840
 1088.4000      .8640     3.0740
 1088.6000      .8630     3.3520
 1088.8000      .8620     3.6310
 1089.0000      .8620     3.9090
 1089.2000      .8490     4.1880
 1089.4000      .8400     4.4660
 1089.6000      .8300     4.4300
 1089.8000      .8210     4.4570
 1090.0000      .8110     4.4850
 1090.2000      .8020     4.5120
 1090.4000      .7920     4.5400
 1090.6000      .7830     4.5670
 1090.8000      .7730     4.7010
 1091.0000      .7640     4.8360
 1091.2000      .7450     4.9720
 1091.4000      .7340     5.0900
 1091.6000      .7240     5.1970
 1091.8000      .7140     5.2920
 1092.0000      .7150     5.3810
 1092.2000      .7150     5.4700
 1092.4000      .7150     5.5590
 1092.6000      .7510     5.4700
 1092.8000      .7790     5.4390
 1093.0000      .8060     5.4070
 1093.2000      .8340     5.3750
 1093.4000      .8220     5.3430
 1093.6000      .8050     5.3120
 1093.8000      .7890     5.2800
 1094.0000      .7720     5.2480
 1094.2000      .7720     5.2160
 1094.4000      .7690     5.1840
 1094.6000      .7660     5.1530
 1094.8000      .7630     5.2340
 1095.0000      .7730     5.3390
 1095.2000      .7790     5.4430
 1095.4000      .7850     5.5480
 1095.6000      .7850     5.6530
