~VERSION INFORMATION
VERS.                                                 2.0:   CWLS Log ASCII Standard-VERSION 2.0
WRAP.                                                  NO:   One line per depth step
~Well Information Block
STRT.M                                           245.9736:   Top Depth
STOP.M                                           781.9644:   Bottom Depth
STEP.M                                             .15240:   Depth Increment
NULL.                                            -999.250:   Null Value
FLD .                                         SCHOONEBEEK:   Field Name
WELL.                                      SCHOONEBEEK- 3:   NAME
EDF .m                                              15.12:   ELEV DRILL FLOOR
EPD .                                                   0:   ELEV PERM DATUM
EGL .m                                               12.8:   GROUND LEVEL
LMF .                                                  DF:   LOGS MEAS FROM
COMP.                                                BPME:   OPERATOR
PDAT.                                                 NAP:   PERM DATUM
SPUD.                                          2043/09/12:   SPUD DATE
UWBI.                                      11000074043001:   UWBI
WELL.                                      SCHOONEBEEK- 3:   HOLE NAME
~PARAMETER INFORMATION (log)
LNAM.                               RUN 01 RAW OH 10 1/2":   NAME
LTYP.                                                 01R:   LOG TYPE
LVSN.                                                   1:   LOG VERSION
BS  .1/2"                                              10:   BIT SIZE
BLI .M                                                782:   BOTTOM DEPTH LOGGED
BHIS.                                                MCCC:   BRIEF HISTORY
FHIS.                                     MERGE/COPY/COPY:   FULL HISTORY
MRT .                                                    :   MAX REC TEMP
DFD .                                                    :   MUD DENSITY
DFT .                                                 N/A:   MUD TYPE
RMS .                                                    :   RM
MST .                                                    :   RM TEMP
RMCS.                                                    :   RMC
MCST.                                                    :   RMC TEMP
RMFS.                                                    :   RMF
MFST.                                                    :   RMF TEMP
TCS .                                                 N/A:   TIME SINCE CIRCLN
TLI .M                                                246:   TOP DEPTH LOGGED
~Curve Information Block
#MNEM.UNIT                                        API CODE    No Description
#=========                                        ========    == ===========
DEPT.M                                       00 001 00 00:     1  DEPTH
SN.OHMM                                                  :     2  SHORT NORMAL
SP.MV                                                    :     3  Spontaneous potential
~ASCII
# ...
  394.1064     1.4590    63.2550
  394.2588     1.4460    63.1170
  394.4112     1.4170    62.8750
  394.5636     1.3950    62.6890
  394.7160     1.3720    62.5950
  394.8684     1.3350    62.4090
  395.0208     1.3130    62.0510
  395.1732     1.3250    61.7410
  395.3256     1.3390    61.6420
  395.4780     1.3390    61.6070
  395.6304     1.3680    61.5500
  395.7828     1.4430    61.7040
  395.9352     1.5180    62.1570
  396.0876     1.5620    62.5650
  396.2400     1.5980    62.6890
  396.3924     1.6460    62.6990
  396.5448     1.6880    62.6850
  396.6972     1.7040    62.5540
  396.8496     1.7000    62.4830
  397.0020     1.6920    62.6000
  397.1544     1.6830    62.5510
  397.3068     1.6720    62.3680
  397.4592     1.6580    62.9210
  397.6116     1.6480    64.4200
  397.7640     1.6440    65.7320
  397.9164     1.6410    66.0920
  398.0688     1.6390    66.0100
  398.2212     1.6400    65.9440
  398.3736     1.6460    65.6510
  398.5260     1.6540    65.0560
  398.6784     1.6620    64.4740
  398.8308     1.6750    63.9990
  398.9832     1.6920    63.4690
  399.1356     1.7070    62.7920
  399.2880     1.7200    62.0030
  399.4404     1.7420    61.2730
  399.5928     1.7700    60.8280
  399.7452     1.7860    60.6890
  399.8976     1.7810    60.6570
  400.0500     1.7630    60.6740
  400.2024     1.7410    60.8700
  400.3548     1.7200    61.2500
  400.5072     1.7080    61.6340
  400.6596     1.7040    61.9320
  400.8120     1.7020    62.1930
  400.9644     1.7040    62.4140
  401.1168     1.7110    62.5260
  401.2692     1.7180    62.5390
  401.4216     1.7260    62.5360
  401.5740     1.7490    62.5460
  401.7264     1.7830    62.5310
  401.8788     1.8090    62.5160
  402.0312     1.8220    62.5720
  402.1836     1.8350    62.6570
  402.3360     1.8480    62.6850
  402.4884     1.8490    62.7150
  402.6408     1.8420    62.8320
  402.7932     1.8360    62.9960
  402.9456     1.8350    63.1590
  403.0980     1.8360    63.3440
  403.2504     1.8360    63.5850
  403.4028     1.8400    63.9640
  403.5552     1.8500    64.5290
  403.7076     1.8600    64.9090
  403.8600     1.8670    64.4860
  404.0124     1.8740    63.4380
  404.1648     1.8870    62.7750
  404.3172     1.9030    62.6470
  404.4696     1.9120    62.1690
  404.6220     1.9150    61.6700
  404.7744     1.9190    62.6300
  404.9268     1.9260    64.7540
  405.0792     1.9330    66.2140
  405.2316     1.9350    66.7550
  405.3840     1.9360    67.3560
  405.5364     1.9400    67.7730
  405.6888     1.9410    67.4050
  405.8412     1.9360    66.9420
  405.9936     1.9280    66.9210
  406.1460     1.9100    66.5790
  406.2984     1.8710    65.4300
  406.4508     1.8350    64.1870
  406.6032     1.8210    63.5130
  406.7556     1.8180    63.2070
  406.9080     1.8100    62.8620
  407.0604     1.8080    62.4820
  407.2128     1.8100    62.2620
  407.3652     1.8140    62.2160
  407.5176     1.8570    62.2250
  407.6700     1.9640    62.2270
  407.8224     2.0750    62.2450
  407.9748     2.1370    62.3660
  408.1272     2.1800    62.6790
  408.2796     2.2420    63.0680
  408.4320     2.3080    63.2290
  408.5844     2.3620    63.0470
  408.7368     2.4230    62.7100
  408.8892     2.4890    62.3210
  409.0416     2.5400    61.8080
  409.1940     2.6010    61.2710
  409.3464     2.7020    60.9810
  409.4988     2.7930    60.9890
  409.6512     2.8070    61.1250
  409.8036     2.7670    61.2940
  409.9560     2.7360    61.4460
  410.1084     2.7190    61.4460
  410.2608     2.6920    61.2780
  410.4132     2.6610    61.1300
  410.5656     2.6390    61.0240
  410.7180     2.6140    60.7360
  410.8704     2.5830    60.2870
  411.0228     2.5600    59.9980
  411.1752     2.5550    59.9120
  411.3276     2.5630    59.7100
  411.4800     2.5670    59.2640
  411.6324     2.5660    58.7660
  411.7848     2.5740    58.3460
  411.9372     2.5870    57.9520
  412.0896     2.5850    57.5280
  412.2420     2.5870    57.0850
  412.3944     2.6320    56.6490
  412.5468     2.7070    56.2300
  412.6992     2.7600    55.8180
  412.8516     2.7810    55.3990
  413.0040     2.8030    54.9780
  413.1564     2.8350    54.5640
  413.3088     2.8680    54.1480
  413.4612     2.8900    53.7260
  413.6136     2.8800    53.3100
  413.7660     2.8370    52.8980
  413.9184     2.7980    52.4760
  414.0708     2.7900    52.0510
  414.2232     2.7990    51.6800
  414.3756     2.8090    51.4020
  414.5280     2.8200    51.1760
  414.6804     2.8270    50.9370
  414.8328     2.8280    50.6850
  414.9852     2.8280    50.4580
  415.1376     2.8270    50.2850
  415.2900     2.8250    50.2300
  415.4424     2.8270    50.3150
  415.5948     2.8150    50.4410
  415.7472     2.7730    50.6290
  415.8996     2.7070    51.0400
  416.0520     2.6410    51.5760
  416.2044     2.5840    51.9430
  416.3568     2.5250    52.2170
  416.5092     2.4590    52.6930
  416.6616     2.4010    53.3650
  416.8140     2.3690    54.0690
  416.9664     2.3620    54.7470
  417.1188     2.3630    55.2760
  417.2712     2.3660    55.5860
  417.4236     2.3780    55.8930
  417.5760     2.3970    56.3390
  417.7284     2.4200    56.7230
  417.8808     2.4600    56.8650
  418.0332     2.5210    56.7630
  418.1856     2.5890    56.3270
  418.3380     2.6460    55.4850
  418.4904     2.7050    54.4710
  418.6428     2.7750    53.5110
  418.7952     2.8760    52.4840
  418.9476     2.9910    51.3270
  419.1000     3.1000    50.3030
  419.2524     3.2080    49.4710
  419.4048     3.3170    48.4410
  419.5572     3.4150    46.9770
  419.7096     3.5240    45.3600
  419.8620     3.6550    43.9190
  420.0144     3.7490    42.5420
  420.1668     3.7550    40.9370
  420.3192     3.7150    39.3760
  420.4716     3.6940    38.6820
  420.6240     3.6750    39.1100
  420.7764     3.6490    39.9290
  420.9288     3.6200    40.5300
  421.0812     3.6140    41.0550
  421.2336     3.5620    41.6920
  421.3860     3.4520    42.3210
  421.5384     3.4220    42.9080
  421.6908     3.4520    43.5090
  421.8432     3.4540    44.1020
  421.9956     3.4750    44.7210
  422.1480     3.5210    45.3500
  422.3004     3.5570    45.7200
  422.4528     3.5910    45.7440
  422.6052     3.6190    45.7740
  422.7576     3.6170    45.9160
  422.9100     3.5820    45.8850
  423.0624     3.5320    45.8580
  423.2148     3.4720    46.1670
  423.3672     3.4090    46.3790
  423.5196     3.3470    46.3620
  423.6720     3.2830    46.9310
  423.8244     3.2220    47.6730
  423.9768     3.1630    46.7780
  424.1292     3.0910    44.4810
  424.2816     3.0180    43.1400
  424.4340     2.9540    43.3730
  424.5864     2.8720    43.8580
  424.7388     2.7830    44.3500
  424.8912     2.7020    45.5010
  425.0436     2.6010    46.9530
  425.1960     2.5250    48.0090
  425.3484     2.5500    48.7850
  425.5008     2.6220    49.6240
  425.6532     2.6710    50.4590
  425.8056     2.7350    51.1210
  425.9580     2.8010    51.6760
  426.1104     2.8610    52.2540
  426.2628     2.9300    52.7680
  426.4152     2.9800    53.2300
  426.5676     3.0260    53.8070
  426.7200     3.0980    54.1190
  426.8724     3.1700    53.7300
  427.0248     3.2190    53.1170
  427.1772     3.2700    52.1110
  427.3296     3.3220    49.1600
  427.4820     3.3680    44.7880
  427.6344     3.4260    42.4730
  427.7868     3.4650    43.4990
  427.9392     3.5100    45.1790
  428.0916     3.6010    45.6290
  428.2440     3.6750    45.7400
  428.3964     3.6700    46.2260
  428.5488     3.6340    46.6670
  428.7012     3.6150    46.9300
  428.8536     3.5980    47.1440
  429.0060     3.5620    47.2070
  429.1584     3.4970    47.1560
  429.3108     3.4060    47.1510
  429.4632     3.3230    47.1650
  429.6156     3.2410    47.1750
  429.7680     3.1480    47.3020
  429.9204     3.0800    47.5970
  430.0728     3.0640    47.9710
  430.2252     3.0620    48.3410
  430.3776     3.0510    48.7160
  430.5300     3.0450    49.1250
  430.6824     3.0500    49.5650
  430.8348     3.0580    50.0080
  430.9872     3.0560    50.3750
