~VERSION INFORMATION
VERS.                                                 2.0:   CWLS Log ASCII Standard-VERSION 2.0
WRAP.                                                  NO:   One line per depth step
~Well Information Block
STRT.M                                           245.9736:   Top Depth
STOP.M                                           781.9644:   Bottom Depth
STEP.M                                             .15240:   Depth Increment
NULL.                                            -999.250:   Null Value
FLD .                                         SCHOONEBEEK:   Field Name
WELL.                                      SCHOONEBEEK- 3:   NAME
EDF .m                                              15.12:   ELEV DRILL FLOOR
EPD .                                                   0:   ELEV PERM DATUM
EGL .m                                               12.8:   GROUND LEVEL
LMF .                                                  DF:   LOGS MEAS FROM
COMP.                                                BPME:   OPERATOR
PDAT.                                                 NAP:   PERM DATUM
SPUD.                                          2043/09/12:   SPUD DATE
UWBI.                                      11000074043001:   UWBI
WELL.                                      SCHOONEBEEK- 3:   HOLE NAME
~PARAMETER INFORMATION (log)
LNAM.                               RUN 01 RAW OH 10 1/2":   NAME
LTYP.                                                 01R:   LOG TYPE
LVSN.                                                   1:   LOG VERSION
BS  .1/2"                                              10:   BIT SIZE
BLI .M                                                782:   BOTTOM DEPTH LOGGED
BHIS.                                                MCCC:   BRIEF HISTORY
FHIS.                                     MERGE/COPY/COPY:   FULL HISTORY
MRT .                                                    :   MAX REC TEMP
DFD .                                                    :   MUD DENSITY
DFT .                                                 N/A:   MUD TYPE
RMS .                                                    :   RM
MST .                                                    :   RM TEMP
RMCS.                                                    :   RMC
MCST.                                                    :   RMC TEMP
RMFS.                                                    :   RMF
MFST.                                                    :   RMF TEMP
TCS .                                                 N/A:   TIME SINCE CIRCLN
TLI .M                                                246:   TOP DEPTH LOGGED
~Curve Information Block
#MNEM.UNIT                                        API CODE    No Description
#=========                                        ========    == ===========
DEPT.M                                       00 001 00 00:     1  DEPTH
SN.OHMM                                                  :     2  SHORT NORMAL
SP.MV                                                    :     3  Spontaneous potential
~ASCII
# ...
  653.3388     2.4710    52.0950
  653.4912     2.4750    52.1380
  653.6436     2.4820    52.1230
  653.7960     2.4980    52.1110
  653.9484     2.5170    52.1380
  654.1008     2.5290    52.1240
  654.2532     2.5330    52.0150
  654.4056     2.5330    51.8810
  654.5580     2.5310    51.7460
  654.7104     2.5300    51.5390
  654.8628     2.5310    51.2600
  655.0152     2.5310    50.9950
  655.1676     2.5310    50.7600
  655.3200     2.5310    50.5140
  655.4724     2.5310    50.2560
  655.6248     2.5310    50.0050
  655.7772     2.5310    49.7600
  655.9296     2.5310    49.5130
  656.0820     2.5310    49.2560
  656.2344     2.5300    49.0060
  656.3868     2.5300    48.8120
  656.5392     2.5320    48.6730
  656.6916     2.5350    48.5230
  656.8440     2.5380    48.4170
  656.9964     2.5440    48.5390
  657.1488     2.5490    48.9060
  657.3012     2.5500    49.2860
  657.4536     2.5500    49.5340
  657.6060     2.5500    49.7730
  657.7584     2.5500    50.1210
  657.9108     2.5490    50.5120
  658.0632     2.5500    50.8690
  658.2156     2.5500    51.2100
  658.3680     2.5480    51.5520
  658.5204     2.5450    51.8950
  658.6728     2.5430    52.2520
  658.8252     2.5360    52.5950
  658.9776     2.5250    52.8680
  659.1300     2.5180    53.0940
  659.2824     2.5160    53.3310
  659.4348     2.5140    53.5200
  659.5872     2.5090    53.5480
  659.7396     2.5010    53.4650
  659.8920     2.4850    53.4080
  660.0444     2.4600    53.3530
  660.1968     2.4340    53.1800
  660.3492     2.4120    52.9340
  660.5016     2.3950    52.7360
  660.6540     2.3860    52.5780
  660.8064     2.3840    52.4290
  660.9588     2.3850    52.3290
  661.1112     2.3960    52.2220
  661.2636     2.4130    51.9940
  661.4160     2.4190    51.6950
  661.5684     2.4110    51.4480
  661.7208     2.3980    51.2400
  661.8732     2.3850    51.0330
  662.0256     2.3740    50.8680
  662.1780     2.3670    50.7620
  662.3304     2.3650    50.7040
  662.4828     2.3690    50.7390
  662.6352     2.3780    50.9050
  662.7876     2.3920    51.1660
  662.9400     2.4060    51.5220
  663.0924     2.4250    51.9820
  663.2448     2.4570    52.4120
  663.3972     2.4920    52.6100
  663.5496     2.5220    52.5930
  663.7020     2.5560    52.5740
  663.8544     2.5980    52.6160
  664.0068     2.6330    52.5790
  664.1592     2.6540    52.4270
  664.3116     2.6720    52.3000
  664.4640     2.6870    52.2680
  664.6164     2.6900    52.2680
  664.7688     2.6890    52.2990
  664.9212     2.6940    52.4230
  665.0736     2.7020    52.5710
  665.2260     2.7080    52.6310
  665.3784     2.7150    52.6930
  665.5308     2.7260    52.9250
  665.6832     2.7390    53.2160
  665.8356     2.7570    53.3530
  665.9880     2.7810    53.4800
  666.1404     2.8080    53.7600
  666.2928     2.8340    53.7610
  666.4452     2.8590    53.0390
  666.5976     2.8840    52.0380
  666.7500     2.9100    51.4520
  666.9024     2.9370    51.1950
  667.0548     2.9600    50.8670
  667.2072     2.9790    50.5000
  667.3596     2.9950    50.2390
  667.5120     3.0080    50.0010
  667.6644     3.0130    49.6890
  667.8168     3.0090    49.2530
  667.9692     3.0070    48.7410
  668.1216     3.0080    48.4170
  668.2740     3.0120    48.3880
  668.4264     3.0180    48.3780
  668.5788     3.0210    48.2640
  668.7312     3.0180    48.2560
  668.8836     3.0110    48.3870
  669.0360     3.0040    48.5080
  669.1884     2.9990    48.6450
  669.3408     2.9980    48.8010
  669.4932     3.0010    48.8580
  669.6456     3.0020    48.8850
  669.7980     3.0070    48.9080
  669.9504     3.0250    48.6010
  670.1028     3.0530    47.8650
  670.2552     3.0770    47.1420
  670.4076     3.0920    46.6460
  670.5600     3.1120    46.1110
  670.7124     3.1370    45.5780
  670.8648     3.1570    45.4620
  671.0172     3.1700    45.7310
  671.1696     3.1750    45.9550
  671.3220     3.1750    46.1590
  671.4744     3.1800    46.7460
  671.6268     3.1980    47.6070
  671.7792     3.2190    48.1850
  671.9316     3.2470    48.2940
  672.0840     3.2980    48.1090
  672.2364     3.3570    47.6550
  672.3888     3.3940    46.9710
  672.5412     3.4100    46.2870
  672.6936     3.4290    45.6220
  672.8460     3.4580    44.8410
  672.9984     3.4850    44.1520
  673.1508     3.5080    43.8670
  673.3032     3.5370    43.8810
  673.4556     3.5740    43.9150
  673.6080     3.5890    43.9000
  673.7604     3.5620    43.8540
  673.9128     3.5120    43.7780
  674.0652     3.4650    43.7270
  674.2176     3.4160    43.7320
  674.3700     3.3700    43.7460
  674.5224     3.3440    43.7430
  674.6748     3.3280    43.7370
  674.8272     3.3040    43.7320
  674.9796     3.2810    43.7420
  675.1320     3.2790    43.7520
  675.2844     3.2910    43.7040
  675.4368     3.3040    43.6110
  675.5892     3.3120    43.5670
  675.7416     3.3200    43.5810
  675.8940     3.3420    43.5830
  676.0464     3.3790    43.5790
  676.1988     3.4150    43.5910
  676.3512     3.4380    43.5580
  676.5036     3.4650    43.4560
  676.6560     3.5000    43.3940
  676.8084     3.5310    43.4550
  676.9608     3.5530    43.5570
  677.1132     3.5630    43.5940
  677.2656     3.5560    43.5800
  677.4180     3.5370    43.5750
  677.5704     3.5170    43.5840
  677.7228     3.4950    43.5860
  677.8752     3.4740    43.5890
  678.0276     3.4590    43.5970
  678.1800     3.4470    43.6050
  678.3324     3.4460    43.6100
  678.4848     3.4640    43.6160
  678.6372     3.4930    43.6230
  678.7896     3.5180    43.6300
  678.9420     3.5460    43.6360
  679.0944     3.5810    43.6420
  679.2468     3.6070    43.6490
  679.3992     3.6180    43.6550
  679.5516     3.6290    43.6620
  679.7040     3.6430    43.6680
  679.8564     3.6500    43.6750
  680.0088     3.6490    43.6810
  680.1612     3.6490    43.6880
  680.3136     3.6490    43.6940
  680.4660     3.6410    43.7000
  680.6184     3.6270    43.7070
  680.7708     3.6140    43.7130
  680.9232     3.6070    43.7190
  681.0756     3.6040    43.7270
  681.2280     3.6060    43.7330
  681.3804     3.6110    43.7350
  681.5328     3.6180    43.7380
  681.6852     3.6240    43.7510
  681.8376     3.6260    43.7720
  681.9900     3.6200    43.7920
  682.1424     3.6100    43.8100
  682.2948     3.6010    43.8300
  682.4472     3.5950    43.8490
  682.5996     3.5870    43.8690
  682.7520     3.5770    43.8880
  682.9044     3.5700    43.9070
  683.0568     3.5660    43.9270
  683.2092     3.5620    43.9460
  683.3616     3.5600    43.9650
  683.5140     3.5680    43.9840
  683.6664     3.5850    44.0040
  683.8188     3.5990    44.0230
  683.9712     3.6090    44.0420
  684.1236     3.6230    44.0610
  684.2760     3.6340    44.0810
  684.4284     3.6360    44.1000
  684.5808     3.6370    44.1190
  684.7332     3.6370    44.1380
  684.8856     3.6150    44.1580
  685.0380     3.5690    44.1770
  685.1904     3.5320    44.1970
  685.3428     3.5160    44.2100
  685.4952     3.5040    44.1900
  685.6476     3.4870    44.1270
  685.8000     3.4750    44.0450
  685.9524     3.4740    43.9710
  686.1048     3.4780    43.9010
  686.2572     3.4840    43.8270
  686.4096     3.4910    43.7520
  686.5620     3.4970    43.6800
  686.7144     3.4980    43.6070
  686.8668     3.4960    43.5320
  687.0192     3.4910    43.4590
  687.1716     3.4840    43.3860
  687.3240     3.4730    43.3130
  687.4764     3.4590    43.2390
  687.6288     3.4440    43.1660
  687.7812     3.4190    43.0920
  687.9336     3.3760    43.0190
  688.0860     3.3220    42.9460
  688.2384     3.2700    42.8720
  688.3908     3.2240    42.7980
  688.5432     3.1810    42.7260
  688.6956     3.1390    42.6530
  688.8480     3.0960    42.5730
  689.0004     3.0600    42.5000
  689.1528     3.0410    42.4440
  689.3052     3.0320    42.3960
  689.4576     3.0160    42.3430
  689.6100     2.9980    42.2870
  689.7624     2.9880    42.2350
  689.9148     2.9830    42.1820
  690.0672     2.9670    42.1270
  690.2196     2.9400    42.0740
