~VERSION INFORMATION
VERS.                                                 2.0:   CWLS Log ASCII Standard-VERSION 2.0
WRAP.                                                  NO:   One line per depth step
~Well Information Block
STRT.M                                           700.0000:   Top Depth
STOP.M                                          1057.0000:   Bottom Depth
STEP.M                                             .20000:   Depth Increment
NULL.                                            -999.250:   Null Value
FLD .                                         SCHOONEBEEK:   Field Name
WELL.                                      SCHOONEBEEK- 3:   NAME
EDF .m                                              15.12:   ELEV DRILL FLOOR
EPD .                                                   0:   ELEV PERM DATUM
EGL .m                                               12.8:   GROUND LEVEL
LMF .                                                  DF:   LOGS MEAS FROM
COMP.                                                BPME:   OPERATOR
PDAT.                                                 NAP:   PERM DATUM
SPUD.                                          2043/09/12:   SPUD DATE
UWBI.                                      11000074043001:   UWBI
~PARAMETER INFORMATION (log)
LNAM.                                RUN 03 RAW OH 7 3/5":   NAME
LTYP.                                                 03R:   LOG TYPE
LVSN.                                                   1:   LOG VERSION
BS  .3/5"                                               7:   BIT SIZE
BLI .M                                               1057:   BOTTOM DEPTH LOGGED
BHIS.                                                MCCC:   BRIEF HISTORY
FHIS.                                     MERGE/COPY/COPY:   FULL HISTORY
MRT .                                                    :   MAX REC TEMP
DFD .                                                    :   MUD DENSITY
DFT .                                                 N/A:   MUD TYPE
RMS .                                                    :   RM
MST .                                                    :   RM TEMP
RMCS.                                                    :   RMC
MCST.                                                    :   RMC TEMP
RMFS.                                                    :   RMF
MFST.                                                    :   RMF TEMP
TCS .                                                 N/A:   TIME SINCE CIRCLN
TLI .M                                                700:   TOP DEPTH LOGGED
~Curve Information Block
#MNEM.UNIT                                        API CODE    No Description
#=========                                        ========    == ===========
DEPT.M                                       00 001 00 00:     1  DEPTH
SN.OHMM                                                  :     2  SHORT NORMAL
SP.MV                                                    :     3  Spontaneous potential
~ASCII
# ...
  845.8000     3.1150    50.8070
  846.0000     3.0360    50.9460
  846.2000     2.9280    50.7930
  846.4000     2.8170    50.7070
  846.6000     2.8010    50.6200
  846.8000     2.7970    50.5330
  847.0000     2.7960    50.4460
  847.2000     2.7960    50.3590
  847.4000     2.7950    50.2730
  847.6000     2.7420    50.3770
  847.8000     2.6260    50.5760
  848.0000     2.5230    50.7740
  848.2000     2.4830    50.9730
  848.4000     2.4990    51.1720
  848.6000     2.5820    51.3700
  848.8000     2.6840    51.5690
  849.0000     2.7860    51.7680
  849.2000     2.8880    51.9660
  849.4000     3.0850    52.1650
  849.6000     3.3170    52.3640
  849.8000     3.1510    52.5620
  850.0000     3.0520    52.5650
  850.2000     2.9520    52.0180
  850.4000     2.8520    51.3490
  850.6000     2.7620    50.6800
  850.8000     2.6720    50.0110
  851.0000     2.7070    50.2280
  851.2000     2.8180    50.2670
  851.4000     2.9350    50.0790
  851.6000     2.9580    49.6710
  851.8000     2.9430    49.2640
  852.0000     2.9220    48.8560
  852.2000     2.8480    48.4490
  852.4000     2.5070    48.9230
  852.6000     2.5080    49.3230
  852.8000     2.4580    49.7230
  853.0000     2.4080    51.1500
  853.2000     2.3870    52.4020
  853.4000     2.3680    52.8790
  853.6000     2.3480    53.2870
  853.8000     2.2920    52.7340
  854.0000     2.3640    52.1860
  854.2000     2.4160    51.5890
  854.4000     2.4670    50.9920
  854.6000     2.4250    50.3950
  854.8000     2.3680    49.7980
  855.0000     2.3110    49.2020
  855.2000     2.2310    49.0430
  855.4000     2.1520    48.9090
  855.6000     2.1540    48.7740
  855.8000     2.2140    49.1440
  856.0000     2.2730    49.6610
  856.2000     2.3400    50.1770
  856.4000     2.4150    50.2590
  856.6000     2.4890    50.3710
  856.8000     2.4740    50.4820
  857.0000     2.4250    51.6000
  857.2000     2.1940    52.5480
  857.4000     2.1710    53.4970
  857.6000     2.0850    54.4450
  857.8000     1.9980    53.0040
  858.0000     1.9110    52.2900
  858.2000     1.8630    51.5760
  858.4000     1.8760    50.8620
  858.6000     1.9170    50.1480
  858.8000     1.9800    50.2570
  859.0000     2.0440    50.9030
  859.2000     2.1070    51.5490
  859.4000     2.1700    51.6110
  859.6000     2.2510    51.4970
  859.8000     2.3370    51.3820
  860.0000     2.4230    51.2680
  860.2000     2.8810    51.7170
  860.4000     3.0930    52.0460
  860.6000     3.3070    52.3740
  860.8000     3.2740    52.7020
  861.0000     3.0720    53.0300
  861.2000     2.9540    53.3580
  861.4000     2.9050    53.2030
  861.6000     2.8570    53.1970
  861.8000     2.8090    53.1730
  862.0000     2.7600    53.1320
  862.2000     2.8500    53.0910
  862.4000     2.8990    53.0500
  862.6000     2.9760    53.0100
  862.8000     3.5370    52.9690
  863.0000     3.8580    52.9280
  863.2000     3.9710    53.9640
  863.4000     3.9540    54.6860
  863.6000     3.9190    55.4090
  863.8000     3.8200    55.9020
  864.0000     3.7210    56.3580
  864.2000     3.6220    56.0560
  864.4000     3.5560    55.9060
  864.6000     3.5360    55.3560
  864.8000     3.5270    54.5210
  865.0000     3.5180    53.6870
  865.2000     3.4980    52.8520
  865.4000     3.3580    52.0170
  865.6000     2.9060    51.1830
  865.8000     2.7360    50.3400
  866.0000     2.5570    49.8090
  866.2000     2.4570    49.3410
  866.4000     2.4120    49.7800
  866.6000     2.3670    50.0020
  866.8000     2.3210    50.2240
  867.0000     2.2760    50.4460
  867.2000     2.3800    50.6680
  867.4000     2.4410    50.8900
  867.6000     2.5030    50.6540
  867.8000     2.5640    50.5570
  868.0000     2.6260    50.4600
  868.2000     2.6080    50.3620
  868.4000     2.5550    50.2650
  868.6000     2.4880    50.3510
  868.8000     2.3770    50.6010
  869.0000     2.2200    50.8500
  869.2000     2.0640    51.1000
  869.4000     2.0020    51.3500
  869.6000     1.9150    51.1640
  869.8000     1.8280    51.0800
  870.0000     1.7500    50.9960
  870.2000     1.7880    50.8020
  870.4000     1.8410    50.6390
  870.6000     1.8930    50.4750
  870.8000     1.9460    50.3110
  871.0000     1.9980    50.1480
  871.2000     2.0440    49.9840
  871.4000     2.0900    50.5620
  871.6000     2.0510    51.2730
  871.8000     2.0190    51.9840
  872.0000     1.9880    52.6950
  872.2000     1.9570    53.4060
  872.4000     1.8750    52.8900
  872.6000     1.7830    52.6760
  872.8000     1.6800    52.4610
  873.0000     1.7890    51.7050
  873.2000     1.8590    51.0880
  873.4000     1.9290    50.4710
  873.6000     1.8610    49.8540
  873.8000     1.6630    49.2380
  874.0000     1.4850    48.6210
  874.2000     1.2060    48.0050
  874.4000     1.2310    47.9990
  874.6000     1.2720    47.9970
  874.8000     1.3140    47.9940
  875.0000     1.3020    47.9920
  875.2000     1.2920    47.9890
  875.4000     1.2540    47.9870
  875.6000     1.2060    47.9850
  875.8000     1.1580    47.9820
  876.0000     1.1430    47.9800
  876.2000     1.1370    47.9770
  876.4000     1.1320    47.9750
  876.6000     1.1260    47.9720
  876.8000     1.1210    47.9700
  877.0000     1.1160    47.9680
  877.2000     1.1100    47.8130
  877.4000     1.0910    47.6990
  877.6000     1.1170    47.5860
  877.8000     1.1440    47.4720
  878.0000     1.1700    47.3590
  878.2000     1.1970    47.2460
  878.4000     1.2370    47.1320
  878.6000     1.2810    47.0190
  878.8000     1.3260    46.9050
  879.0000     1.3860    46.7920
  879.2000     1.4510    47.0380
  879.4000     1.4410    47.2060
  879.6000     1.4330    47.3740
  879.8000     1.4250    47.5420
  880.0000     1.4170    47.7090
  880.2000     1.4090    47.8770
  880.4000     1.4010    48.0450
  880.6000     1.4030    48.2130
  880.8000     1.4070    48.3800
  881.0000     1.4100    48.5480
  881.2000     1.4140    48.7160
  881.4000     1.4350    48.8840
  881.6000     1.4510    49.0510
  881.8000     1.4670    49.2190
  882.0000     1.4830    49.3870
  882.2000     1.4990    49.5550
  882.4000     1.5150    49.7220
  882.6000     1.5010    49.8900
  882.8000     1.4900    49.7620
  883.0000     1.4790    49.6540
  883.2000     1.4680    49.5470
  883.4000     1.4300    49.4400
  883.6000     1.4230    49.3330
  883.8000     1.4220    49.2250
  884.0000     1.4200    49.1180
  884.2000     1.4190    49.0110
  884.4000     1.3960    48.5000
  884.6000     1.3790    48.2290
  884.8000     1.3610    48.0270
  885.0000     1.2980    47.8250
  885.2000     1.2230    47.7780
  885.4000     1.1690    47.8150
  885.6000     1.1670    47.8530
  885.8000     1.1890    47.8900
  886.0000     1.2230    47.9270
  886.2000     1.2560    47.9640
  886.4000     1.2890    48.0010
  886.6000     1.3220    48.0380
  886.8000     1.3550    48.0750
  887.0000     1.3880    48.1120
  887.2000     1.3830    48.1490
  887.4000     1.3760    48.1860
  887.6000     1.3680    48.1400
  887.8000     1.3600    48.0870
  888.0000     1.3520    48.0340
  888.2000     1.3440    47.9810
  888.4000     1.3370    47.9280
  888.6000     1.3290    47.8750
  888.8000     1.3210    47.8220
  889.0000     1.2870    47.7690
  889.2000     1.2580    47.7160
  889.4000     1.2300    47.7360
  889.6000     1.2010    47.7640
  889.8000     1.1720    47.7930
  890.0000     1.1740    47.8210
  890.2000     1.1910    47.8490
  890.4000     1.2070    47.8780
  890.6000     1.2240    47.9060
  890.8000     1.2430    47.9350
  891.0000     1.2630    47.9630
  891.2000     1.2930    47.9910
  891.4000     1.3210    48.0200
  891.6000     1.3180    48.0480
  891.8000     1.3190    48.0770
  892.0000     1.3200    48.1050
  892.2000     1.3110    48.1330
  892.4000     1.2950    48.1620
  892.6000     1.3120    48.1900
  892.8000     1.3490    48.2190
  893.0000     1.3880    48.2470
  893.2000     1.4260    48.2750
  893.4000     1.4650    48.3040
  893.6000     1.8260    48.3320
  893.8000     2.2750    48.3610
  894.0000     2.2860    48.2850
  894.2000     2.2570    48.2240
