~VERSION INFORMATION
VERS.                                                 2.0:   CWLS Log ASCII Standard-VERSION 2.0
WRAP.                                                  NO:   One line per depth step
~Well Information Block
STRT.M                                           245.9736:   Top Depth
STOP.M                                           781.9644:   Bottom Depth
STEP.M                                             .15240:   Depth Increment
NULL.                                            -999.250:   Null Value
FLD .                                         SCHOONEBEEK:   Field Name
WELL.                                      SCHOONEBEEK- 3:   NAME
EDF .m                                              15.12:   ELEV DRILL FLOOR
EPD .                                                   0:   ELEV PERM DATUM
EGL .m                                               12.8:   GROUND LEVEL
LMF .                                                  DF:   LOGS MEAS FROM
COMP.                                                BPME:   OPERATOR
PDAT.                                                 NAP:   PERM DATUM
SPUD.                                          2043/09/12:   SPUD DATE
UWBI.                                      11000074043001:   UWBI
WELL.                                      SCHOONEBEEK- 3:   HOLE NAME
~PARAMETER INFORMATION (log)
LNAM.                               RUN 01 RAW OH 10 1/2":   NAME
LTYP.                                                 01R:   LOG TYPE
LVSN.                                                   1:   LOG VERSION
BS  .1/2"                                              10:   BIT SIZE
BLI .M                                                782:   BOTTOM DEPTH LOGGED
BHIS.                                                MCCC:   BRIEF HISTORY
FHIS.                                     MERGE/COPY/COPY:   FULL HISTORY
MRT .                                                    :   MAX REC TEMP
DFD .                                                    :   MUD DENSITY
DFT .                                                 N/A:   MUD TYPE
RMS .                                                    :   RM
MST .                                                    :   RM TEMP
RMCS.                                                    :   RMC
MCST.                                                    :   RMC TEMP
RMFS.                                                    :   RMF
MFST.                                                    :   RMF TEMP
TCS .                                                 N/A:   TIME SINCE CIRCLN
TLI .M                                                246:   TOP DEPTH LOGGED
~Curve Information Block
#MNEM.UNIT                                        API CODE    No Description
#=========                                        ========    == ===========
DEPT.M                                       00 001 00 00:     1  DEPTH
SN.OHMM                                                  :     2  SHORT NORMAL
SP.MV                                                    :     3  Spontaneous potential
~ASCII
# ...
  320.0400     1.9130    62.2760
  320.1924     1.9160    62.2690
  320.3448     1.9050    62.2560
  320.4972     1.8980    62.2460
  320.6496     1.9070    62.2440
  320.8020     1.9180    62.2330
  320.9544     1.9260    62.2140
  321.1068     1.9450    62.2270
  321.2592     1.9740    62.2430
  321.4116     1.9970    62.1880
  321.5640     2.0070    62.0980
  321.7164     2.0130    62.0690
  321.8688     2.0220    62.0490
  322.0212     2.0360    61.9290
  322.1736     2.0490    61.7730
  322.3260     2.0550    61.7100
  322.4784     2.0590    61.6770
  322.6308     2.0700    61.5320
  322.7832     2.0860    61.3410
  322.9356     2.0970    61.2760
  323.0880     2.1070    61.3010
  323.2404     2.1210    61.2840
  323.3928     2.1310    61.3010
  323.5452     2.1340    61.4560
  323.6976     2.1390    61.6140
  323.8500     2.1490    61.7000
  324.0024     2.1600    61.8720
  324.1548     2.1700    62.1290
  324.3072     2.1820    62.2570
  324.4596     2.1960    62.2450
  324.6120     2.2090    62.2260
  324.7644     2.2130    62.1830
  324.9168     2.2060    62.1110
  325.0692     2.1930    62.0780
  325.2216     2.1800    62.0420
  325.3740     2.1650    62.0440
  325.5264     2.1480    62.3280
  325.6788     2.1300    62.8830
  325.8312     2.1150    63.3630
  325.9836     2.1030    63.6630
  326.1360     2.0930    63.9900
  326.2884     2.0890    64.3380
  326.4408     2.0950    64.5070
  326.5932     2.1080    64.5390
  326.7456     2.1190    64.5950
  326.8980     2.1300    64.5400
  327.0504     2.1520    64.2030
  327.2028     2.1810    63.8360
  327.3552     2.2030    63.7480
  327.5076     2.2210    63.7830
  327.6600     2.2430    63.7480
  327.8124     2.2630    63.8470
  327.9648     2.2700    64.1720
  328.1172     2.2650    64.4320
  328.2696     2.2530    64.5430
  328.4220     2.2350    64.7340
  328.5744     2.2110    64.9780
  328.7268     2.1880    65.0500
  328.8792     2.1730    65.0130
  329.0316     2.1650    65.0260
  329.1840     2.1660    65.0050
  329.3364     2.1750    64.8690
  329.4888     2.1880    64.7380
  329.6412     2.1980    64.6660
  329.7936     2.2020    64.5690
  329.9460     2.1980    64.4340
  330.0984     2.1950    64.3360
  330.2508     2.1940    64.2880
  330.4032     2.1860    64.2450
  330.5556     2.1680    64.2120
  330.7080     2.1440    64.2660
  330.8604     2.1120    64.4120
  331.0128     2.0760    64.5250
  331.1652     2.0520    64.5580
  331.3176     2.0360    64.5800
  331.4700     2.0110    64.5410
  331.6224     1.9840    64.3580
  331.7748     1.9700    64.1570
  331.9272     1.9540    64.0600
  332.0796     1.9210    63.9710
  332.2320     1.8860    63.8470
  332.3844     1.8630    63.7500
  332.5368     1.8420    63.5970
  332.6892     1.8220    63.3390
  332.8416     1.8120    63.1630
  332.9940     1.8020    63.1250
  333.1464     1.7810    63.0250
  333.2988     1.7590    62.8310
  333.4512     1.7530    62.7110
  333.6036     1.7500    62.6620
  333.7560     1.7310    62.5490
  333.9084     1.7070    62.4020
  334.0608     1.6970    62.3270
  334.2132     1.6900    62.2850
  334.3656     1.6720    62.1870
  334.5180     1.6530    62.0620
  334.6704     1.6440    61.9660
  334.8228     1.6400    61.8450
  334.9752     1.6350    61.6500
  335.1276     1.6390    61.4430
  335.2800     1.6540    61.2780
  335.4324     1.6700    61.1370
  335.5848     1.6790    61.0150
  335.7372     1.6780    60.9320
  335.8896     1.6690    60.8710
  336.0420     1.6550    60.7960
  336.1944     1.6400    60.7050
  336.3468     1.6250    60.6250
  336.4992     1.6110    60.5680
  336.6516     1.5960    60.4890
  336.8040     1.5800    60.3520
  336.9564     1.5660    60.2330
  337.1088     1.5650    60.1990
  337.2612     1.5740    60.1780
  337.4136     1.5890    60.0990
  337.5660     1.6180    60.0050
  337.7184     1.6540    59.9290
  337.8708     1.6790    59.8710
  338.0232     1.6850    59.9050
  338.1756     1.6760    60.0580
  338.3280     1.6540    60.1900
  338.4804     1.6260    60.2110
  338.6328     1.6050    60.2070
  338.7852     1.5880    60.2170
  338.9376     1.5630    60.1680
  339.0900     1.5360    60.0860
  339.2424     1.5220    60.0490
  339.3948     1.5160    60.0120
  339.5472     1.5110    59.9340
  339.6996     1.5170    59.8840
  339.8520     1.5390    59.8850
  340.0044     1.5660    59.8900
  340.1568     1.5860    59.9250
  340.3092     1.6050    60.0120
  340.4616     1.6310    60.0670
  340.6140     1.6570    60.0540
  340.7664     1.6720    60.0400
  340.9188     1.6790    60.0520
  341.0712     1.6890    60.0540
  341.2236     1.7030    60.0460
  341.3760     1.7150    60.0510
  341.5284     1.7230    60.0540
  341.6808     1.7270    60.0450
  341.8332     1.7330    60.0490
  341.9856     1.7450    60.0600
  342.1380     1.7570    60.0430
  342.2904     1.7650    60.0340
  342.4428     1.7770    60.0910
  342.5952     1.7990    60.1680
  342.7476     1.8140    60.2060
  342.9000     1.8090    60.2450
  343.0524     1.7930    60.3170
  343.2048     1.7830    60.3690
  343.3572     1.7700    60.3960
  343.5096     1.7460    60.4600
  343.6620     1.7310    60.5620
  343.8144     1.7430    60.6480
  343.9668     1.7670    60.7050
  344.1192     1.7860    60.7520
  344.2716     1.8140    60.8010
  344.4240     1.8580    60.8520
  344.5764     1.8940    60.9040
  344.7288     1.9110    60.9560
  344.8812     1.9300    61.0060
  345.0336     1.9540    61.0560
  345.1860     1.9700    61.1120
  345.3384     1.9680    61.1650
  345.4908     1.9500    61.2060
  345.6432     1.9210    61.2620
  345.7956     1.8920    61.3330
  345.9480     1.8700    61.3630
  346.1004     1.8450    61.3880
  346.2528     1.8160    61.5190
  346.4052     1.8000    61.7030
  346.5576     1.8040    61.7790
  346.7100     1.8140    61.7700
  346.8624     1.8260    61.7660
  347.0148     1.8430    61.7400
  347.1672     1.8610    61.7780
  347.3196     1.8800    62.0610
  347.4720     1.9120    62.4220
  347.6244     1.9500    62.6060
  347.7768     1.9820    62.9430
  347.9292     2.0120    63.8750
  348.0816     2.0460    65.0440
  348.2340     2.0730    65.7600
  348.3864     2.0860    66.0100
  348.5388     2.0880    66.2090
  348.6912     2.0710    66.4190
  348.8436     2.0400    66.4580
  348.9960     2.0150    66.3670
  349.1484     2.0040    66.2780
  349.3008     1.9940    66.1360
  349.4532     1.9760    65.8880
  349.6056     1.9550    65.6890
  349.7580     1.9380    65.6360
  349.9104     1.9220    65.5980
  350.0628     1.8950    65.5300
  350.2152     1.8610    65.6220
  350.3676     1.8360    65.9450
  350.5200     1.8230    66.2690
  350.6724     1.8100    66.4500
  350.8248     1.7880    66.6580
  350.9772     1.7690    66.9710
  351.1296     1.7590    67.1590
  351.2820     1.7530    67.1680
  351.4344     1.7420    67.2180
  351.5868     1.7270    67.1410
  351.7392     1.7120    66.5010
  351.8916     1.6950    65.5750
  352.0440     1.6770    65.0700
  352.1964     1.6630    65.0100
  352.3488     1.6610    65.0530
  352.5012     1.6700    65.3820
  352.6536     1.6870    66.1710
  352.8060     1.7060    66.9520
  352.9584     1.7260    67.3500
  353.1108     1.7510    67.6190
  353.2632     1.7800    68.0210
  353.4156     1.7990    68.4000
  353.5680     1.8010    68.6040
  353.7204     1.8040    68.7650
  353.8728     1.8130    69.0190
  354.0252     1.8080    69.2550
  354.1776     1.7810    69.3410
  354.3300     1.7590    69.3610
  354.4824     1.7540    69.3990
  354.6348     1.7550    69.3280
  354.7872     1.7540    69.0690
  354.9396     1.7580    68.7560
  355.0920     1.7680    68.4300
  355.2444     1.7830    67.9530
  355.3968     1.8010    67.3830
  355.5492     1.8140    67.0280
  355.7016     1.8280    67.0290
  355.8540     1.8610    67.2110
  356.0064     1.9060    67.3670
  356.1588     1.9410    67.4630
  356.3112     1.9610    67.5570
  356.4636     1.9810    67.6430
  356.6160     2.0100    67.6450
  356.7684     2.0350    67.5550
  356.9208     2.0420    67.4580
