~VERSION INFORMATION
VERS.                                                 2.0:   CWLS Log ASCII Standard-VERSION 2.0
WRAP.                                                  NO:   One line per depth step
~Well Information Block
STRT.M                                           950.0000:   Top Depth
STOP.M                                          1110.6000:   Bottom Depth
STEP.M                                             .20000:   Depth Increment
NULL.                                            -999.250:   Null Value
FLD .                                         SCHOONEBEEK:   Field Name
WELL.                                      SCHOONEBEEK- 3:   NAME
EDF .m                                              15.12:   ELEV DRILL FLOOR
EPD .                                                   0:   ELEV PERM DATUM
EGL .m                                               12.8:   GROUND LEVEL
LMF .                                                  DF:   LOGS MEAS FROM
COMP.                                                BPME:   OPERATOR
PDAT.                                                 NAP:   PERM DATUM
SPUD.                                          2043/09/12:   SPUD DATE
UWBI.                                      11000074043001:   UWBI
WELL.                                      SCHOONEBEEK- 3:   HOLE NAME
~PARAMETER INFORMATION (log)
LNAM.                                RUN 04 RAW OH 7 3/5":   NAME
LTYP.                                                 04R:   LOG TYPE
LVSN.                                                   1:   LOG VERSION
BS  .3/5"                                               7:   BIT SIZE
BLI .M                                               1114:   BOTTOM DEPTH LOGGED
BHIS.                                                MCCC:   BRIEF HISTORY
FHIS.                                     MERGE/COPY/COPY:   FULL HISTORY
MRT .                                                    :   MAX REC TEMP
DFD .                                                    :   MUD DENSITY
DFT .                                                 N/A:   MUD TYPE
RMS .                                                    :   RM
MST .                                                    :   RM TEMP
RMCS.                                                    :   RMC
MCST.                                                    :   RMC TEMP
RMFS.                                                    :   RMF
MFST.                                                    :   RMF TEMP
TCS .                                                 N/A:   TIME SINCE CIRCLN
TLI .M                                                950:   TOP DEPTH LOGGED
~Curve Information Block
#MNEM.UNIT                                        API CODE    No Description
#=========                                        ========    == ===========
DEPT.M                                       00 001 00 00:     1  DEPTH
SN.OHMM                                                  :     2  SHORT NORMAL
SP.MV                                                    :     3  Spontaneous potential
~ASCII
# ...
  998.6000     1.5710    15.3920
  998.8000     1.3200    15.4790
  999.0000     1.2080    15.9920
  999.2000     1.0780    16.5050
  999.4000     1.1930    17.2650
  999.6000     1.2350    18.0240
  999.8000     1.3030    18.7830
 1000.0000     1.3720    19.5420
 1000.2000     1.3500    19.9090
 1000.4000     1.3100    19.9000
 1000.6000     1.2190    19.8900
 1000.8000     1.1600    19.8810
 1001.0000     1.1150    19.8710
 1001.2000     1.0700    19.8620
 1001.4000     1.0250    19.8520
 1001.6000     1.0090    19.7750
 1001.8000      .9850    19.6380
 1002.0000      .9600    19.5020
 1002.2000      .9350    19.3660
 1002.4000      .9110    19.2300
 1002.6000      .8860    19.2900
 1002.8000      .9220    19.2900
 1003.0000      .9560    19.2890
 1003.2000      .9890    19.2890
 1003.4000     1.0220    19.1870
 1003.6000     1.0550    19.0820
 1003.8000     1.0880    18.9770
 1004.0000     1.0890    18.8720
 1004.2000     1.0660    18.7670
 1004.4000     1.0560    18.6620
 1004.6000     1.0520    18.5570
 1004.8000     1.1100    18.4520
 1005.0000     1.1490    18.3470
 1005.2000     1.1880    18.2420
 1005.4000     1.1710    18.1370
 1005.6000     1.1130    18.2860
 1005.8000     1.0590    18.6120
 1006.0000     1.0080    18.9370
 1006.2000      .9570    19.2620
 1006.4000      .9060    19.5880
 1006.6000      .9290    19.5650
 1006.8000      .9590    19.3420
 1007.0000      .9870    19.0180
 1007.2000     1.0160    18.6930
 1007.4000     1.0440    18.3690
 1007.6000     1.0720    18.0440
 1007.8000     1.1000    17.9460
 1008.0000     1.0920    17.9680
 1008.2000     1.0640    17.9900
 1008.4000     1.0370    18.0130
 1008.6000     1.0090    18.0350
 1008.8000      .9810    17.8330
 1009.0000     1.0290    17.6990
 1009.2000     1.0980    17.5640
 1009.4000     1.1540    17.4300
 1009.6000     1.2060    17.2950
 1009.8000     1.2580    17.1610
 1010.0000     1.1720    17.0270
 1010.2000     1.0970    16.8920
 1010.4000     1.0350    16.7580
 1010.6000      .9870    16.6230
 1010.8000      .9380    16.5880
 1011.0000      .8900    16.5660
 1011.2000      .8960    16.5440
 1011.4000      .9040    16.5210
 1011.6000      .9540    16.4990
 1011.8000      .9910    16.4770
 1012.0000     1.0280    16.4550
 1012.2000     1.0480    16.4320
 1012.4000     1.0290    16.4100
 1012.6000     1.0250    16.7220
 1012.8000     1.0330    16.9810
 1013.0000     1.0510    17.2410
 1013.2000     1.0700    17.5000
 1013.4000     1.1430    17.3300
 1013.6000     1.2090    17.2160
 1013.8000     1.2760    17.1020
 1014.0000     1.3040    16.7610
 1014.2000     1.1390    16.4600
 1014.4000     1.0950    16.1590
 1014.6000     1.0860    16.5780
 1014.8000     1.0950    16.7680
 1015.0000     1.1320    16.7240
 1015.2000     1.1090    16.5850
 1015.4000     1.0600    16.4460
 1015.6000     1.0680    16.3070
 1015.8000     1.1140    16.1680
 1016.0000     1.1830    16.0300
 1016.2000     1.2520    15.8910
 1016.4000     1.3210    15.7520
 1016.6000     1.2390    15.6130
 1016.8000     1.2040    15.4740
 1017.0000     1.1690    15.3350
 1017.2000      .9920    15.1960
 1017.4000      .9980    15.1780
 1017.6000     1.0120    15.1580
 1017.8000     1.0280    15.1390
 1018.0000     1.0430    15.1190
 1018.2000     1.0870    15.0990
 1018.4000     1.0550    15.0790
 1018.6000     1.0370    15.0590
 1018.8000     1.0170    15.0390
 1019.0000     1.0430    15.0190
 1019.2000     1.0930    15.0000
 1019.4000     1.1430    14.9800
 1019.6000     1.1940    14.9600
 1019.8000     1.2440    14.9400
 1020.0000     1.5530    14.9180
 1020.2000     1.6650    14.8950
 1020.4000     1.5410    14.8720
 1020.6000     1.3970    14.8500
 1020.8000     1.3470    14.8270
 1021.0000     1.2980    14.8050
 1021.2000     1.2490    14.7820
 1021.4000     1.1830    14.7600
 1021.6000     1.1270    14.7370
 1021.8000     1.0710    14.7140
 1022.0000     1.0150    14.6920
 1022.2000      .9590    14.7050
 1022.4000     1.0200    14.7520
 1022.6000     1.0800    14.7990
 1022.8000     1.1400    14.8460
 1023.0000     1.2930    14.8920
 1023.2000     1.5110    14.9390
 1023.4000     1.5340    14.9860
 1023.6000     1.5300    15.0320
 1023.8000     1.5460    15.0790
 1024.0000     1.5990    15.2100
 1024.2000     1.6610    15.3360
 1024.4000     2.0710    15.4610
 1024.6000     2.7420    15.5860
 1024.8000     3.1650    15.5750
 1025.0000     3.5070    15.4920
 1025.2000     3.5960    14.7530
 1025.4000     3.8860    14.1710
 1025.6000     5.4660    13.5900
 1025.8000     5.9930    13.0080
 1026.0000     8.8690    10.4340
 1026.2000    11.9250     8.0550
 1026.4000    15.2630     7.7800
 1026.6000    14.8610    10.3490
 1026.8000    13.8990    10.9480
 1027.0000     7.5620    11.7800
 1027.2000     7.0200    12.6120
 1027.4000     6.4780    13.4440
 1027.6000     5.0410    14.4630
 1027.8000     5.3680    15.5000
 1028.0000     5.6940    15.8890
 1028.2000     5.9210    16.2710
 1028.4000     5.3060    16.6520
 1028.6000     4.6910    17.0340
 1028.8000     4.1470    17.4150
 1029.0000     3.5930    19.1700
 1029.2000     3.0380    20.5520
 1029.4000     2.8510    21.7750
 1029.6000     3.7370    21.1710
 1029.8000     4.0710    19.0410
 1030.0000     7.0170    16.4440
 1030.2000     8.0610    17.6630
 1030.4000     8.9680    18.5790
 1030.6000    10.6160    19.5380
 1030.8000     8.7340    20.6010
 1031.0000     6.7300    21.0840
 1031.2000     5.5600    21.7150
 1031.4000     4.5310    22.3470
 1031.6000     4.1110    22.2370
 1031.8000     3.6700    21.8390
 1032.0000     3.2290    22.2950
 1032.2000     3.4550    22.6580
 1032.4000     3.6720    23.7110
 1032.6000     3.9910    24.6480
 1032.8000     5.2440    25.5850
 1033.0000     6.0890    25.7500
 1033.2000     6.9130    25.4040
 1033.4000     8.4790    25.0580
 1033.6000    13.1650    21.3320
 1033.8000    12.6040    18.2550
 1034.0000    11.6370    18.3680
 1034.2000    10.7670    19.8540
 1034.4000     9.8670    20.5850
 1034.6000     7.9350    21.3160
 1034.8000     7.1740    22.0480
 1035.0000     6.4120    22.5710
 1035.2000     5.6670    22.6600
 1035.4000     4.9180    22.6590
 1035.6000     3.3670    22.6590
 1035.8000     4.8440    23.1520
 1036.0000     5.8250    23.7210
 1036.2000     7.3550    24.2890
 1036.4000    10.2040    25.1670
 1036.6000     7.9700    25.3240
 1036.8000     7.1440    25.0950
 1037.0000     5.1780    24.8660
 1037.2000     3.2950    25.1650
 1037.4000     2.6200    26.4070
 1037.6000     2.4100    27.0640
 1037.8000     2.1490    27.0530
 1038.0000     2.3130    26.1890
 1038.2000     3.6920    25.2970
 1038.4000     6.0390    24.2870
 1038.6000     6.8790    22.6660
 1038.8000    10.4240    21.2000
 1039.0000     7.8680    17.3490
 1039.2000     6.7510    14.1160
 1039.4000     5.8220    17.5710
 1039.6000     4.9890    19.6940
 1039.8000     4.2210    21.8070
 1040.0000     3.1850    23.9190
 1040.2000     1.9820    21.3130
 1040.4000     1.6260    20.1380
 1040.6000     1.1850    16.9680
 1040.8000     1.3550    16.6290
 1041.0000     1.3520    16.4420
 1041.2000     1.3500    16.6480
 1041.4000     1.3470    16.7380
 1041.6000     1.3140    16.8290
 1041.8000     1.2700    16.3570
 1042.0000     1.2260    15.9310
 1042.2000     1.1810    15.5060
 1042.4000     1.1890    15.0800
 1042.6000     1.2140    14.6550
 1042.8000     1.3680    14.2290
 1043.0000     1.6690    15.2200
 1043.2000     1.9300    16.0580
 1043.4000     2.1910    16.8150
 1043.6000     2.8310    17.5710
 1043.8000     2.7660    18.3280
 1044.0000     2.4590    17.1950
 1044.2000     2.0780    12.6440
 1044.4000     2.2280    14.4600
 1044.6000     2.4910    15.8330
 1044.8000     2.8320    17.2070
 1045.0000     4.2310    18.5800
 1045.2000     5.2150    19.9530
 1045.4000     6.1360    19.9640
 1045.6000     9.8110    18.8940
 1045.8000    10.9940    16.1400
 1046.0000    14.9540    12.9810
 1046.2000    19.2810     6.5960
 1046.4000    17.8620     3.9430
 1046.6000    15.1170     7.0170
 1046.8000    14.4350    10.2130
 1047.0000    13.3000    14.8840
