~VERSION INFORMATION
VERS.                                                 2.0:   CWLS Log ASCII Standard-VERSION 2.0
WRAP.                                                  NO:   One line per depth step
~Well Information Block
STRT.M                                           245.9736:   Top Depth
STOP.M                                           781.9644:   Bottom Depth
STEP.M                                             .15240:   Depth Increment
NULL.                                            -999.250:   Null Value
FLD .                                         SCHOONEBEEK:   Field Name
WELL.                                      SCHOONEBEEK- 3:   NAME
EDF .m                                              15.12:   ELEV DRILL FLOOR
EPD .                                                   0:   ELEV PERM DATUM
EGL .m                                               12.8:   GROUND LEVEL
LMF .                                                  DF:   LOGS MEAS FROM
COMP.                                                BPME:   OPERATOR
PDAT.                                                 NAP:   PERM DATUM
SPUD.                                          2043/09/12:   SPUD DATE
UWBI.                                      11000074043001:   UWBI
WELL.                                      SCHOONEBEEK- 3:   HOLE NAME
~PARAMETER INFORMATION (log)
LNAM.                               RUN 01 RAW OH 10 1/2":   NAME
LTYP.                                                 01R:   LOG TYPE
LVSN.                                                   1:   LOG VERSION
BS  .1/2"                                              10:   BIT SIZE
BLI .M                                                782:   BOTTOM DEPTH LOGGED
BHIS.                                                MCCC:   BRIEF HISTORY
FHIS.                                     MERGE/COPY/COPY:   FULL HISTORY
MRT .                                                    :   MAX REC TEMP
DFD .                                                    :   MUD DENSITY
DFT .                                                 N/A:   MUD TYPE
RMS .                                                    :   RM
MST .                                                    :   RM TEMP
RMCS.                                                    :   RMC
MCST.                                                    :   RMC TEMP
RMFS.                                                    :   RMF
MFST.                                                    :   RMF TEMP
TCS .                                                 N/A:   TIME SINCE CIRCLN
TLI .M                                                246:   TOP DEPTH LOGGED
~Curve Information Block
#MNEM.UNIT                                        API CODE    No Description
#=========                                        ========    == ===========
DEPT.M                                       00 001 00 00:     1  DEPTH
SN.OHMM                                                  :     2  SHORT NORMAL
SP.MV                                                    :     3  Spontaneous potential
~ASCII
# ...
  616.3056     2.5370    52.1140
  616.4580     2.6360    52.1330
  616.6104     2.7310    52.1170
  616.7628     2.7880    52.0570
  616.9152     2.8330    51.9750
  617.0676     2.8780    51.8990
  617.2200     2.9270    51.8220
  617.3724     2.9930    51.7250
  617.5248     3.0800    51.6540
  617.6772     3.1500    51.6720
  617.8296     3.1810    51.7760
  617.9820     3.1980    51.9140
  618.1344     3.2260    52.0380
  618.2868     3.2560    52.1040
  618.4392     3.2860    52.0970
  618.5916     3.3380    52.0170
  618.7440     3.4180    51.7530
  618.8964     3.5000    51.1830
  619.0488     3.5610    50.3860
  619.2012     3.5960    49.5680
  619.3536     3.6330    48.8000
  619.5060     3.6570    48.0250
  619.6584     3.6380    47.2190
  619.8108     3.6000    46.4250
  619.9632     3.5690    45.6620
  620.1156     3.5380    44.8740
  620.2680     3.5040    44.0340
  620.4204     3.4720    43.3330
  620.5728     3.4400    43.0760
  620.7252     3.4070    43.3080
  620.8776     3.3850    43.7300
  621.0300     3.3760    44.0510
  621.1824     3.3730    44.2260
  621.3348     3.3710    44.3340
  621.4872     3.3760    44.3890
  621.6396     3.3950    44.3470
  621.7920     3.4170    44.2060
  621.9444     3.4320    44.0550
  622.0968     3.4470    43.9640
  622.2492     3.4690    43.8900
  622.4016     3.4950    43.7490
  622.5540     3.5160    43.5640
  622.7064     3.5370    43.4420
  622.8588     3.5610    43.4170
  623.0112     3.5800    43.4250
  623.1636     3.5780    43.4300
  623.3160     3.5580    43.4620
  623.4684     3.5410    43.5330
  623.6208     3.5290    43.6120
  623.7732     3.5070    43.6840
  623.9256     3.4730    43.7570
  624.0780     3.4390    43.8300
  624.2304     3.4070    43.9040
  624.3828     3.3760    43.9830
  624.5352     3.3480    44.0400
  624.6876     3.3220    44.0510
  624.8400     3.2920    44.0470
  624.9924     3.2570    44.0710
  625.1448     3.2220    44.1210
  625.2972     3.1980    44.1710
  625.4496     3.1870    44.2170
  625.6020     3.1810    44.2650
  625.7544     3.1710    44.3140
  625.9068     3.1580    44.3610
  626.0592     3.1460    44.4090
  626.2116     3.1350    44.4580
  626.3640     3.1220    44.5050
  626.5164     3.1080    44.5530
  626.6688     3.0900    44.6020
  626.8212     3.0650    44.6500
  626.9736     3.0350    44.6950
  627.1260     3.0080    44.7460
  627.2784     2.9930    44.7960
  627.4308     2.9860    44.8370
  627.5832     2.9830    44.8860
  627.7356     2.9890    44.9480
  627.8880     3.0030    44.9630
  628.0404     3.0160    44.8940
  628.1928     3.0190    44.8080
  628.3452     3.0170    44.7510
  628.4976     3.0100    44.6460
  628.6500     2.9980    44.4320
  628.8024     2.9810    44.1640
  628.9548     2.9590    43.9100
  629.1072     2.9320    43.6670
  629.2596     2.9050    43.4190
  629.4120     2.8770    43.1620
  629.5644     2.8460    42.9080
  629.7168     2.8130    42.6690
  629.8692     2.7880    42.4200
  630.0216     2.7700    42.1460
  630.1740     2.7450    41.9100
  630.3264     2.7100    41.7650
  630.4788     2.6810    41.6420
  630.6312     2.6710    41.4860
  630.7836     2.6720    41.3770
  630.9360     2.6700    41.3900
  631.0884     2.6630    41.4620
  631.2408     2.6590    41.5160
  631.3932     2.6570    41.5840
  631.5456     2.6610    41.7320
  631.6980     2.6760    41.9750
  631.8504     2.6960    42.2940
  632.0028     2.7150    42.6350
  632.1552     2.7360    42.8940
  632.3076     2.7510    43.0170
  632.4600     2.7420    43.0740
  632.6124     2.7120    43.1450
  632.7648     2.6860    43.2290
  632.9172     2.6680    43.3140
  633.0696     2.6470    43.3930
  633.2220     2.6220    43.4330
  633.3744     2.5990    43.4310
  633.5268     2.5770    43.4250
  633.6792     2.5530    43.4260
  633.8316     2.5300    43.4070
  633.9840     2.5070    43.3310
  634.1364     2.4840    43.1890
  634.2888     2.4610    43.0370
  634.4412     2.4380    42.9250
  634.5936     2.4140    42.8270
  634.7460     2.3920    42.7680
  634.8984     2.3690    42.8970
  635.0508     2.3450    43.3220
  635.2032     2.3210    43.9640
  635.3556     2.3060    44.6300
  635.5080     2.2950    45.2170
  635.6604     2.2750    45.8250
  635.8128     2.2460    46.5190
  635.9652     2.2160    47.0910
  636.1176     2.1890    47.3390
  636.2700     2.1590    47.4180
  636.4224     2.1350    47.5610
  636.5748     2.1250    47.7450
  636.7272     2.1280    47.8820
  636.8796     2.1320    48.0170
  637.0320     2.1340    48.1820
  637.1844     2.1380    48.3300
  637.3368     2.1520    48.4420
  637.4892     2.1770    48.5500
  637.6416     2.2050    48.6800
  637.7940     2.2370    48.8260
  637.9464     2.2770    48.9710
  638.0988     2.3090    49.1150
  638.2512     2.3190    49.2650
  638.4036     2.3150    49.4100
  638.5560     2.3100    49.5390
  638.7084     2.3000    49.6610
  638.8608     2.2820    49.7690
  639.0132     2.2700    49.8350
  639.1656     2.2700    49.8660
  639.3180     2.2720    49.9000
  639.4704     2.2730    49.9490
  639.6228     2.2750    49.9930
  639.7752     2.2790    50.0260
  639.9276     2.2800    50.0670
  640.0800     2.2740    50.1140
  640.2324     2.2620    50.0920
  640.3848     2.2460    49.9290
  640.5372     2.2290    49.6550
  640.6896     2.2120    49.3640
  640.8420     2.1940    49.0880
  640.9944     2.1640    48.8110
  641.1468     2.1190    48.5310
  641.2992     2.0790    48.2500
  641.4516     2.0640    47.9670
  641.6040     2.0680    47.6820
  641.7564     2.0760    47.3560
  641.9088     2.0840    46.9950
  642.0612     2.0930    46.7660
  642.2136     2.1070    46.7990
  642.3660     2.1270    46.9700
  642.5184     2.1480    47.1210
  642.6708     2.1630    47.2590
  642.8232     2.1720    47.3930
  642.9756     2.1810    47.5000
  643.1280     2.1900    47.6820
  643.2804     2.1920    48.0350
  643.4328     2.1780    48.4430
  643.5852     2.1550    48.7810
  643.7376     2.1380    49.0870
  643.8900     2.1310    49.3540
  644.0424     2.1210    49.4690
  644.1948     2.1070    49.4720
  644.3472     2.0950    49.5200
  644.4996     2.0820    49.6060
  644.6520     2.0670    49.6380
  644.8044     2.0490    49.6710
  644.9568     2.0310    49.7620
  645.1092     2.0140    49.8090
  645.2616     1.9990    49.7860
  645.4140     1.9800    49.8170
  645.5664     1.9590    49.9190
  645.7188     1.9560    49.9670
  645.8712     1.9800    49.9660
  646.0236     2.0140    50.0680
  646.1760     2.0420    50.3030
  646.3284     2.0680    50.5470
  646.4808     2.0930    50.7260
  646.6332     2.1190    50.9080
  646.7856     2.1500    51.1530
  646.9380     2.1870    51.3840
  647.0904     2.2150    51.4870
  647.2428     2.2260    51.4930
  647.3952     2.2280    51.5320
  647.5476     2.2270    51.6270
  647.7000     2.2210    51.6790
  647.8524     2.2110    51.6550
  648.0048     2.2020    51.6430
  648.1572     2.1840    51.6930
  648.3096     2.1510    51.7700
  648.4620     2.1180    51.8540
  648.6144     2.1030    51.9430
  648.7668     2.0970    51.9850
  648.9192     2.0890    51.9590
  649.0716     2.0820    51.9770
  649.2240     2.0770    52.1230
  649.3764     2.0740    52.2750
  649.5288     2.0800    52.2930
  649.6812     2.0930    52.2570
  649.8336     2.1070    52.3110
  649.9860     2.1240    52.4090
  650.1384     2.1460    52.4430
  650.2908     2.1740    52.4390
  650.4432     2.2020    52.4430
  650.5956     2.2280    52.4040
  650.7480     2.2500    52.3180
  650.9004     2.2680    52.2680
  651.0528     2.2900    52.2510
  651.2052     2.3170    52.1830
  651.3576     2.3410    52.0690
  651.5100     2.3670    51.9980
  651.6624     2.3950    51.9800
  651.8148     2.4150    51.9360
  651.9672     2.4270    51.8510
  652.1196     2.4490    51.7990
  652.2720     2.4790    51.8110
  652.4244     2.4960    51.8280
  652.5768     2.4990    51.8090
  652.7292     2.4990    51.8020
  652.8816     2.4910    51.8470
  653.0340     2.4760    51.9250
  653.1864     2.4680    52.0110
