~VERSION INFORMATION
VERS.                                                 2.0:   CWLS Log ASCII Standard-VERSION 2.0
WRAP.                                                  NO:   One line per depth step
~Well Information Block
STRT.M                                           245.9736:   Top Depth
STOP.M                                           781.9644:   Bottom Depth
STEP.M                                             .15240:   Depth Increment
NULL.                                            -999.250:   Null Value
FLD .                                         SCHOONEBEEK:   Field Name
WELL.                                      SCHOONEBEEK- 3:   NAME
EDF .m                                              15.12:   ELEV DRILL FLOOR
EPD .                                                   0:   ELEV PERM DATUM
EGL .m                                               12.8:   GROUND LEVEL
LMF .                                                  DF:   LOGS MEAS FROM
COMP.                                                BPME:   OPERATOR
PDAT.                                                 NAP:   PERM DATUM
SPUD.                                          2043/09/12:   SPUD DATE
UWBI.                                      11000074043001:   UWBI
WELL.                                      SCHOONEBEEK- 3:   HOLE NAME
~PARAMETER INFORMATION (log)
LNAM.                               RUN 01 RAW OH 10 1/2":   NAME
LTYP.                                                 01R:   LOG TYPE
LVSN.                                                   1:   LOG VERSION
BS  .1/2"                                              10:   BIT SIZE
BLI .M                                                782:   BOTTOM DEPTH LOGGED
BHIS.                                                MCCC:   BRIEF HISTORY
FHIS.                                     MERGE/COPY/COPY:   FULL HISTORY
MRT .                                                    :   MAX REC TEMP
DFD .                                                    :   MUD DENSITY
DFT .                                                 N/A:   MUD TYPE
RMS .                                                    :   RM
MST .                                                    :   RM TEMP
RMCS.                                                    :   RMC
MCST.                                                    :   RMC TEMP
RMFS.                                                    :   RMF
MFST.                                                    :   RMF TEMP
TCS .                                                 N/A:   TIME SINCE CIRCLN
TLI .M                                                246:   TOP DEPTH LOGGED
~Curve Information Block
#MNEM.UNIT                                        API CODE    No Description
#=========                                        ========    == ===========
DEPT.M                                       00 001 00 00:     1  DEPTH
SN.OHMM                                                  :     2  SHORT NORMAL
SP.MV                                                    :     3  Spontaneous potential
~ASCII
# ...
  283.0068     2.2300    58.9320
  283.1592     2.3200    58.2210
  283.3116     2.3680    57.1910
  283.4640     2.3900    56.4460
  283.6164     2.4200    56.0190
  283.7688     2.4300    55.5240
  283.9212     2.4030    55.0940
  284.0736     2.3720    54.9910
  284.2260     2.3470    55.0740
  284.3784     2.3190    55.2280
  284.5308     2.3000    55.5310
  284.6832     2.2970    56.0430
  284.8356     2.3060    56.7660
  284.9880     2.3210    57.5560
  285.1404     2.3350    58.2400
  285.2928     2.3420    58.8380
  285.4452     2.3350    59.2820
  285.5976     2.3260    59.4730
  285.7500     2.3220    59.6070
  285.9024     2.3020    59.4900
  286.0548     2.2690    58.3730
  286.2072     2.2490    56.5690
  286.3596     2.2540    55.5390
  286.5120     2.2780    55.6190
  286.6644     2.3210    55.7820
  286.8168     2.3870    55.6840
  286.9692     2.4690    55.7940
  287.1216     2.5490    56.0230
  287.2740     2.6250    56.0350
  287.4264     2.7120    56.0820
  287.5788     2.8040    56.2650
  287.7312     2.8780    55.9180
  287.8836     2.9380    54.6500
  288.0360     3.0000    53.0530
  288.1884     3.0600    51.6900
  288.3408     3.0930    50.3680
  288.4932     3.1080    48.9620
  288.6456     3.1080    47.7130
  288.7980     3.0990    46.3860
  288.9504     3.0810    44.7270
  289.1028     3.0450    43.6170
  289.2552     3.0140    44.0470
  289.4076     2.9990    45.4870
  289.5600     2.9540    46.8250
  289.7124     2.8730    47.9440
  289.8648     2.7880    49.2000
  290.0172     2.7080    50.5130
  290.1696     2.6370    51.7270
  290.3220     2.5690    52.9500
  290.4744     2.4750    54.2230
  290.6268     2.3740    55.4730
  290.7792     2.3120    56.7070
  290.9316     2.2640    57.9590
  291.0840     2.1950    59.2180
  291.2364     2.1000    60.4640
  291.3888     2.0120    61.7200
  291.5412     1.9520    63.0000
  291.6936     1.9170    64.1910
  291.8460     1.8880    65.2230
  291.9984     1.8500    66.1120
  292.1508     1.8040    66.9030
  292.3032     1.7720    67.6890
  292.4556     1.7640    68.4450
  292.6080     1.7680    69.1740
  292.7604     1.7680    70.0480
  292.9128     1.7650    70.8750
  293.0652     1.7660    71.2390
  293.2176     1.7690    71.2890
  293.3700     1.7740    71.1060
  293.5224     1.7870    70.8330
  293.6748     1.8090    70.5940
  293.8272     1.8290    70.4390
  293.9796     1.8690    70.4170
  294.1320     1.9380    70.6450
  294.2844     1.9870    71.1610
  294.4368     1.9540    71.8380
  294.5892     1.8670    72.3830
  294.7416     1.7970    72.3260
  294.8940     1.7410    71.3980
  295.0464     1.6790    69.8860
  295.1988     1.6420    68.2080
  295.3512     1.6020    66.6930
  295.5036     1.5200    65.9200
  295.6560     1.4430    66.2700
  295.8084     1.4260    67.1880
  295.9608     1.3710    67.9220
  296.1132     1.4520    68.5130
  296.2656     1.6750    69.2510
  296.4180     1.9130    69.9950
  296.5704     2.1880    70.6350
  296.7228     2.3280    71.3540
  296.8752     2.3900    72.1080
  297.0276     2.5630    72.5730
  297.1800     2.6570    72.6410
  297.3324     2.6860    72.4120
  297.4848     2.7660    71.8470
  297.6372     2.8100    70.9170
  297.7896     2.9350    69.9120
  297.9420     3.0550    69.2130
  298.0944     3.2130    68.9290
  298.2468     3.2640    68.8930
  298.3992     3.5550    68.9040
  298.5516     3.5550    68.8950
  298.7040     3.5550    68.9350
  298.8564     3.4280    69.0300
  299.0088     3.4030    69.0790
  299.1612     3.3780    69.0610
  299.3136     3.3330    69.0570
  299.4660     3.1500    69.0680
  299.6184     3.1310    69.0570
  299.7708     3.1120    69.0600
  299.9232     3.0870    69.0840
  300.0756     2.9920    69.0330
  300.2280     2.9060    68.9270
  300.3804     2.8650    68.9020
  300.5328     2.8360    68.9250
  300.6852     2.8130    68.8610
  300.8376     2.7750    68.7780
  300.9900     2.7040    68.7720
  301.1424     2.6370    68.6960
  301.2948     2.6050    68.4410
  301.4472     2.5720    68.0210
  301.5996     2.5250    67.3370
  301.7520     2.4890    66.6440
  301.9044     2.4860    66.8610
  302.0568     2.5200    68.1850
  302.2092     2.5670    69.4410
  302.3616     2.5990    70.0510
  302.5140     2.6390    70.7480
  302.6664     2.6940    71.2550
  302.8188     2.7390    70.2220
  302.9712     2.7630    68.0970
  303.1236     2.7880    66.7660
  303.2760     2.8220    66.4260
  303.4284     2.8470    65.9080
  303.5808     2.8550    65.1500
  303.7332     2.8560    64.7820
  303.8856     2.8510    64.6180
  304.0380     2.8370    64.2570
  304.1904     2.8110    63.9020
  304.3428     2.7780    63.7950
  304.4952     2.7540    63.8020
  304.6476     2.7330    63.7510
  304.8000     2.6810    63.6590
  304.9524     2.5980    63.6150
  305.1048     2.5390    63.6280
  305.2572     2.5110    63.6360
  305.4096     2.4530    63.6230
  305.5620     2.3610    63.6220
  305.7144     2.3030    63.6280
  305.8668     2.2850    63.6250
  306.0192     2.2500    63.6220
  306.1716     2.1910    63.6240
  306.3240     2.1470    63.6240
  306.4764     2.1270    63.6230
  306.6288     2.1140    63.6230
  306.7812     2.1030    63.6230
  306.9336     2.0930    63.6230
  307.0860     2.0840    63.6230
  307.2384     2.0770    63.6230
  307.3908     2.0720    63.6230
  307.5432     2.0630    63.6230
  307.6956     2.0520    63.6220
  307.8480     2.0430    63.6220
  308.0004     2.0380    63.6230
  308.1528     2.0330    63.6220
  308.3052     2.0230    63.6210
  308.4576     2.0090    63.6220
  308.6100     1.9960    63.6230
  308.7624     1.9910    63.6210
  308.9148     1.9860    63.6210
  309.0672     1.9680    63.6240
  309.2196     1.9440    63.6080
  309.3720     1.9260    63.5720
  309.5244     1.9100    63.5470
  309.6768     1.8920    63.5260
  309.8292     1.8780    63.4570
  309.9816     1.8700    63.3390
  310.1340     1.8560    63.2270
  310.2864     1.8380    63.1340
  310.4388     1.8350    63.0310
  310.5912     1.8480    62.9160
  310.7436     1.8680    62.8070
  310.8960     1.8870    62.7040
  311.0484     1.9050    62.5940
  311.2008     1.9210    62.4830
  311.3532     1.9430    62.3780
  311.5056     1.9680    62.2720
  311.6580     1.9840    62.1600
  311.8104     1.9890    62.0500
  311.9628     1.9880    61.9500
  312.1152     1.9790    61.8390
  312.2676     1.9610    61.7150
  312.4200     1.9410    61.6240
  312.5724     1.9260    61.5950
  312.7248     1.9120    61.6000
  312.8772     1.8900    61.6180
  313.0296     1.8640    61.6590
  313.1820     1.8460    61.7170
  313.3344     1.8360    61.7650
  313.4868     1.8180    61.8060
  313.6392     1.7890    61.8550
  313.7916     1.7680    61.9030
  313.9440     1.7570    61.9470
  314.0964     1.7390    61.9960
  314.2488     1.7120    62.0420
  314.4012     1.6920    62.0660
  314.5536     1.6900    62.0740
  314.7060     1.6980    62.0950
  314.8584     1.7070    62.1330
  315.0108     1.7150    62.1730
  315.1632     1.7250    62.2080
  315.3156     1.7380    62.2450
  315.4680     1.7480    62.2840
  315.6204     1.7480    62.3210
  315.7728     1.7410    62.3570
  315.9252     1.7330    62.3960
  316.0776     1.7310    62.4340
  316.2300     1.7330    62.4700
  316.3824     1.7350    62.5060
  316.5348     1.7370    62.5360
  316.6872     1.7390    62.5390
  316.8396     1.7420    62.5260
  316.9920     1.7480    62.5370
  317.1444     1.7530    62.5500
  317.2968     1.7600    62.5030
  317.4492     1.7740    62.4110
  317.6016     1.7910    62.3650
  317.7540     1.8030    62.3770
  317.9064     1.8120    62.3870
  318.0588     1.8290    62.3780
  318.2112     1.8540    62.3760
  318.3636     1.8750    62.3760
  318.5160     1.8860    62.3660
  318.6684     1.8960    62.3550
  318.8208     1.9160    62.3480
  318.9732     1.9400    62.3390
  319.1256     1.9500    62.3290
  319.2780     1.9480    62.3200
  319.4304     1.9460    62.3120
  319.5828     1.9390    62.3030
  319.7352     1.9200    62.2940
  319.8876     1.9080    62.2840
