~VERSION INFORMATION
VERS.                                                 2.0:   CWLS Log ASCII Standard-VERSION 2.0
WRAP.                                                  NO:   One line per depth step
~Well Information Block
STRT.M                                           700.0000:   Top Depth
STOP.M                                          1057.0000:   Bottom Depth
STEP.M                                             .20000:   Depth Increment
NULL.                                            -999.250:   Null Value
FLD .                                         SCHOONEBEEK:   Field Name
WELL.                                      SCHOONEBEEK- 3:   NAME
EDF .m                                              15.12:   ELEV DRILL FLOOR
EPD .                                                   0:   ELEV PERM DATUM
EGL .m                                               12.8:   GROUND LEVEL
LMF .                                                  DF:   LOGS MEAS FROM
COMP.                                                BPME:   OPERATOR
PDAT.                                                 NAP:   PERM DATUM
SPUD.                                          2043/09/12:   SPUD DATE
UWBI.                                      11000074043001:   UWBI
~PARAMETER INFORMATION (log)
LNAM.                                RUN 03 RAW OH 7 3/5":   NAME
LTYP.                                                 03R:   LOG TYPE
LVSN.                                                   1:   LOG VERSION
BS  .3/5"                                               7:   BIT SIZE
BLI .M                                               1057:   BOTTOM DEPTH LOGGED
BHIS.                                                MCCC:   BRIEF HISTORY
FHIS.                                     MERGE/COPY/COPY:   FULL HISTORY
MRT .                                                    :   MAX REC TEMP
DFD .                                                    :   MUD DENSITY
DFT .                                                 N/A:   MUD TYPE
RMS .                                                    :   RM
MST .                                                    :   RM TEMP
RMCS.                                                    :   RMC
MCST.                                                    :   RMC TEMP
RMFS.                                                    :   RMF
MFST.                                                    :   RMF TEMP
TCS .                                                 N/A:   TIME SINCE CIRCLN
TLI .M                                                700:   TOP DEPTH LOGGED
~Curve Information Block
#MNEM.UNIT                                        API CODE    No Description
#=========                                        ========    == ===========
DEPT.M                                       00 001 00 00:     1  DEPTH
SN.OHMM                                                  :     2  SHORT NORMAL
SP.MV                                                    :     3  Spontaneous potential
~ASCII
# ...
  748.6000     1.3430    53.5270
  748.8000     1.3490    53.6260
  749.0000     1.3710    53.7250
  749.2000     1.3890    53.8250
  749.4000     1.4080    53.9240
  749.6000     1.4090    54.0230
  749.8000     1.4120    54.1220
  750.0000     1.4150    54.4110
  750.2000     1.4180    54.6870
  750.4000     1.4180    54.9630
  750.6000     1.4190    55.2380
  750.8000     1.4210    55.5140
  751.0000     1.4220    55.2870
  751.2000     1.4230    54.9530
  751.4000     1.4240    54.6180
  751.6000     1.4250    54.2840
  751.8000     1.4260    53.9500
  752.0000     1.4270    53.6160
  752.2000     1.4280    53.7000
  752.4000     1.4290    53.6970
  752.6000     1.4300    53.6940
  752.8000     1.4310    53.6910
  753.0000     1.4330    53.6870
  753.2000     1.4340    53.6840
  753.4000     1.4350    53.6810
  753.6000     1.4360    53.6780
  753.8000     1.4370    53.6570
  754.0000     1.4420    53.6300
  754.2000     1.4460    53.6030
  754.4000     1.4500    53.5760
  754.6000     1.4550    53.5480
  754.8000     1.4630    53.5210
  755.0000     1.4740    53.4940
  755.2000     1.5530    53.3060
  755.4000     1.5870    53.0160
  755.6000     1.6040    52.7250
  755.8000     1.5970    52.4340
  756.0000     1.5860    52.1440
  756.2000     1.5330    51.8530
  756.4000     1.4930    51.5630
  756.6000     1.4690    51.2720
  756.8000     1.4750    51.5010
  757.0000     1.4890    51.6910
  757.2000     1.5290    51.8810
  757.4000     1.5660    52.0710
  757.6000     1.6020    52.2600
  757.8000     1.6380    52.4500
  758.0000     1.7230    52.6400
  758.2000     1.7410    52.8290
  758.4000     1.7400    53.0120
  758.6000     1.7330    53.1900
  758.8000     1.7260    53.3680
  759.0000     1.7070    53.5460
  759.2000     1.6820    53.7240
  759.4000     1.6570    53.6310
  759.6000     1.6410    53.5780
  759.8000     1.6300    53.5250
  760.0000     1.6190    53.4720
  760.2000     1.6080    53.4200
  760.4000     1.5980    53.3670
  760.6000     1.5410    53.3140
  760.8000     1.4970    53.2610
  761.0000     1.4540    53.2080
  761.2000     1.4310    53.1550
  761.4000     1.4230    53.1030
  761.6000     1.4630    53.0500
  761.8000     1.5010    52.9970
  762.0000     1.5500    52.9440
  762.2000     1.5840    52.8910
  762.4000     1.6180    52.8380
  762.6000     1.5850    52.7860
  762.8000     1.5260    52.7330
  763.0000     1.4760    52.6800
  763.2000     1.4260    52.6270
  763.4000     1.4220    52.5790
  763.6000     1.4130    52.5340
  763.8000     1.4040    52.4900
  764.0000     1.3940    52.3970
  764.2000     1.3850    52.3150
  764.4000     1.3870    52.2330
  764.6000     1.3850    52.1510
  764.8000     1.3830    52.0690
  765.0000     1.3810    51.9870
  765.2000     1.3790    51.8080
  765.4000     1.3770    51.5670
  765.6000     1.3750    51.3270
  765.8000     1.3730    51.0870
  766.0000     1.3710    50.8460
  766.2000     1.3660    50.6050
  766.4000     1.3590    50.3650
  766.6000     1.3520    50.1240
  766.8000     1.3450    49.8840
  767.0000     1.3380    49.6430
  767.2000     1.3310    50.0970
  767.4000     1.3250    50.7240
  767.6000     1.3180    51.3510
  767.8000     1.3110    51.9790
  768.0000     1.3040    52.6060
  768.2000     1.2970    53.2330
  768.4000     1.2900    53.8600
  768.6000     1.2830    55.7950
  768.8000     1.2820    56.0150
  769.0000     1.2830    55.7400
  769.2000     1.4710    55.5700
  769.4000     1.5330    55.4000
  769.6000     1.5370    55.2300
  769.8000     1.5530    54.1860
  770.0000     1.5690    48.9100
  770.2000     1.5860    51.1410
  770.4000     1.6020    50.9240
  770.6000     1.6180    50.7070
  770.8000     1.5310    50.4890
  771.0000     1.4790    50.2720
  771.2000     1.4320    49.7680
  771.4000     1.3860    49.1260
  771.6000     1.4680    50.2430
  771.8000     1.5390    50.8400
  772.0000     1.6100    51.6180
  772.2000     1.5890    52.4470
  772.4000     1.5750    53.2760
  772.6000     1.5560    54.1050
  772.8000     1.5380    54.4210
  773.0000     1.5190    54.7770
  773.2000     1.5000    55.1330
  773.4000     1.4820    55.2120
  773.6000     1.4820    55.3380
  773.8000     1.4800    55.4640
  774.0000     1.4770    55.5900
  774.2000     1.4960    55.7160
  774.4000     1.5090    55.8420
  774.6000     1.5230    55.9680
  774.8000     1.5370    56.0940
  775.0000     1.5500    56.2200
  775.2000     1.5460    56.2180
  775.4000     1.5260    56.1750
  775.6000     1.5090    56.1310
  775.8000     1.4910    56.0880
  776.0000     1.4730    56.0450
  776.2000     1.4550    56.0020
  776.4000     1.4380    55.9590
  776.6000     1.4370    55.9150
  776.8000     1.4370    55.8720
  777.0000     1.4370    55.8290
  777.2000     1.4380    55.8480
  777.4000     1.4380    55.9100
  777.6000     1.4390    56.1500
  777.8000     1.4380    56.3810
  778.0000     1.4380    56.6110
  778.2000     1.4380    56.8420
  778.4000     1.4380    57.0730
  778.6000     1.4380    57.3030
  778.8000     1.4370    57.5340
  779.0000     1.4370    57.7650
  779.2000     1.4640    57.9950
  779.4000     1.4820    58.2260
  779.6000     1.5000    58.4570
  779.8000     1.5180    58.6870
  780.0000     1.5360    58.9180
  780.2000     1.5540    59.1490
  780.4000     1.5720    59.3790
  780.6000     1.5530    59.4050
  780.8000     1.5010    59.3680
  781.0000     1.4660    59.3310
  781.2000     1.4460    59.2950
  781.4000     1.4690    59.2580
  781.6000     1.5120    59.2210
  781.8000     1.5540    59.1850
  782.0000     1.5900    59.1480
  782.2000     1.5740    59.7000
  782.4000     1.5580    60.1820
  782.6000     1.5420    60.6640
  782.8000     1.5090    61.1460
  783.0000     1.4610    61.7760
  783.2000     1.4470    61.0210
  783.4000     1.4390    60.0090
  783.6000     1.4350    58.9960
  783.8000     1.4210    57.9830
  784.0000     1.4070    57.3850
  784.2000     1.4170    57.0410
  784.4000     1.4410    57.1220
  784.6000     1.4650    57.3630
  784.8000     1.4890    57.6050
  785.0000     1.5260    57.8470
  785.2000     1.5620    59.1190
  785.4000     1.5970    60.5230
  785.6000     1.6330    61.9260
  785.8000     1.6690    63.5360
  786.0000     1.7230    63.1020
  786.2000     1.7260    63.2000
  786.4000     1.7170    62.5980
  786.6000     1.7070    62.2280
  786.8000     1.6980    61.8580
  787.0000     1.6890    62.0330
  787.2000     1.6870    62.0920
  787.4000     1.6830    62.1500
  787.6000     1.6800    62.2090
  787.8000     1.6770    62.2670
  788.0000     1.6740    62.6350
  788.2000     1.6710    63.0550
  788.4000     1.6670    63.4740
  788.6000     1.6440    63.8930
  788.8000     1.6120    64.3130
  789.0000     1.5810    64.7320
  789.2000     1.4940    65.1510
  789.4000     1.4230    65.0110
  789.6000     1.3510    64.5020
  789.8000     1.2800    63.9920
  790.0000     1.2080    63.4820
  790.2000     1.1640    62.8270
  790.4000     1.1120    62.0630
  790.6000     1.2180    61.8740
  790.8000     1.2840    61.5680
  791.0000     1.2950    61.2620
  791.2000     1.3160    60.9560
  791.4000     1.3370    60.3020
  791.6000     1.3440    59.6060
  791.8000     1.3270    58.9110
  792.0000     1.2970    58.2150
  792.2000     1.3010    58.7190
  792.4000     1.3260    59.0860
  792.6000     1.3630    60.7310
  792.8000     1.3990    62.7900
  793.0000     1.4360    63.2360
  793.2000     1.4720    63.9010
  793.4000     1.5420    64.5670
  793.6000     1.6790    64.4510
  793.8000     1.5440    63.8960
  794.0000     1.5120    62.2350
  794.2000     1.4790    60.3280
  794.4000     1.4280    58.4210
  794.6000     1.3590    58.4030
  794.8000     1.3490    58.5090
  795.0000     1.3450    58.8300
  795.2000     1.3530    59.1520
  795.4000     1.3590    58.5540
  795.6000     1.3650    57.9000
  795.8000     1.3710    57.2460
  796.0000     1.3780    54.5180
  796.2000     1.3780    52.4760
  796.4000     1.3800    51.5210
  796.6000     1.3810    51.8090
  796.8000     1.3820    51.6760
  797.0000     1.3840    51.5430
