~VERSION INFORMATION
VERS.                                                 2.0:   CWLS Log ASCII Standard-VERSION 2.0
WRAP.                                                  NO:   One line per depth step
~Well Information Block
STRT.M                                           245.9736:   Top Depth
STOP.M                                           781.9644:   Bottom Depth
STEP.M                                             .15240:   Depth Increment
NULL.                                            -999.250:   Null Value
FLD .                                         SCHOONEBEEK:   Field Name
WELL.                                      SCHOONEBEEK- 3:   NAME
EDF .m                                              15.12:   ELEV DRILL FLOOR
EPD .                                                   0:   ELEV PERM DATUM
EGL .m                                               12.8:   GROUND LEVEL
LMF .                                                  DF:   LOGS MEAS FROM
COMP.                                                BPME:   OPERATOR
PDAT.                                                 NAP:   PERM DATUM
SPUD.                                          2043/09/12:   SPUD DATE
UWBI.                                      11000074043001:   UWBI
WELL.                                      SCHOONEBEEK- 3:   HOLE NAME
~PARAMETER INFORMATION (log)
LNAM.                               RUN 01 RAW OH 10 1/2":   NAME
LTYP.                                                 01R:   LOG TYPE
LVSN.                                                   1:   LOG VERSION
BS  .1/2"                                              10:   BIT SIZE
BLI .M                                                782:   BOTTOM DEPTH LOGGED
BHIS.                                                MCCC:   BRIEF HISTORY
FHIS.                                     MERGE/COPY/COPY:   FULL HISTORY
MRT .                                                    :   MAX REC TEMP
DFD .                                                    :   MUD DENSITY
DFT .                                                 N/A:   MUD TYPE
RMS .                                                    :   RM
MST .                                                    :   RM TEMP
RMCS.                                                    :   RMC
MCST.                                                    :   RMC TEMP
RMFS.                                                    :   RMF
MFST.                                                    :   RMF TEMP
TCS .                                                 N/A:   TIME SINCE CIRCLN
TLI .M                                                246:   TOP DEPTH LOGGED
~Curve Information Block
#MNEM.UNIT                                        API CODE    No Description
#=========                                        ========    == ===========
DEPT.M                                       00 001 00 00:     1  DEPTH
SN.OHMM                                                  :     2  SHORT NORMAL
SP.MV                                                    :     3  Spontaneous potential
~ASCII
# ...
  357.0732     2.0310    67.3960
  357.2256     2.0130    67.3260
  357.3780     1.9950    67.2120
  357.5304     1.9710    67.0510
  357.6828     1.9440    66.8690
  357.8352     1.9230    66.7490
  357.9876     1.9030    66.7320
  358.1400     1.8760    66.7340
  358.2924     1.8520    66.7130
  358.4448     1.8410    66.7800
  358.5972     1.8390    66.9910
  358.7496     1.8430    67.2230
  358.9020     1.8570    67.3640
  359.0544     1.8880    67.4730
  359.2068     1.9250    67.6990
  359.3592     1.9530    68.0860
  359.5116     1.9790    68.4810
  359.6640     2.0210    68.7150
  359.8164     2.0800    68.8790
  359.9688     2.1380    69.1360
  360.1212     2.1960    69.4340
  360.2736     2.2560    69.7100
  360.4260     2.3050    69.9890
  360.5784     2.3410    70.0270
  360.7308     2.3780    69.5310
  360.8832     2.4030    68.7850
  361.0356     2.4010    68.2950
  361.1880     2.3850    67.9850
  361.3404     2.3730    67.4910
  361.4928     2.3480    66.8480
  361.6452     2.3090    66.3130
  361.7976     2.2860    65.9400
  361.9500     2.2840    65.6950
  362.1024     2.2750    65.5860
  362.2548     2.2570    65.5440
  362.4072     2.2600    65.4540
  362.5596     2.2900    65.2960
  362.7120     2.3210    65.0880
  362.8644     2.3380    64.8230
  363.0168     2.3450    64.5670
  363.1692     2.3410    64.4520
  363.3216     2.3200    64.4890
  363.4740     2.2870    64.5950
  363.6264     2.2600    64.7260
  363.7788     2.2400    64.8410
  363.9312     2.2110    64.8730
  364.0836     2.1730    64.8000
  364.2360     2.1430    64.5800
  364.3884     2.1260    64.1700
  364.5408     2.1150    63.7260
  364.6932     2.1150    63.4960
  364.8456     2.1330    63.4840
  364.9980     2.1610    63.4930
  365.1504     2.1940    63.4530
  365.3028     2.2320    63.4670
  365.4552     2.2810    63.6350
  365.6076     2.3420    63.9520
  365.7600     2.3880    64.3530
  365.9124     2.3910    64.7740
  366.0648     2.3680    65.1370
  366.2172     2.3460    65.3360
  366.3696     2.3120    65.3570
  366.5220     2.2610    65.2990
  366.6744     2.2260    65.2180
  366.8268     2.2240    65.1270
  366.9792     2.2360    65.0630
  367.1316     2.2520    65.0170
  367.2840     2.2710    64.9760
  367.4364     2.2820    65.0810
  367.5888     2.2810    65.4530
  367.7412     2.2750    65.9370
  367.8936     2.2780    66.2990
  368.0460     2.3030    66.5360
  368.1984     2.3520    66.7440
  368.3508     2.4000    66.8790
  368.5032     2.4280    66.8860
  368.6556     2.4700    66.8680
  368.8080     2.5560    66.9040
  368.9604     2.6500    66.8770
  369.1128     2.7140    66.6980
  369.2652     2.7610    66.4650
  369.4176     2.8110    66.2370
  369.5700     2.8550    65.9250
  369.7224     2.8820    65.5460
  369.8748     2.8700    65.2810
  370.0272     2.8020    65.1940
  370.1796     2.6920    65.1810
  370.3320     2.5730    65.1740
  370.4844     2.4690    65.1740
  370.6368     2.4100    65.1800
  370.7892     2.3890    65.1820
  370.9416     2.3370    65.1680
  371.0940     2.2370    65.1230
  371.2464     2.1700    65.0580
  371.3988     2.1650    64.9980
  371.5512     2.1620    64.9430
  371.7036     2.1380    64.8840
  371.8560     2.1230    64.8240
  372.0084     2.1220    64.7660
  372.1608     2.1160    64.7080
  372.3132     2.1060    64.6490
  372.4656     2.0940    64.5910
  372.6180     2.0790    64.5320
  372.7704     2.0670    64.4740
  372.9228     2.0590    64.4160
  373.0752     2.0500    64.3570
  373.2276     2.0390    64.3000
  373.3800     2.0320    64.2440
  373.5324     2.0300    64.1920
  373.6848     2.0270    64.1420
  373.8372     2.0180    64.0920
  373.9896     2.0070    64.0430
  374.1420     2.0000    63.9930
  374.2944     1.9950    63.9430
  374.4468     1.9860    63.8930
  374.5992     1.9760    63.8440
  374.7516     1.9750    63.7940
  374.9040     1.9830    63.7440
  375.0564     1.9950    63.6950
  375.2088     2.0200    63.6450
  375.3612     2.0570    63.5950
  375.5136     2.0850    63.5450
  375.6660     2.0940    63.4960
  375.8184     2.1010    63.4460
  375.9708     2.1150    63.3960
  376.1232     2.1300    63.3470
  376.2756     2.1410    63.2980
  376.4280     2.1470    63.2470
  376.5804     2.1400    63.1970
  376.7328     2.1190    63.1590
  376.8852     2.0990    63.1400
  377.0376     2.0870    63.1270
  377.1900     2.0760    63.1120
  377.3424     2.0640    63.0980
  377.4948     2.0620    63.0860
  377.6472     2.0690    63.0690
  377.7996     2.0880    63.0540
  377.9520     2.1140    63.0450
  378.1044     2.1260    63.0280
  378.2568     2.1230    63.0040
  378.4092     2.1270    63.0180
  378.5616     2.1280    63.0920
  378.7140     2.0940    63.1910
  378.8664     2.0340    63.2750
  379.0188     1.9940    63.3460
  379.1712     1.9740    63.4310
  379.3236     1.9430    63.5290
  379.4760     1.9010    63.6100
  379.6284     1.8650    63.6610
  379.7808     1.8320    63.6970
  379.9332     1.7950    63.7320
  380.0856     1.7580    63.7750
  380.2380     1.7220    63.8250
  380.3904     1.6870    63.8600
  380.5428     1.6520    63.8830
  380.6952     1.6140    63.9700
  380.8476     1.5760    64.2000
  381.0000     1.5640    64.5210
  381.1524     1.5880    64.7830
  381.3048     1.6210    64.9680
  381.4572     1.6430    65.2260
  381.6096     1.6650    65.6040
  381.7620     1.6940    65.9830
  381.9144     1.7180    66.3580
  382.0668     1.7370    66.7780
  382.2192     1.7710    67.0140
  382.3716     1.8100    66.8450
  382.5240     1.8050    66.5110
  382.6764     1.7490    66.3440
  382.8288     1.6870    66.2770
  382.9812     1.6390    66.1500
  383.1336     1.5870    66.0690
  383.2860     1.5360    66.1310
  383.4384     1.5180    66.2630
  383.5908     1.5350    66.4360
  383.7432     1.5620    66.6940
  383.8956     1.5830    66.9590
  384.0480     1.6010    67.1180
  384.2004     1.6240    67.2640
  384.3528     1.6530    67.5780
  384.5052     1.6650    68.0390
  384.6576     1.6460    68.4940
  384.8100     1.6120    68.9220
  384.9624     1.5770    69.3700
  385.1148     1.5430    69.8050
  385.2672     1.5130    70.2340
  385.4196     1.4990    70.7240
  385.5720     1.4980    71.1920
  385.7244     1.4940    71.5150
  385.8768     1.4860    71.8030
  386.0292     1.4800    72.2040
  386.1816     1.4770    72.5660
  386.3340     1.4740    72.6780
  386.4864     1.4740    72.6000
  386.6388     1.4830    72.4790
  386.7912     1.5010    72.3090
  386.9436     1.5200    72.0690
  387.0960     1.5370    71.8330
  387.2484     1.5610    71.6250
  387.4008     1.5910    71.4070
  387.5532     1.6210    71.1800
  387.7056     1.6360    70.9340
  387.8580     1.6380    70.5810
  388.0104     1.5910    70.1030
  388.1628     1.5130    69.6880
  388.3152     1.4760    69.4960
  388.4676     1.4690    69.4210
  388.6200     1.4670    69.3120
  388.7724     1.5180    69.2450
  388.9248     1.6290    69.2390
  389.0772     1.7180    68.9910
  389.2296     1.7570    68.3200
  389.3820     1.8060    67.5650
  389.5344     1.8730    67.1030
  389.6868     1.9390    66.8310
  389.8392     2.0220    66.4790
  389.9916     2.0890    66.0570
  390.1440     2.0690    65.6840
  390.2964     1.9940    65.3280
  390.4488     1.9340    64.9400
  390.6012     1.8810    64.5880
  390.7536     1.8210    64.3700
  390.9060     1.7810    64.2850
  391.0584     1.7720    64.2280
  391.2108     1.7720    64.0980
  391.3632     1.7660    63.9290
  391.5156     1.7550    63.8120
  391.6680     1.7330    63.7380
  391.8204     1.6930    63.6610
  391.9728     1.6430    63.6140
  392.1252     1.5960    63.6200
  392.2776     1.5500    63.6310
  392.4300     1.5010    63.6230
  392.5824     1.4520    63.6220
  392.7348     1.4220    63.6230
  392.8872     1.4160    63.6190
  393.0396     1.4200    63.6260
  393.1920     1.4260    63.6290
  393.3444     1.4350    63.5900
  393.4968     1.4460    63.5150
  393.6492     1.4550    63.4250
  393.8016     1.4560    63.3380
  393.9540     1.4560    63.2910
