~VERSION INFORMATION
VERS.                                                 2.0:   CWLS Log ASCII Standard-VERSION 2.0
WRAP.                                                  NO:   One line per depth step
~Well Information Block
STRT.M                                           245.9736:   Top Depth
STOP.M                                           781.9644:   Bottom Depth
STEP.M                                             .15240:   Depth Increment
NULL.                                            -999.250:   Null Value
FLD .                                         SCHOONEBEEK:   Field Name
WELL.                                      SCHOONEBEEK- 3:   NAME
EDF .m                                              15.12:   ELEV DRILL FLOOR
EPD .                                                   0:   ELEV PERM DATUM
EGL .m                                               12.8:   GROUND LEVEL
LMF .                                                  DF:   LOGS MEAS FROM
COMP.                                                BPME:   OPERATOR
PDAT.                                                 NAP:   PERM DATUM
SPUD.                                          2043/09/12:   SPUD DATE
UWBI.                                      11000074043001:   UWBI
WELL.                                      SCHOONEBEEK- 3:   HOLE NAME
~PARAMETER INFORMATION (log)
LNAM.                               RUN 01 RAW OH 10 1/2":   NAME
LTYP.                                                 01R:   LOG TYPE
LVSN.                                                   1:   LOG VERSION
BS  .1/2"                                              10:   BIT SIZE
BLI .M                                                782:   BOTTOM DEPTH LOGGED
BHIS.                                                MCCC:   BRIEF HISTORY
FHIS.                                     MERGE/COPY/COPY:   FULL HISTORY
MRT .                                                    :   MAX REC TEMP
DFD .                                                    :   MUD DENSITY
DFT .                                                 N/A:   MUD TYPE
RMS .                                                    :   RM
MST .                                                    :   RM TEMP
RMCS.                                                    :   RMC
MCST.                                                    :   RMC TEMP
RMFS.                                                    :   RMF
MFST.                                                    :   RMF TEMP
TCS .                                                 N/A:   TIME SINCE CIRCLN
TLI .M                                                246:   TOP DEPTH LOGGED
~Curve Information Block
#MNEM.UNIT                                        API CODE    No Description
#=========                                        ========    == ===========
DEPT.M                                       00 001 00 00:     1  DEPTH
SN.OHMM                                                  :     2  SHORT NORMAL
SP.MV                                                    :     3  Spontaneous potential
~ASCII
# ...
  690.3720     2.9170    42.0230
  690.5244     2.9060    41.9670
  690.6768     2.8940    41.9120
  690.8292     2.8740    41.8770
  690.9816     2.8520    41.8690
  691.1340     2.8400    41.8730
  691.2864     2.8320    41.8750
  691.4388     2.8170    41.8760
  691.5912     2.7940    41.8800
  691.7436     2.7740    41.8840
  691.8960     2.7610    41.8860
  692.0484     2.7590    41.8890
  692.2008     2.7840    41.8920
  692.3532     2.8310    41.8950
  692.5056     2.8650    41.8980
  692.6580     2.8860    41.9010
  692.8104     2.9420    41.9040
  692.9628     3.0290    41.9070
  693.1152     3.0840    41.9100
  693.2676     3.0920    41.9130
  693.4200     3.0820    41.9160
  693.5724     3.0550    41.9190
  693.7248     3.0090    41.9220
  693.8772     2.9670    41.9250
  694.0296     2.9370    41.9280
  694.1820     2.9110    41.9310
  694.3344     2.8930    41.9340
  694.4868     2.8890    41.9370
  694.6392     2.8870    41.9400
  694.7916     2.8780    41.9430
  694.9440     2.8700    41.9460
  695.0964     2.8670    41.9490
  695.2488     2.8610    41.9520
  695.4012     2.8480    41.9550
  695.5536     2.8330    41.9580
  695.7060     2.8140    41.9610
  695.8584     2.7810    41.9640
  696.0108     2.7370    41.9670
  696.1632     2.7060    41.9700
  696.3156     2.7000    41.9730
  696.4680     2.7160    41.9760
  696.6204     2.7550    41.9790
  696.7728     2.8070    41.9820
  696.9252     2.8460    41.9850
  697.0776     2.8820    41.9880
  697.2300     2.9410    41.9910
  697.3824     2.9920    41.9940
  697.5348     2.9940    41.9970
  697.6872     2.9810    42.0000
  697.8396     2.9610    42.0040
  697.9920     2.8640    42.0080
  698.1444     2.6940    42.0110
  698.2968     2.5860    42.0130
  698.4492     2.5980    42.0200
  698.6016     2.6490    42.0230
  698.7540     2.6810    42.0190
  698.9064     2.7110    42.0300
  699.0588     2.7510    42.0420
  699.2112     2.7910    42.0230
  699.3636     2.8300    42.0210
  699.5160     2.8440    42.0610
  699.6684     2.8420    42.0320
  699.8208     2.8090    41.9650
  699.9732     2.7350    42.1370
  700.1256     2.6710    42.6220
  700.2780     2.6400    43.1680
  700.4304     2.6100    43.6580
  700.5828     2.5620    44.1450
  700.7352     2.5230    44.5600
  700.8876     2.5060    44.9120
  701.0400     2.4940    45.4130
  701.1924     2.4990    46.1180
  701.3448     2.5340    46.8940
  701.4972     2.5720    47.6660
  701.6496     2.5820    48.2870
  701.8020     2.5590    48.4400
  701.9544     2.5100    47.9430
  702.1068     2.4640    46.9350
  702.2592     2.4250    45.6970
  702.4116     2.3860    44.3820
  702.5640     2.3500    42.9840
  702.7164     2.3180    41.6950
  702.8688     2.2750    40.9980
  703.0212     2.2420    41.0530
  703.1736     2.2670    41.3980
  703.3260     2.3260    41.6100
  703.4784     2.3670    41.7280
  703.6308     2.4170    41.8570
  703.7832     2.5070    41.9620
  703.9356     2.5750    42.0500
  704.0880     2.6160    42.1320
  704.2404     2.7390    42.1390
  704.3928     2.9770    42.0510
  704.5452     3.1250    41.9420
  704.6976     3.1580    41.8430
  704.8500     3.2180    41.7350
  705.0024     3.2690    41.6240
  705.1548     3.1980    41.5200
  705.3072     3.0710    41.3950
  705.4596     3.0000    41.2420
  705.6120     2.9660    41.1200
  705.7644     2.9090    41.0790
  705.9168     2.8500    41.1020
  706.0692     2.8090    41.1430
  706.2216     2.7480    41.1840
  706.3740     2.6920    41.2280
  706.5264     2.6720    41.2740
  706.6788     2.6320    41.3180
  706.8312     2.5480    41.3590
  706.9836     2.5480    41.4020
  707.1360     2.6090    41.4510
  707.2884     2.6440    41.4920
  707.4408     2.6890    41.5230
  707.5932     2.7370    41.5770
  707.7456     2.7810    41.6780
  707.8980     2.8500    41.7900
  708.0504     2.9210    41.8810
  708.2028     2.9920    41.9700
  708.3552     3.0660    42.0710
  708.5076     3.1320    42.1640
  708.6600     3.2080    42.2500
  708.8124     3.3040    42.3480
  708.9648     3.4280    42.4380
  709.1172     3.5330    42.4880
  709.2696     3.5550    42.5030
  709.4220     3.5470    42.4740
  709.5744     3.5410    42.3510
  709.7268     3.5070    42.1620
  709.8792     3.4710    42.0390
  710.0316     3.4520    42.0240
  710.1840     3.4380    42.0070
  710.3364     3.4130    41.8920
  710.4888     3.3900    41.7080
  710.6412     3.3940    41.5400
  710.7936     3.3840    41.4370
  710.9460     3.3970    41.3750
  711.0984     3.4880    41.2660
  711.2508     3.5350    41.0900
  711.4032     3.5540    40.9310
  711.5556     3.5910    40.8040
  711.7080     3.6800    40.6080
  711.8604     3.7690    40.3160
  712.0128     3.7770    40.0540
  712.1652     3.7980    39.9320
  712.3176     3.8860    39.9160
  712.4700     3.7890    39.8480
  712.6224     3.4850    39.6490
  712.7748     3.3280    39.4460
  712.9272     3.3310    39.3730
  713.0796     3.2620    39.3550
  713.2320     3.1770    39.2790
  713.3844     3.1530    39.2120
  713.5368     3.1100    39.2250
  713.6892     3.0740    39.2490
  713.8416     3.0370    39.2290
  713.9940     2.9710    39.2190
  714.1464     2.9060    39.2620
  714.2988     2.8560    39.3440
  714.4512     2.7950    39.4350
  714.6036     2.7600    39.5040
  714.7560     2.7270    39.5650
  714.9084     2.6790    39.6850
  715.0608     2.6280    39.8660
  715.2132     2.5800    39.9930
  715.3656     2.5300    40.0120
  715.5180     2.4740    40.0160
  715.6704     2.4450    40.0860
  715.8228     2.4080    40.1820
  715.9752     2.3700    40.2530
  716.1276     2.3650    40.3180
  716.2800     2.3860    40.3980
  716.4324     2.4050    40.4780
  716.5848     2.4180    40.5440
  716.7372     2.4340    40.6270
  716.8896     2.4520    40.7750
  717.0420     2.4680    40.9540
  717.1944     2.4770    41.0700
  717.3468     2.4770    41.1000
  717.4992     2.4640    41.1020
  717.6516     2.4390    41.0710
  717.8040     2.4010    40.9510
  717.9564     2.3560    40.7770
  718.1088     2.3150    40.6250
  718.2612     2.2810    40.4770
  718.4136     2.2480    40.3080
  718.5660     2.2100    40.1640
  718.7184     2.1720    40.0180
  718.8708     2.1340    39.7460
  719.0232     2.0960    39.3830
  719.1756     2.0610    39.1200
  719.3280     2.0300    39.0150
  719.4804     1.9970    38.9630
  719.6328     1.9640    38.9170
  719.7852     1.9400    38.9070
  719.9376     1.9340    38.9260
  720.0900     1.9400    38.9330
  720.2424     1.9490    38.9150
  720.3948     1.9560    38.9050
  720.5472     1.9620    38.9560
  720.6996     1.9690    39.0470
  720.8520     1.9740    39.0830
  721.0044     1.9750    39.0360
  721.1568     1.9740    38.9780
  721.3092     1.9760    38.9480
  721.4616     1.9740    38.9290
  721.6140     1.9620    38.9160
  721.7664     1.9450    38.9180
  721.9188     1.9320    38.9230
  722.0712     1.9230    38.9230
  722.2236     1.9100    38.9180
  722.3760     1.8970    38.9180
  722.5284     1.8870    38.9270
  722.6808     1.8800    38.9220
  722.8332     1.8740    38.9070
  722.9856     1.8670    38.9420
  723.1380     1.8610    39.0650
  723.2904     1.8550    39.2300
  723.4428     1.8480    39.3920
  723.5952     1.8420    39.5480
  723.7476     1.8360    39.6780
  723.9000     1.8300    39.7690
  724.0524     1.8230    39.8550
  724.2048     1.8160    39.9750
  724.3572     1.8110    40.1080
  724.5096     1.8100    40.2140
  724.6620     1.8110    40.3190
  724.8144     1.8120    40.4780
  724.9668     1.8120    40.6480
  725.1192     1.8130    40.7430
  725.2716     1.8140    40.8110
  725.4240     1.8150    40.9440
  725.5764     1.8160    41.0690
  725.7288     1.8170    41.0970
  725.8812     1.8180    41.1220
  726.0336     1.8180    41.2110
  726.1860     1.8190    41.2650
  726.3384     1.8200    41.2510
  726.4908     1.8210    41.2450
  726.6432     1.8220    41.2490
  726.7956     1.8230    41.2370
  726.9480     1.8230    41.2770
  727.1004     1.8240    41.3740
  727.2528     1.8250    41.4150
