~VERSION INFORMATION
VERS.                                                 2.0:   CWLS Log ASCII Standard-VERSION 2.0
WRAP.                                                  NO:   One line per depth step
~Well Information Block
STRT.M                                           950.0000:   Top Depth
STOP.M                                          1110.6000:   Bottom Depth
STEP.M                                             .20000:   Depth Increment
NULL.                                            -999.250:   Null Value
FLD .                                         SCHOONEBEEK:   Field Name
WELL.                                      SCHOONEBEEK- 3:   NAME
EDF .m                                              15.12:   ELEV DRILL FLOOR
EPD .                                                   0:   ELEV PERM DATUM
EGL .m                                               12.8:   GROUND LEVEL
LMF .                                                  DF:   LOGS MEAS FROM
COMP.                                                BPME:   OPERATOR
PDAT.                                                 NAP:   PERM DATUM
SPUD.                                          2043/09/12:   SPUD DATE
UWBI.                                      11000074043001:   UWBI
WELL.                                      SCHOONEBEEK- 3:   HOLE NAME
~PARAMETER INFORMATION (log)
LNAM.                                RUN 04 RAW OH 7 3/5":   NAME
LTYP.                                                 04R:   LOG TYPE
LVSN.                                                   1:   LOG VERSION
BS  .3/5"                                               7:   BIT SIZE
BLI .M                                               1114:   BOTTOM DEPTH LOGGED
BHIS.                                                MCCC:   BRIEF HISTORY
FHIS.                                     MERGE/COPY/COPY:   FULL HISTORY
MRT .                                                    :   MAX REC TEMP
DFD .                                                    :   MUD DENSITY
DFT .                                                 N/A:   MUD TYPE
RMS .                                                    :   RM
MST .                                                    :   RM TEMP
RMCS.                                                    :   RMC
MCST.                                                    :   RMC TEMP
RMFS.                                                    :   RMF
MFST.                                                    :   RMF TEMP
TCS .                                                 N/A:   TIME SINCE CIRCLN
TLI .M                                                950:   TOP DEPTH LOGGED
~Curve Information Block
#MNEM.UNIT                                        API CODE    No Description
#=========                                        ========    == ===========
DEPT.M                                       00 001 00 00:     1  DEPTH
SN.OHMM                                                  :     2  SHORT NORMAL
SP.MV                                                    :     3  Spontaneous potential
~ASCII
  950.0000  -999.2500    29.9310
  950.2000  -999.2500    29.7050
  950.4000  -999.2500    29.4800
  950.6000  -999.2500    29.2540
  950.8000  -999.2500    29.0280
  951.0000  -999.2500    29.0650
  951.2000  -999.2500    29.1260
  951.4000  -999.2500    29.1870
  951.6000  -999.2500    29.2480
  951.8000  -999.2500    29.3090
  952.0000  -999.2500    29.3710
  952.2000  -999.2500    29.4320
  952.4000  -999.2500    29.4930
  952.6000  -999.2500    29.5540
  952.8000  -999.2500    29.6160
  953.0000  -999.2500    29.6770
  953.2000  -999.2500    29.5150
  953.4000  -999.2500    29.4110
  953.6000  -999.2500    29.3080
  953.8000  -999.2500    29.2040
  954.0000  -999.2500    29.1010
  954.2000  -999.2500    29.0800
  954.4000  -999.2500    29.1010
  954.6000  -999.2500    29.1210
  954.8000  -999.2500    29.1420
  955.0000  -999.2500    29.1630
  955.2000  -999.2500    28.8930
  955.4000  -999.2500    28.6680
  955.6000  -999.2500    28.4440
  955.8000  -999.2500    28.2200
  956.0000  -999.2500    28.1680
  956.2000  -999.2500    28.0780
  956.4000  -999.2500    27.9880
  956.6000  -999.2500    27.8970
  956.8000  -999.2500    27.8070
  957.0000  -999.2500    27.7170
  957.2000  -999.2500    27.6260
  957.4000  -999.2500    27.5360
  957.6000  -999.2500    27.4460
  957.8000  -999.2500    27.3550
  958.0000  -999.2500    27.2650
  958.2000  -999.2500    27.1740
  958.4000  -999.2500    27.0950
  958.6000  -999.2500    27.0200
  958.8000  -999.2500    26.9440
  959.0000  -999.2500    27.2300
  959.2000  -999.2500    27.5120
  959.4000  -999.2500    27.7940
  959.6000  -999.2500    27.7110
  959.8000  -999.2500    27.7030
  960.0000  -999.2500    27.6940
  960.2000  -999.2500    27.6850
  960.4000  -999.2500    27.6770
  960.6000  -999.2500    27.6680
  960.8000  -999.2500    27.6600
  961.0000  -999.2500    27.5890
  961.2000  -999.2500    27.4730
  961.4000  -999.2500    27.3570
  961.6000  -999.2500    27.2420
  961.8000  -999.2500    27.1260
  962.0000  -999.2500    27.0100
  962.2000  -999.2500    26.6860
  962.4000  -999.2500    26.3980
  962.6000  -999.2500    26.1050
  962.8000  -999.2500    25.8110
  963.0000  -999.2500    26.1150
  963.2000  -999.2500    26.2560
  963.4000  -999.2500    26.3960
  963.6000  -999.2500    26.4600
  963.8000  -999.2500    26.4600
  964.0000  -999.2500    26.4590
  964.2000  -999.2500    26.2810
  964.4000  -999.2500    25.9460
  964.6000  -999.2500    25.6110
  964.8000  -999.2500    25.2770
  965.0000  -999.2500    25.6380
  965.2000  -999.2500    26.1430
  965.4000  -999.2500    26.6490
  965.6000  -999.2500    27.1550
  965.8000  -999.2500    27.6610
  966.0000  -999.2500    27.4400
  966.2000  -999.2500    27.1100
  966.4000  -999.2500    26.7920
  966.6000  -999.2500    26.4810
  966.8000  -999.2500    26.1710
  967.0000  -999.2500    25.8610
  967.2000  -999.2500    25.5500
  967.4000  -999.2500    25.2400
  967.6000  -999.2500    25.1810
  967.8000  -999.2500    25.2220
  968.0000  -999.2500    25.2640
  968.2000  -999.2500    25.3050
  968.4000  -999.2500    25.3470
  968.6000  -999.2500    25.3890
  968.8000  -999.2500    25.4300
  969.0000  -999.2500    25.4720
  969.2000  -999.2500    25.5130
  969.4000  -999.2500    25.5550
  969.6000  -999.2500    25.5960
  969.8000  -999.2500    25.6380
  970.0000  -999.2500    25.6790
  970.2000  -999.2500    25.7210
  970.4000  -999.2500    25.6760
  970.6000  -999.2500    25.5940
  970.8000  -999.2500    25.5120
  971.0000  -999.2500    25.4310
  971.2000  -999.2500    25.3490
  971.4000  -999.2500    25.2670
  971.6000  -999.2500    25.1860
  971.8000  -999.2500    25.1040
  972.0000  -999.2500    25.0230
  972.2000  -999.2500    24.9410
  972.4000  -999.2500    24.8590
  972.6000  -999.2500    24.7780
  972.8000  -999.2500    24.6960
  973.0000  -999.2500    24.6150
  973.2000  -999.2500    24.5330
  973.4000  -999.2500    24.4510
  973.6000  -999.2500    24.3700
  973.8000  -999.2500    24.2880
  974.0000  -999.2500    24.2070
  974.2000  -999.2500    24.1250
  974.4000  -999.2500    24.0430
  974.6000  -999.2500    24.0070
  974.8000  -999.2500    23.9700
  975.0000  -999.2500    23.9340
  975.2000  -999.2500    23.8980
  975.4000  -999.2500    23.8620
  975.6000  -999.2500    23.8250
  975.8000  -999.2500    23.7890
  976.0000  -999.2500    23.7530
  976.2000  -999.2500    23.7170
  976.4000  -999.2500    23.6800
  976.6000  -999.2500    23.6440
  976.8000  -999.2500    23.6080
  977.0000  -999.2500    23.5720
  977.2000  -999.2500    23.5350
  977.4000  -999.2500    23.4990
  977.6000  -999.2500    23.4630
  977.8000  -999.2500    23.3570
  978.0000  -999.2500    23.2540
  978.2000  -999.2500    23.1520
  978.4000  -999.2500    23.0500
  978.6000  -999.2500    22.9480
  978.8000  -999.2500    22.8460
  979.0000  -999.2500    22.7440
  979.2000  -999.2500    22.6420
  979.4000  -999.2500    22.5910
  979.6000  -999.2500    22.5430
  979.8000  -999.2500    22.4950
  980.0000  -999.2500    22.4470
  980.2000  -999.2500    22.3990
  980.4000  -999.2500    22.3510
  980.6000  -999.2500    22.3030
  980.8000  -999.2500    22.2550
  981.0000  -999.2500    22.2070
  981.2000  -999.2500    22.1980
  981.4000  -999.2500    22.1930
  981.6000  -999.2500    22.1870
  981.8000  -999.2500    22.1810
  982.0000  -999.2500    22.1750
  982.2000  -999.2500    22.1690
  982.4000  -999.2500    22.1630
  982.6000  -999.2500    22.1570
  982.8000  -999.2500    22.1510
  983.0000  -999.2500    22.1460
  983.2000  -999.2500    22.1400
  983.4000  -999.2500    22.1340
  983.6000  -999.2500    22.1280
  983.8000  -999.2500    22.1220
  984.0000  -999.2500    22.1160
  984.2000  -999.2500    22.1100
  984.4000  -999.2500    22.1040
  984.6000  -999.2500    22.0980
  984.8000  -999.2500    22.0920
  985.0000  -999.2500    22.0860
  985.2000  -999.2500    22.0800
  985.4000  -999.2500    22.0740
  985.6000  -999.2500    22.0680
  985.8000  -999.2500    22.0620
  986.0000  -999.2500    22.0560
  986.2000  -999.2500    22.0500
  986.4000  -999.2500    21.9030
  986.6000  -999.2500    21.7920
  986.8000  -999.2500    21.6800
  987.0000  -999.2500    21.5690
  987.2000  -999.2500    21.4580
  987.4000  -999.2500    21.3470
  987.6000  -999.2500    21.2360
  987.8000  -999.2500    21.1250
  988.0000  -999.2500    21.0140
  988.2000  -999.2500    20.9030
  988.4000  -999.2500    20.7920
  988.6000  -999.2500    20.8270
  988.8000  -999.2500    20.9670
  989.0000  -999.2500    21.1070
  989.2000  -999.2500    21.1150
  989.4000  -999.2500    21.0480
  989.6000  -999.2500    20.9820
  989.8000  -999.2500    20.9150
  990.0000  -999.2500    20.8480
  990.2000  -999.2500    20.7820
  990.4000  -999.2500    20.7150
  990.6000  -999.2500    20.6490
  990.8000  -999.2500    20.7240
  991.0000  -999.2500    20.8040
  991.2000  -999.2500    20.8840
  991.4000  -999.2500    20.9650
  991.6000     1.1980    21.0450
  991.8000     1.1730    21.1250
  992.0000     1.1490    21.2050
  992.2000     1.0780    21.2340
  992.4000      .9890    21.2370
  992.6000     1.0240    21.2400
  992.8000     1.0700    21.2430
  993.0000     1.1110    21.2460
  993.2000     1.2300    21.2250
  993.4000     1.2300    21.2080
  993.6000     1.2280    21.1560
  993.8000     1.1970    21.1110
  994.0000     1.1730    21.0670
  994.2000     1.1480    21.0220
  994.4000     1.1240    20.9090
  994.6000     1.1860    20.7530
  994.8000     1.2280    20.5960
  995.0000     1.3530    20.4390
  995.2000     1.4700    20.2830
  995.4000     1.5860    20.1260
  995.6000     1.7450    19.9690
  995.8000     1.7410    19.6630
  996.0000     1.7190    19.2930
  996.2000     1.5160    18.9240
  996.4000     1.4130    18.5550
  996.6000     1.2780    18.1860
  996.8000     1.3590    17.8170
  997.0000     1.3950    17.4480
  997.2000     1.4310    17.0780
  997.4000     1.4670    15.8110
  997.6000     1.6860    14.8130
  997.8000     1.7380    15.7110
  998.0000     1.7280    16.2930
  998.2000     1.6760    16.3730
  998.4000     1.6230    16.3490
