~VERSION INFORMATION
VERS.                                                 2.0:   CWLS Log ASCII Standard-VERSION 2.0
WRAP.                                                  NO:   One line per depth step
~Well Information Block
STRT.M                                           245.9736:   Top Depth
STOP.M                                           781.9644:   Bottom Depth
STEP.M                                             .15240:   Depth Increment
NULL.                                            -999.250:   Null Value
FLD .                                         SCHOONEBEEK:   Field Name
WELL.                                      SCHOONEBEEK- 3:   NAME
EDF .m                                              15.12:   ELEV DRILL FLOOR
EPD .                                                   0:   ELEV PERM DATUM
EGL .m                                               12.8:   GROUND LEVEL
LMF .                                                  DF:   LOGS MEAS FROM
COMP.                                                BPME:   OPERATOR
PDAT.                                                 NAP:   PERM DATUM
SPUD.                                          2043/09/12:   SPUD DATE
UWBI.                                      11000074043001:   UWBI
WELL.                                      SCHOONEBEEK- 3:   HOLE NAME
~PARAMETER INFORMATION (log)
LNAM.                               RUN 01 RAW OH 10 1/2":   NAME
LTYP.                                                 01R:   LOG TYPE
LVSN.                                                   1:   LOG VERSION
BS  .1/2"                                              10:   BIT SIZE
BLI .M                                                782:   BOTTOM DEPTH LOGGED
BHIS.                                                MCCC:   BRIEF HISTORY
FHIS.                                     MERGE/COPY/COPY:   FULL HISTORY
MRT .                                                    :   MAX REC TEMP
DFD .                                                    :   MUD DENSITY
DFT .                                                 N/A:   MUD TYPE
RMS .                                                    :   RM
MST .                                                    :   RM TEMP
RMCS.                                                    :   RMC
MCST.                                                    :   RMC TEMP
RMFS.                                                    :   RMF
MFST.                                                    :   RMF TEMP
TCS .                                                 N/A:   TIME SINCE CIRCLN
TLI .M                                                246:   TOP DEPTH LOGGED
~Curve Information Block
#MNEM.UNIT                                        API CODE    No Description
#=========                                        ========    == ===========
DEPT.M                                       00 001 00 00:     1  DEPTH
SN.OHMM                                                  :     2  SHORT NORMAL
SP.MV                                                    :     3  Spontaneous potential
~ASCII
# ...
  727.4052     1.8260    41.3630
  727.5576     1.8270    41.2990
  727.7100     1.8280    41.2640
  727.8624     1.8290    41.2230
  728.0148     1.8280    41.1650
  728.1672     1.8310    41.1200
  728.3196     1.8440    41.0850
  728.4720     1.8610    41.0290
  728.6244     1.8720    40.9720
  728.7768     1.8750    40.9580
  728.9292     1.8750    40.9300
  729.0816     1.8730    40.7730
  729.2340     1.8690    40.5050
  729.3864     1.8670    40.2880
  729.5388     1.8690    40.1760
  729.6912     1.8720    40.0370
  729.8436     1.8770    39.8000
  729.9960     1.8970    39.5980
  730.1484     1.9360    39.5280
  730.3008     1.9850    39.5240
  730.4532     2.0330    39.5830
  730.6056     2.0850    39.8240
  730.7580     2.1470    40.1900
  730.9104     2.2190    40.4560
  731.0628     2.2980    40.6380
  731.2152     2.3720    40.9530
  731.3676     2.4200    41.3880
  731.5200     2.4320    41.7180
  731.6724     2.4230    41.8870
  731.8248     2.4070    42.0160
  731.9772     2.3890    42.1720
  732.1296     2.3730    42.3450
  732.2820     2.3620    42.5050
  732.4344     2.3580    42.6060
  732.5868     2.3600    42.6760
  732.7392     2.3660    42.7950
  732.8916     2.3720    42.9320
  733.0440     2.3710    42.9760
  733.1964     2.3630    42.9450
  733.3488     2.3510    42.9440
  733.5012     2.3410    42.9680
  733.6536     2.3320    42.9500
  733.8060     2.3180    42.9380
  733.9584     2.2960    42.9800
  734.1108     2.2710    42.9560
  734.2632     2.2490    42.7470
  734.4156     2.2290    42.4300
  734.5680     2.2050    42.1060
  734.7204     2.1830    41.7180
  734.8728     2.1640    41.1760
  735.0252     2.1400    40.5250
  735.1776     2.1150    39.9320
  735.3300     2.1070    39.5190
  735.4824     2.1240    39.2470
  735.6348     2.1510    39.0470
  735.7872     2.1720    38.9940
  735.9396     2.1910    39.1660
  736.0920     2.2140    39.4190
  736.2444     2.2350    39.5930
  736.3968     2.2550    39.8170
  736.5492     2.2780    40.3130
  736.7016     2.3000    40.9760
  736.8540     2.3170    41.4730
  737.0064     2.3400    41.7060
  737.1588     2.3750    41.8600
  737.3112     2.4140    42.0420
  737.4636     2.4470    42.1680
  737.6160     2.4790    42.1910
  737.7684     2.5150    42.1740
  737.9208     2.5470    42.1740
  738.0732     2.5800    42.1850
  738.2256     2.6220    42.1800
  738.3780     2.6590    42.1640
  738.5304     2.6720    42.1930
  738.6828     2.6610    42.3380
  738.8352     2.6450    42.6010
  738.9876     2.6310    42.8700
  739.1400     2.6190    43.0580
  739.2924     2.6070    43.2520
  739.4448     2.6000    43.4940
  739.5972     2.6000    43.5130
  739.7496     2.6060    43.1100
  739.9020     2.6140    42.5340
  740.0544     2.6170    42.0280
  740.2068     2.6080    41.4790
  740.3592     2.5880    40.8990
  740.5116     2.5680    40.5660
  740.6640     2.5540    40.4740
  740.8164     2.5430    40.3450
  740.9688     2.5120    40.1690
  741.1212     2.4570    40.1320
  741.2736     2.4010    40.2120
  741.4260     2.3700    40.2810
  741.5784     2.3660    40.3470
  741.7308     2.3850    40.4860
  741.8832     2.4170    40.7470
  742.0356     2.4470    41.1440
  742.1880     2.4660    41.5600
  742.3404     2.4690    41.8250
  742.4928     2.4550    41.9380
  742.6452     2.4240    41.9970
  742.7976     2.3920    42.0190
  742.9500     2.3740    42.0290
  743.1024     2.3710    42.0550
  743.2548     2.3770    41.9950
  743.4072     2.3850    41.8420
  743.5596     2.4010    41.8000
  743.7120     2.4360    41.9710
  743.8644     2.4830    42.2740
  744.0168     2.5230    42.6460
  744.1692     2.5530    42.9890
  744.3216     2.5850    43.2640
  744.4740     2.6140    43.6630
  744.6264     2.6350    44.1630
  744.7788     2.6620    44.2640
  744.9312     2.6960    43.7360
  745.0836     2.7230    43.0040
  745.2360     2.7430    42.4980
  745.3884     2.7690    42.2430
  745.5408     2.7840    42.1260
  745.6932     2.7720    42.0570
  745.8456     2.7480    42.0090
  745.9980     2.7200    42.0460
  746.1504     2.6810    42.1800
  746.3028     2.6440    42.3080
  746.4552     2.6190    42.3910
  746.6076     2.5790    42.4550
  746.7600     2.5450    42.4950
  746.9124     2.5930    42.5290
  747.0648     2.7170    42.6040
  747.2172     2.8040    42.6940
  747.3696     2.8170    42.7640
  747.5220     2.8300    42.8420
  747.6744     2.8760    42.9290
  747.8268     2.9190    42.9700
  747.9792     2.9540    42.9610
  748.1316     2.9980    42.9520
  748.2840     3.0230    42.9590
  748.4364     3.0050    42.9620
  748.5888     2.9700    42.9580
  748.7412     2.9430    42.9560
  748.8936     2.9190    42.9630
  749.0460     2.8910    42.9790
  749.1984     2.8620    42.9990
  749.3508     2.8300    43.0220
  749.5032     2.7880    43.0450
  749.6556     2.7400    43.0610
  749.8080     2.6840    43.0810
  749.9604     2.6220    43.1110
  750.1128     2.5630    43.1180
  750.2652     2.5150    43.1000
  750.4176     2.4660    43.1350
  750.5700     2.4120    43.2630
  750.7224     2.3710    43.4230
  750.8748     2.3560    43.5800
  751.0272     2.3540    43.7490
  751.1796     2.3490    43.8930
  751.3320     2.3410    44.0000
  751.4844     2.3360    44.1340
  751.6368     2.3340    44.2830
  751.7892     2.3290    44.3670
  751.9416     2.3180    44.4070
  752.0940     2.3010    44.4620
  752.2464     2.2860    44.5120
  752.3988     2.2780    44.5560
  752.5512     2.2770    44.6220
  752.7036     2.2800    44.6720
  752.8560     2.2830    44.6940
  753.0084     2.2850    44.7880
  753.1608     2.2850    44.9830
  753.3132     2.2840    45.1580
  753.4656     2.2840    45.2420
  753.6180     2.2850    45.3170
  753.7704     2.2840    45.4460
  753.9228     2.2790    45.5670
  754.0752     2.2710    45.6190
  754.2276     2.2610    45.6140
  754.3800     2.2510    45.5460
  754.5324     2.2420    45.3400
  754.6848     2.2330    44.9600
  754.8372     2.2280    44.4720
  754.9896     2.2270    43.9670
  755.1420     2.2270    43.5230
  755.2944     2.2280    43.2610
  755.4468     2.2340    43.1790
  755.5992     2.2450    43.0910
  755.7516     2.2610    43.0290
  755.9040     2.2780    43.2870
  756.0564     2.2960    43.7540
  756.2088     2.3120    43.9250
  756.3612     2.3260    43.7560
  756.5136     2.3360    43.6110
  756.6660     2.3420    43.4830
  756.8184     2.3460    43.2020
  756.9708     2.3480    42.9540
  757.1232     2.3470    42.9140
  757.2756     2.3460    42.9840
  757.4280     2.3490    43.1390
  757.5804     2.3530    43.3950
  757.7328     2.3540    43.5830
  757.8852     2.3540    43.5860
  758.0376     2.3530    43.4560
  758.1900     2.3540    43.2060
  758.3424     2.3530    42.8720
  758.4948     2.3480    42.6230
  758.6472     2.3410    42.4990
  758.7996     2.3350    42.3530
  758.9520     2.3290    42.1870
  759.1044     2.3220    42.1810
  759.2568     2.3150    42.3650
  759.4092     2.3100    42.6270
  759.5616     2.3050    42.9740
  759.7140     2.2950    43.4590
  759.8664     2.2870    43.9880
  760.0188     2.2840    44.4510
  760.1712     2.2850    44.8830
  760.3236     2.2890    45.3610
  760.4760     2.3090    45.8860
  760.6284     2.3410    46.3920
  760.7808     2.3650    46.8370
  760.9332     2.3720    47.3230
  761.0856     2.3770    47.9340
  761.2380     2.3950    48.4490
  761.3904     2.4200    48.5990
  761.5428     2.4430    48.5380
  761.6952     2.4630    48.5540
  761.8476     2.4840    48.5120
  762.0000     2.5050    48.1380
  762.1524     2.5260    47.5690
  762.3048     2.5470    47.1660
  762.4572     2.5620    47.0110
  762.6096     2.5690    46.9680
  762.7620     2.5680    47.0090
  762.9144     2.5530    47.1550
  763.0668     2.5170    47.3220
  763.2192     2.4670    47.5500
  763.3716     2.4210    48.0280
  763.5240     2.3910    48.6420
  763.6764     2.3700    49.0030
  763.8288     2.3500    49.0550
  763.9812     2.3400    49.0360
  764.1336     2.3410    48.9020
  764.2860     2.3390    48.3900
