~VERSION INFORMATION
VERS.                                                 2.0:   CWLS Log ASCII Standard-VERSION 2.0
WRAP.                                                  NO:   One line per depth step
~Well Information Block
STRT.M                                           245.9736:   Top Depth
STOP.M                                           781.9644:   Bottom Depth
STEP.M                                             .15240:   Depth Increment
NULL.                                            -999.250:   Null Value
FLD .                                         SCHOONEBEEK:   Field Name
WELL.                                      SCHOONEBEEK- 3:   NAME
EDF .m                                              15.12:   ELEV DRILL FLOOR
EPD .                                                   0:   ELEV PERM DATUM
EGL .m                                               12.8:   GROUND LEVEL
LMF .                                                  DF:   LOGS MEAS FROM
COMP.                                                BPME:   OPERATOR
PDAT.                                                 NAP:   PERM DATUM
SPUD.                                          2043/09/12:   SPUD DATE
UWBI.                                      11000074043001:   UWBI
WELL.                                      SCHOONEBEEK- 3:   HOLE NAME
~PARAMETER INFORMATION (log)
LNAM.                               RUN 01 RAW OH 10 1/2":   NAME
LTYP.                                                 01R:   LOG TYPE
LVSN.                                                   1:   LOG VERSION
BS  .1/2"                                              10:   BIT SIZE
BLI .M                                                782:   BOTTOM DEPTH LOGGED
BHIS.                                                MCCC:   BRIEF HISTORY
FHIS.                                     MERGE/COPY/COPY:   FULL HISTORY
MRT .                                                    :   MAX REC TEMP
DFD .                                                    :   MUD DENSITY
DFT .                                                 N/A:   MUD TYPE
RMS .                                                    :   RM
MST .                                                    :   RM TEMP
RMCS.                                                    :   RMC
MCST.                                                    :   RMC TEMP
RMFS.                                                    :   RMF
MFST.                                                    :   RMF TEMP
TCS .                                                 N/A:   TIME SINCE CIRCLN
TLI .M                                                246:   TOP DEPTH LOGGED
~Curve Information Block
#MNEM.UNIT                                        API CODE    No Description
#=========                                        ========    == ===========
DEPT.M                                       00 001 00 00:     1  DEPTH
SN.OHMM                                                  :     2  SHORT NORMAL
SP.MV                                                    :     3  Spontaneous potential
~ASCII
# ...
  505.2060     3.0820    45.5890
  505.3584     3.0990    45.7660
  505.5108     3.1410    46.0400
  505.6632     3.1820    46.3030
  505.8156     3.1860    46.5250
  505.9680     3.2410    46.5680
  506.1204     3.5931    46.5690
  506.2728     3.9931    46.5200
  506.4252     4.2500    46.1820
  506.5776     4.3440    45.7280
  506.7300     4.4080    45.5210
  506.8824     4.4390    45.4660
  507.0348     4.4390    45.3380
  507.1872     4.4080    45.3000
  507.3396     4.3440    45.6030
  507.4920     4.2810    46.0990
  507.6444     4.2500    46.5760
  507.7968     4.2460    47.4130
  507.9492     4.2510    49.0380
  508.1016     4.2440    50.7720
  508.2540     4.1900    51.6120
  508.4064     4.0900    51.9030
  508.5588     3.9640    52.4880
  508.7112     3.8130    52.9940
  508.8636     3.6310    52.7960
  509.0160     3.4090    52.3740
  509.1684     3.1540    52.2160
  509.3208     2.9130    52.0030
  509.4732     2.7590    51.6640
  509.6256     2.7450    51.6490
  509.7780     2.8780    52.0700
  509.9304     3.1190    52.7360
  510.0828     3.3900    53.5220
  510.2352     3.6360    54.1750
  510.3876     3.8770    54.7020
  510.5400     4.1400    55.1460
  510.6924     4.3420    55.7760
  510.8448     4.5410    56.0100
  510.9972     4.8440    55.6670
  511.1496     5.1600    55.4360
  511.3020     5.3830    54.4480
  511.4544     5.5180    51.5920
  511.6068     5.6600    49.4860
  511.7592     6.0110    49.5170
  511.9116     6.5270    47.8340
  512.0640     6.8980    43.9090
  512.2164     7.1190    41.9380
  512.3688     7.3580    41.6410
  512.5212     7.5030    40.1750
  512.6736     7.5090    38.0650
  512.8260     7.5260    36.0670
  512.9784     7.5940    34.5620
  513.1308     7.6600    33.1270
  513.2832     7.7220    32.1270
  513.4356     7.8050    31.9620
  513.5880     7.8690    32.0930
  513.7404     7.9680    32.2420
  513.8928     8.2130    33.0800
  514.0452     8.4750    34.5700
  514.1976     8.4820    35.2500
  514.3500     8.2080    34.3490
  514.5024     7.8560    33.1020
  514.6548     7.5640    32.9830
  514.8072     7.3960    33.8490
  514.9596     7.4090    34.6390
  515.1120     7.5710    35.1490
  515.2644     7.7770    35.6990
  515.4168     7.9670    36.6600
  515.5692     8.1500    36.5590
  515.7216     8.3570    35.0990
  515.8740     8.5830    33.5830
  516.0264     8.7300    32.2430
  516.1788     8.7180    30.8030
  516.3312     8.5900    29.4900
  516.4836     8.4110    28.4560
  516.6360     8.1940    27.8280
  516.7884     7.9560    27.2110
  516.9408     7.7090    26.2090
  517.0932     7.4350    25.6270
  517.2456     7.1980    25.8690
  517.3980     7.0980    26.1550
  517.5504     7.1010    26.3680
  517.7028     7.1010    26.6120
  517.8552     7.0860    26.6970
  518.0076     7.1070    26.1850
  518.1600     7.1710    25.3690
  518.3124     7.2770    24.8450
  518.4648     7.4420    24.5230
  518.6172     7.6460    24.2800
  518.7696     7.8280    24.7780
  518.9220     7.9790    26.3630
  519.0744     8.1810    28.1850
  519.2268     8.4180    29.4620
  519.3792     8.4990    30.4900
  519.5316     8.3320    31.7150
  519.6840     8.0860    32.8190
  519.8364     7.9180    32.9760
  519.9888     7.7910    31.6270
  520.1412     7.6740    29.3950
  520.2936     7.6510    27.9400
  520.4460     7.7860    28.1190
  520.5984     8.0380    29.1000
  520.7508     8.2660    29.9690
  520.9032     8.3590    30.7180
  521.0556     8.3820    31.5100
  521.2080     8.4300    32.5100
  521.3604     8.3800    33.8590
  521.5128     8.0950    35.0050
  521.6652     7.7130    35.5410
  521.8176     7.4280    35.9570
  521.9700     7.2030    35.5120
  522.1224     6.9370    32.3120
  522.2748     6.6720    27.6580
  522.4272     6.4970    25.9850
  522.5796     6.4280    27.7950
  522.7320     6.4080    28.7070
  522.8844     6.3630    28.4030
  523.0368     6.3100    29.5410
  523.1892     6.3580    31.5570
  523.3416     6.5250    32.7020
  523.4940     6.6940    34.3540
  523.6464     6.8100    36.5110
  523.7988     6.9340    35.1330
  523.9512     7.0920    30.6600
  524.1036     7.2540    28.6460
  524.2560     7.4040    29.2660
  524.4084     7.5340    29.0260
  524.5608     7.6590    28.5590
  524.7132     7.8100    28.3660
  524.8656     7.9470    28.6320
  525.0180     7.9920    28.6640
  525.1704     7.9750    28.6340
  525.3228     7.9720    28.8070
  525.4752     7.9450    29.0050
  525.6276     7.8200    29.1440
  525.7800     7.6590    29.2580
  525.9324     7.5660    29.3160
  526.0848     7.5330    29.3090
  526.2372     7.4960    29.2390
  526.3896     7.4520    29.0550
  526.5420     7.4330    28.7450
  526.6944     7.4390    28.4080
  526.8468     7.4510    28.1740
  526.9992     7.4640    28.0610
  527.1516     7.4740    28.0400
  527.3040     7.4770    28.1680
  527.4564     7.4710    28.4180
  527.6088     7.4690    28.6290
  527.7612     7.4810    28.9150
  527.9136     7.4980    29.5810
  528.0660     7.5050    30.3900
  528.2184     7.5040    30.7400
  528.3708     7.5050    30.6770
  528.5232     7.4980    30.6880
  528.6756     7.4770    30.6460
  528.8280     7.4660    30.0920
  528.9804     7.4780    29.2740
  529.1328     7.4940    28.8090
  529.2852     7.5090    28.6840
  529.4376     7.5340    28.4660
  529.5900     7.5590    28.1020
  529.7424     7.5730    27.8430
  529.8948     7.5910    27.7340
  530.0472     7.6000    27.6110
  530.1996     7.5350    27.3890
  530.3520     7.3710    27.1330
  530.5044     7.1720    26.9420
  530.6568     7.0050    26.8360
  530.8092     6.8610    26.7590
  530.9616     6.7100    26.6850
  531.1140     6.5550    26.6400
  531.2664     6.4040    26.6330
  531.4188     6.2540    26.6600
  531.5712     6.1160    26.7190
  531.7236     6.0320    26.7790
  531.8760     6.0240    26.8100
  532.0284     6.0820    26.8130
  532.1808     6.1830    26.7730
  532.3332     6.3040    26.6590
  532.4856     6.4260    26.4940
  532.6380     6.5400    26.3250
  532.7904     6.6420    26.1720
  532.9428     6.7480    26.0520
  533.0952     6.8620    25.9970
  533.2476     6.9480    26.0240
  533.4000     7.0070    26.0430
  533.5524     7.1140    25.8560
  533.7048     7.2350    25.3760
  533.8572     7.2370    24.7970
  534.0096     7.2150    24.3490
  534.1620     7.4410    24.0100
  534.3144     7.8360    23.6930
  534.4668     8.0350    23.5590
  534.6192     7.9820    23.7980
  534.7716     7.9360    24.2780
  534.9240     7.9500    24.7830
  535.0764     7.8600    25.1860
  535.2288     7.6730    25.1590
  535.3812     7.5580    24.6390
  535.5336     7.5760    24.3030
  535.6860     7.6510    24.1310
  535.8384     7.7370    22.7950
  535.9908     7.8450    20.3130
  536.1432     7.9430    18.9130
  536.2956     7.9550    19.6590
  536.4480     7.8720    21.1910
  536.6004     7.7640    22.4560
  536.7528     7.6900    23.5270
  536.9052     7.6270    24.2240
  537.0576     7.5500    24.5070
  537.2100     7.5110    24.9350
  537.3624     7.5910    25.4610
  537.5148     7.7700    25.5110
  537.6672     7.9410    25.3310
  537.8196     8.0340    25.5850
  537.9720     8.0750    26.1290
  538.1244     8.1120    26.3970
  538.2768     8.1220    26.4050
  538.4292     8.0370    26.5070
  538.5816     7.8530    26.5310
  538.7340     7.6730    26.0580
  538.8864     7.5720    25.3560
  539.0388     7.5090    24.9830
  539.1912     7.4280    24.6170
  539.3436     7.3560    23.5960
  539.4960     7.3240    22.2680
  539.6484     7.3040    21.4780
  539.8008     7.2800    21.2450
  539.9532     7.2900    21.0300
  540.1056     7.3390    20.7030
  540.2580     7.3800    20.4680
  540.4104     7.3820    20.4150
  540.5628     7.3490    20.6340
  540.7152     7.2770    21.2600
  540.8676     7.1720    22.0280
  541.0200     7.0500    22.3160
  541.1724     6.8680    22.0070
  541.3248     6.5920    21.4610
  541.4772     6.3110    20.4050
  541.6296     6.0960    18.3690
  541.7820     5.8210    16.4450
  541.9344     5.4740    16.5400
  542.0868     5.4460    18.7860
