~VERSION INFORMATION
VERS.                                                 2.0:   CWLS Log ASCII Standard-VERSION 2.0
WRAP.                                                  NO:   One line per depth step
~Well Information Block
STRT.M                                           700.0000:   Top Depth
STOP.M                                          1057.0000:   Bottom Depth
STEP.M                                             .20000:   Depth Increment
NULL.                                            -999.250:   Null Value
FLD .                                         SCHOONEBEEK:   Field Name
WELL.                                      SCHOONEBEEK- 3:   NAME
EDF .m                                              15.12:   ELEV DRILL FLOOR
EPD .                                                   0:   ELEV PERM DATUM
EGL .m                                               12.8:   GROUND LEVEL
LMF .                                                  DF:   LOGS MEAS FROM
COMP.                                                BPME:   OPERATOR
PDAT.                                                 NAP:   PERM DATUM
SPUD.                                          2043/09/12:   SPUD DATE
UWBI.                                      11000074043001:   UWBI
~PARAMETER INFORMATION (log)
LNAM.                                RUN 03 RAW OH 7 3/5":   NAME
LTYP.                                                 03R:   LOG TYPE
LVSN.                                                   1:   LOG VERSION
BS  .3/5"                                               7:   BIT SIZE
BLI .M                                               1057:   BOTTOM DEPTH LOGGED
BHIS.                                                MCCC:   BRIEF HISTORY
FHIS.                                     MERGE/COPY/COPY:   FULL HISTORY
MRT .                                                    :   MAX REC TEMP
DFD .                                                    :   MUD DENSITY
DFT .                                                 N/A:   MUD TYPE
RMS .                                                    :   RM
MST .                                                    :   RM TEMP
RMCS.                                                    :   RMC
MCST.                                                    :   RMC TEMP
RMFS.                                                    :   RMF
MFST.                                                    :   RMF TEMP
TCS .                                                 N/A:   TIME SINCE CIRCLN
TLI .M                                                700:   TOP DEPTH LOGGED
~Curve Information Block
#MNEM.UNIT                                        API CODE    No Description
#=========                                        ========    == ===========
DEPT.M                                       00 001 00 00:     1  DEPTH
SN.OHMM                                                  :     2  SHORT NORMAL
SP.MV                                                    :     3  Spontaneous potential
~ASCII
  700.0000  -999.2500    53.8800
  700.2000  -999.2500    53.8600
  700.4000  -999.2500    53.8400
  700.6000  -999.2500    53.8200
  700.8000     1.6990    53.8010
  701.0000     1.6960    53.7810
  701.2000     1.6940    53.7610
  701.4000     1.6910    53.7410
  701.6000     1.6610    53.7210
  701.8000     1.6390    53.7010
  702.0000     1.6510    53.6810
  702.2000     1.6690    53.6610
  702.4000     1.6750    53.6410
  702.6000     1.6740    53.6210
  702.8000     1.6610    53.6010
  703.0000     1.6450    53.5810
  703.2000     1.6300    53.5610
  703.4000     1.6000    53.5410
  703.6000     1.5710    53.5210
  703.8000     1.5420    53.5920
  704.0000     1.5220    53.7050
  704.2000     1.5020    53.8180
  704.4000     1.4820    53.9310
  704.6000     1.5310    54.0450
  704.8000     1.5860    54.1580
  705.0000     1.5740    54.2710
  705.2000     1.5550    54.3840
  705.4000     1.5370    54.4740
  705.6000     1.5180    54.5700
  705.8000     1.5000    54.6670
  706.0000     1.4820    54.7630
  706.2000     1.4630    54.8600
  706.4000     1.4450    54.9560
  706.6000     1.4260    55.0530
  706.8000     1.4080    55.1490
  707.0000     1.3890    55.2450
  707.2000     1.4040    55.1870
  707.4000     1.4290    55.1320
  707.6000     1.5040    55.0780
  707.8000     1.5730    54.4650
  708.0000     1.6420    54.0000
  708.2000     1.7460    53.9660
  708.4000     1.7220    54.1660
  708.6000     1.6970    54.3650
  708.8000     1.6730    54.5650
  709.0000     1.6480    54.7650
  709.2000     1.5930    54.9650
  709.4000     1.5430    55.1650
  709.6000     1.5140    55.3650
  709.8000     1.4950    55.5650
  710.0000     1.4900    54.7270
  710.2000     1.4950    53.9700
  710.4000     1.5000    54.0070
  710.6000     1.5220    54.2870
  710.8000     1.5390    54.5670
  711.0000     1.5570    54.8480
  711.2000     1.5970    55.1280
  711.4000     1.6910    57.9650
  711.6000     1.6860    57.3220
  711.8000     1.6770    57.0790
  712.0000     1.6620    56.7780
  712.2000     1.6420    56.4780
  712.4000     1.6220    56.1780
  712.6000     1.6030    55.8780
  712.8000     1.5830    55.5780
  713.0000     1.5630    54.9920
  713.2000     1.5430    54.4230
  713.4000     1.4970    53.8540
  713.6000     1.4460    53.2850
  713.8000     1.4690    52.7160
  714.0000     1.4790    52.1470
  714.2000     1.4890    51.5770
  714.4000     1.5000    50.7120
  714.6000     1.5350    50.7400
  714.8000     1.5720    50.7010
  715.0000     1.6360    50.6620
  715.2000     1.6340    51.1790
  715.4000     1.6470    52.0020
  715.6000     1.6610    52.8240
  715.8000     1.6740    53.6470
  716.0000     1.6790    54.4700
  716.2000     1.6830    55.2920
  716.4000     1.6870    55.3700
  716.6000     1.6910    55.3480
  716.8000     1.6700    55.3260
  717.0000     1.6270    55.3040
  717.2000     1.5850    54.2990
  717.4000     1.5420    53.5980
  717.6000     1.4980    52.8970
  717.8000     1.4710    52.6030
  718.0000     1.4390    52.4040
  718.2000     1.4070    52.4770
  718.4000     1.3760    52.5130
  718.6000     1.3850    52.4720
  718.8000     1.3980    52.4460
  719.0000     1.4580    52.4210
  719.2000     1.5050    52.3950
  719.4000     1.5520    51.9360
  719.6000     1.5630    51.5430
  719.8000     1.5360    51.1500
  720.0000     1.5220    50.7570
  720.2000     1.5080    50.3640
  720.4000     1.5190    50.5110
  720.6000     1.5550    50.9060
  720.8000     1.5900    51.5650
  721.0000     1.6250    52.2240
  721.2000     1.6080    52.8830
  721.4000     1.5840    52.8260
  721.6000     1.5610    52.7590
  721.8000     1.5370    52.6910
  722.0000     1.5130    52.6230
  722.2000     1.4900    52.5560
  722.4000     1.4660    52.4880
  722.6000     1.4370    52.4200
  722.8000     1.4100    52.3530
  723.0000     1.3820    52.2850
  723.2000     1.3540    52.3630
  723.4000     1.3260    52.4370
  723.6000     1.2980    52.5110
  723.8000     1.3120    52.5860
  724.0000     1.3530    52.6600
  724.2000     1.3930    52.7340
  724.4000     1.4330    52.8090
  724.6000     1.4730    52.8830
  724.8000     1.5140    52.9570
  725.0000     1.5350    53.0320
  725.2000     1.5620    53.1060
  725.4000     1.5890    53.1800
  725.6000     1.6160    53.2550
  725.8000     1.6430    53.3290
  726.0000     1.6700    53.4030
  726.2000     1.6970    53.4770
  726.4000     1.6770    53.5520
  726.6000     1.6720    53.6260
  726.8000     1.6660    53.7000
  727.0000     1.6610    53.7750
  727.2000     1.6550    53.8490
  727.4000     1.6500    53.9230
  727.6000     1.6440    53.9980
  727.8000     1.6390    53.9670
  728.0000     1.6340    53.8900
  728.2000     1.6280    53.8130
  728.4000     1.6230    53.7360
  728.6000     1.5990    53.6590
  728.8000     1.5750    53.5820
  729.0000     1.5520    53.5050
  729.2000     1.5280    53.4280
  729.4000     1.5040    53.3510
  729.6000     1.4910    53.2740
  729.8000     1.4800    53.1970
  730.0000     1.5160    53.1200
  730.2000     1.5460    53.0420
  730.4000     1.5760    52.9650
  730.6000     1.6050    52.8880
  730.8000     1.6000    52.8110
  731.0000     1.5770    52.7340
  731.2000     1.5450    52.6570
  731.4000     1.5130    52.5800
  731.6000     1.4820    52.5030
  731.8000     1.4680    52.5840
  732.0000     1.4630    52.9940
  732.2000     1.4670    53.5090
  732.4000     1.4760    54.0250
  732.6000     1.4860    53.7270
  732.8000     1.4950    53.6620
  733.0000     1.5050    53.5980
  733.2000     1.5030    53.5330
  733.4000     1.4990    53.4690
  733.6000     1.4940    53.4040
  733.8000     1.4900    53.3400
  734.0000     1.4850    53.2750
  734.2000     1.4810    53.2110
  734.4000     1.4760    53.1460
  734.6000     1.4720    53.0820
  734.8000     1.4740    53.0170
  735.0000     1.4740    52.9530
  735.2000     1.4740    52.8880
  735.4000     1.4740    52.8240
  735.6000     1.4750    52.9360
  735.8000     1.4750    53.0270
  736.0000     1.4750    53.1170
  736.2000     1.4750    53.2070
  736.4000     1.4750    53.2970
  736.6000     1.4750    53.3870
  736.8000     1.4750    53.1920
  737.0000     1.4750    52.9860
  737.2000     1.4740    52.7800
  737.4000     1.4720    52.5740
  737.6000     1.4710    52.3680
  737.8000     1.4700    51.9930
  738.0000     1.4690    51.4940
  738.2000     1.4680    51.0980
  738.4000     1.4670    50.6910
  738.6000     1.4660    50.2840
  738.8000     1.4650    50.8600
  739.0000     1.4630    51.1480
  739.2000     1.4620    51.4370
  739.4000     1.4610    51.7260
  739.6000     1.4600    52.0150
  739.8000     1.4740    52.3030
  740.0000     1.4880    52.5920
  740.2000     1.5020    52.8810
  740.4000     1.5150    53.1690
  740.6000     1.5410    53.2340
  740.8000     1.5750    53.2650
  741.0000     1.6090    53.2970
  741.2000     1.6460    53.3290
  741.4000     1.6440    53.3600
  741.6000     1.6260    53.3920
  741.8000     1.5990    53.4230
  742.0000     1.5830    53.4550
  742.2000     1.5730    53.4860
  742.4000     1.5850    53.5180
  742.6000     1.8130    53.5500
  742.8000     1.7030    53.5810
  743.0000     1.6860    53.6130
  743.2000     1.6340    53.5900
  743.4000     1.5830    53.5840
  743.6000     1.5420    53.5770
  743.8000     1.5000    53.5710
  744.0000     1.4570    53.5650
  744.2000     1.4380    53.5590
  744.4000     1.4360    53.5530
  744.6000     1.5730    53.5470
  744.8000     1.5600    53.5410
  745.0000     1.5460    53.5350
  745.2000     1.5110    53.5290
  745.4000     1.4820    53.5230
  745.6000     1.4600    53.5170
  745.8000     1.4420    53.5110
  746.0000     1.4240    53.5050
  746.2000     1.4170    53.4990
  746.4000     1.4080    53.4920
  746.6000     1.4000    53.4860
  746.8000     1.3910    53.4800
  747.0000     1.3820    53.4740
  747.2000     1.3730    53.4680
  747.4000     1.3650    53.4620
  747.6000     1.3560    53.4560
  747.8000     1.3470    53.4500
  748.0000     1.3380    53.4440
  748.2000     1.3290    53.4380
  748.4000     1.3380    53.4320
