~Version Information
VERS.                2.00 :CWLS Log ASCII Standard
WRAP.                  NO :One line per depth step
#
~Well Information
#MNEM.UNIT               DATA                    DESCRIPTION OF MNEMONIC
#--- ---- ----------------------------------- -------------------------------
STRT.F                             265.166667 :START Depth
STOP.F                            3072.000000 :STOP Depth
STEP.F                               0.166667 :STEP Length
NULL.                             -999.250000 :NULL Value
DATE.                              2013-07-23 :LOG DATE
#
~PARAMETER INFORMATION
#--- ---- ----------------------------------- -------------------------------
TD_CALI_PTS.                                      10 :Calibration Points Used for Tension Device
TD_CALI_OFFSET.                                0.000000 :Calibration coefficient offset used for Tension Device
TD_CALI_RMS.                               23.000000 :Calibration Root Mean Square Error Used for Tension Device
TD_CALI_GAIN.                                1.000000 :Calibration coefficient gain used for Tension Device
WHEEL_CORR2.                               -4.000000 :Wheel Correction 2
CALI_SERIALNUM.                                    F087 :Calibrator Serial Number
CALI_CABLE_TYP.                                7-46P-XS :Calibration Cable Type
CALI_SERIALNUM.                                      15 :Calibrator Serial Number
TD_CALI_PEAK_ERR.                               38.000000 :Calibration Peak Error Used for Tension Device
WHEEL_CORR1.                               -5.000000 :Wheel Correction 1
LCL .M                            7315.200195 :Logging Cable Length
EP_LCEQUIP_TYP.                                7-46P-XS :Logging cable type
EP_DDEQUIP_TYP.                                   IDW-E :Depth measuring device type
EP_TDEQUIP_TYP.                                CMTD-B/A :Tension device type
CALI_DATE.                             29-Apr-2013 :Calibration Date
CALI_DATE.                             11-Jul-2013 :Calibration Date
#
~Curve Information
#--- ---- ----------------------------------- -------------------------------
TDEP.F                                        :Tool Depth
EHGR_EDTC.GAPI                                     :High Resolution Corrected Gamma Ray
HGR_EDTC.GAPI                                     :High Resolution Gamma Ray
#
~ASCII data
# ...
640.500000 40.438602 18.030539 
640.666667 40.450821 18.035986 
640.833333 39.043110 17.408323 
641.000000 34.339573 15.311136 
641.166667 28.709221 12.800707 
641.333333 21.662580 9.658791 
641.500000 18.844776 8.402404 
641.666667 20.715752 9.236624 
641.833333 26.353294 11.750259 
642.000000 34.814285 15.522799 
642.166667 40.458889 18.039583 
642.333333 44.219841 19.716496 
642.500000 47.955097 21.381950 
642.666667 50.747963 22.627218 
642.833333 53.551479 23.877234 
643.000000 51.695126 23.049534 
643.166667 48.902046 21.804171 
643.333333 42.335011 18.876099 
643.500000 37.634613 16.780312 
643.666667 34.811119 15.521387 
643.833333 32.933350 14.684137 
644.000000 32.480865 14.482387 
644.166667 30.607901 13.647280 
644.333333 32.486164 14.484750 
644.500000 33.881046 15.106691 
644.666667 36.696438 16.362003 
644.833333 38.576603 17.200319 
645.000000 37.630066 16.778284 
645.166667 34.786999 15.510633 
645.333333 31.010139 13.826628 
645.500000 29.125584 12.986352 
645.666667 28.202663 12.574846 
645.833333 29.156200 13.000004 
646.000000 31.044479 13.841939 
646.166667 31.986280 14.261864 
646.333333 34.811043 15.521354 
646.500000 39.520161 17.621029 
646.666667 47.079979 20.991758 
646.833333 52.748821 23.519350 
647.000000 55.572617 24.778408 
647.166667 59.299057 26.439932 
647.333333 63.038704 28.107346 
647.500000 66.796883 29.783022 
647.666667 65.851540 29.361515 
647.833333 62.994453 28.087614 
648.000000 61.084263 27.235910 
648.166667 60.141251 26.815445 
648.333333 57.353111 25.572285 
648.500000 49.855141 22.229132 
648.666667 43.280289 19.297573 
648.833333 41.397346 18.458017 
649.000000 44.222130 19.717516 
649.166667 49.873447 22.237293 
649.333333 53.669693 23.929943 
649.500000 57.453991 25.617264 
649.666667 61.223400 27.297947 
649.833333 65.894295 29.380581 
650.000000 70.576378 31.468201 
650.166667 68.680954 30.623079 
650.333333 67.738647 30.202929 
650.500000 62.541176 27.885509 
650.666667 58.758537 26.198929 
650.833333 51.226112 22.840412 
651.000000 47.013508 20.962120 
651.166667 46.091576 20.551054 
651.333333 50.801533 22.651104 
651.500000 54.560802 24.327265 
651.666667 54.561768 24.327696 
651.833333 54.575207 24.333689 
652.000000 56.493690 25.189091 
652.166667 59.340286 26.458315 
652.333333 58.399334 26.038769 
652.500000 53.660709 23.925938 
652.666667 47.993088 21.398890 
652.833333 40.456463 18.038502 
653.000000 36.692631 16.360306 
653.166667 36.685997 16.357347 
653.333333 38.542709 17.185207 
653.500000 43.233009 19.276493 
653.666667 48.886456 21.797220 
653.833333 56.439598 25.164972 
654.000000 63.044525 28.109940 
654.166667 72.453461 32.305145 
654.333333 77.157082 34.402367 
654.500000 80.008575 35.673775 
654.666667 80.056786 35.695271 
654.833333 84.795715 37.808239 
655.000000 86.655327 38.637394 
655.166667 84.724686 37.776569 
655.333333 79.984619 35.663094 
655.500000 73.387711 32.721703 
655.666667 68.682167 30.623619 
655.833333 63.953545 28.515249 
656.000000 61.095936 27.241114 
656.166667 52.611416 23.458084 
656.333333 47.925354 21.368689 
656.500000 46.079868 20.545834 
656.666667 48.447159 21.601349 
656.833333 49.394241 22.023628 
657.000000 50.337475 22.444191 
657.166667 50.833950 22.665558 
657.333333 51.802578 23.097445 
657.500000 50.875736 22.684189 
657.666667 55.553169 24.769737 
657.833333 58.344067 26.014126 
658.000000 62.093884 27.686073 
658.166667 60.214283 26.848007 
658.333333 57.393772 25.590414 
658.500000 55.482380 24.738173 
658.666667 56.391209 25.143396 
658.833333 57.313705 25.554714 
659.000000 53.576180 23.888247 
659.166667 49.847946 22.225924 
659.333333 46.101852 20.555635 
659.500000 47.979870 21.392996 
659.666667 47.033535 20.971050 
659.833333 45.166714 20.138681 
660.000000 41.427406 18.471420 
660.166667 38.618229 17.218880 
660.333333 37.665649 16.794149 
660.500000 34.823681 15.526988 
660.666667 31.049509 13.844181 
660.833333 31.050589 13.844663 
661.000000 37.632236 16.779251 
661.166667 47.947392 21.378515 
661.333333 53.561924 23.881891 
661.500000 54.489487 24.295467 
661.666667 56.403347 25.148809 
661.833333 65.838478 29.355694 
662.000000 74.323616 33.139000 
662.166667 79.024498 35.235001 
662.333333 72.441513 32.299816 
662.500000 66.807388 29.787704 
662.666667 61.202198 27.288494 
662.833333 58.866688 26.247150 
663.000000 51.327888 22.885792 
663.166667 46.590698 20.773600 
663.333333 42.342827 18.879583 
663.500000 45.162899 20.136980 
663.666667 44.211803 19.712912 
663.833333 44.185009 19.700964 
664.000000 42.287594 18.854956 
664.166667 44.171589 19.694981 
664.333333 44.195591 19.705683 
664.500000 43.272648 19.294167 
664.666667 39.512981 17.617826 
664.833333 37.632648 16.779434 
665.000000 38.576832 17.200422 
665.166667 42.361332 18.887835 
665.333333 45.207813 20.157007 
665.500000 44.279076 19.742907 
665.666667 43.324547 19.317307 
665.833333 45.653099 20.355549 
666.000000 54.107357 24.125086 
666.166667 60.688622 27.059504 
666.333333 64.891556 28.933485 
666.500000 65.790230 29.334181 
666.666667 63.883347 28.483950 
666.833333 61.080746 27.234341 
667.000000 59.240566 26.413853 
667.166667 63.024220 28.100887 
667.333333 62.090496 27.684563 
667.500000 58.323322 26.004877 
667.666667 49.862076 22.232224 
667.833333 48.007366 21.405256 
668.000000 48.039494 21.419580 
668.166667 52.761311 23.524918 
668.333333 54.616402 24.352057 
668.500000 52.706585 23.500517 
668.666667 48.924332 21.814108 
668.833333 48.928520 21.815975 
669.000000 53.615131 23.905615 
669.166667 57.342651 25.567621 
669.333333 57.323196 25.558947 
669.500000 54.516510 24.307516 
669.666667 51.729141 23.064701 
669.833333 48.922062 21.813095 
670.000000 47.040806 20.974291 
670.166667 45.159100 20.135286 
670.333333 47.047245 20.977163 
670.500000 48.959637 21.829849 
670.666667 50.866402 22.680027 
670.833333 48.988716 21.842815 
671.000000 46.137169 20.571383 
671.166667 45.172802 20.141396 
671.333333 44.220108 19.716614 
671.500000 44.218662 19.715969 
671.666667 45.155239 20.133566 
671.833333 48.891903 21.799648 
672.000000 52.630627 23.466650 
672.166667 57.329819 25.561899 
672.333333 61.119759 27.251736 
672.500000 63.967834 28.521620 
672.666667 64.914215 28.943586 
672.833333 63.037529 28.106821 
673.000000 59.277527 26.430332 
673.166667 53.663136 23.927019 
673.333333 50.858349 22.676435 
673.500000 50.863438 22.678705 
673.666667 53.655834 23.923763 
673.833333 61.158451 27.268988 
674.000000 63.975071 28.524847 
674.166667 63.029762 28.103357 
674.333333 60.199604 26.841463 
674.500000 62.039089 27.661642 
674.666667 64.837021 28.909168 
674.833333 62.015583 27.651161 
675.000000 57.350063 25.570925 
675.166667 52.205135 23.276934 
675.333333 51.275139 22.862272 
675.500000 48.455353 21.605001 
675.666667 46.110161 20.559341 
675.833333 41.428116 18.471737 
676.000000 41.443302 18.478508 
676.166667 39.560352 17.638948 
676.333333 35.772045 15.949839 
676.500000 31.049801 13.844312 
676.666667 29.163742 13.003366 
676.833333 32.927250 14.681418 
677.000000 37.624073 16.775612 
677.166667 41.361328 18.441957 
677.333333 44.164589 19.691860 
677.500000 47.926525 21.369211 
677.666667 50.773708 22.638697 
677.833333 56.440590 25.165415 
678.000000 59.267681 26.425941 
678.166667 61.149117 27.264826 
678.333333 57.387932 25.587811 
678.500000 53.181957 23.712473 
678.666667 49.438133 22.043198 
678.833333 48.503574 21.626503 
679.000000 45.189564 20.148870 
679.166667 45.174797 20.142286 
679.333333 44.226814 19.719604 
679.500000 47.985527 21.395519 
679.666667 48.904373 21.805208 
679.833333 53.568710 23.884916 
680.000000 56.367149 25.132669 
680.166667 58.261028 25.977102 
680.333333 54.532791 24.314775 
680.500000 50.793091 22.647339 
680.666667 48.917095 21.810881 
680.833333 46.096615 20.553301 
681.000000 45.160896 20.136087 
681.166667 41.417747 18.467113 
681.333333 40.500225 18.058014 
681.500000 40.511684 18.063124 
681.666667 46.142067 20.573566 
681.833333 49.413631 22.032274 
682.000000 50.342087 22.446249 
682.166667 46.573959 20.766136 
