~Version Information
VERS.                2.00 :CWLS Log ASCII Standard
WRAP.                  NO :One line per depth step
#
~Well Information
#MNEM.UNIT               DATA                    DESCRIPTION OF MNEMONIC
#--- ---- ----------------------------------- -------------------------------
STRT.F                             265.166667 :START Depth
STOP.F                            3072.000000 :STOP Depth
STEP.F                               0.166667 :STEP Length
NULL.                             -999.250000 :NULL Value
DATE.                              2013-07-23 :LOG DATE
#
~PARAMETER INFORMATION
#--- ---- ----------------------------------- -------------------------------
TD_CALI_PTS.                                      10 :Calibration Points Used for Tension Device
TD_CALI_OFFSET.                                0.000000 :Calibration coefficient offset used for Tension Device
TD_CALI_RMS.                               23.000000 :Calibration Root Mean Square Error Used for Tension Device
TD_CALI_GAIN.                                1.000000 :Calibration coefficient gain used for Tension Device
WHEEL_CORR2.                               -4.000000 :Wheel Correction 2
CALI_SERIALNUM.                                    F087 :Calibrator Serial Number
CALI_CABLE_TYP.                                7-46P-XS :Calibration Cable Type
CALI_SERIALNUM.                                      15 :Calibrator Serial Number
TD_CALI_PEAK_ERR.                               38.000000 :Calibration Peak Error Used for Tension Device
WHEEL_CORR1.                               -5.000000 :Wheel Correction 1
LCL .M                            7315.200195 :Logging Cable Length
EP_LCEQUIP_TYP.                                7-46P-XS :Logging cable type
EP_DDEQUIP_TYP.                                   IDW-E :Depth measuring device type
EP_TDEQUIP_TYP.                                CMTD-B/A :Tension device type
CALI_DATE.                             29-Apr-2013 :Calibration Date
CALI_DATE.                             11-Jul-2013 :Calibration Date
#
~Curve Information
#--- ---- ----------------------------------- -------------------------------
TDEP.F                                        :Tool Depth
EHGR_EDTC.GAPI                                     :High Resolution Corrected Gamma Ray
HGR_EDTC.GAPI                                     :High Resolution Gamma Ray
#
~ASCII data
# ...
1580.666667 70.476669 31.423742 
1580.833333 71.447350 31.856544 
1581.000000 76.186752 33.969723 
1581.166667 84.667976 37.751286 
1581.333333 87.488007 39.008663 
1581.500000 92.201729 41.110390 
1581.666667 96.017097 42.811565 
1581.833333 102.663345 45.774960 
1582.000000 111.160507 49.563625 
1582.166667 116.755875 52.058456 
1582.333333 122.343086 54.549652 
1582.500000 121.361519 54.111996 
1582.666667 122.298599 54.529816 
1582.833333 121.350113 54.106911 
1583.000000 122.230637 54.499512 
1583.166667 124.043839 55.307972 
1583.333333 124.015724 55.295437 
1583.500000 122.191040 54.481857 
1583.666667 114.734116 51.157005 
1583.833333 107.246536 47.818485 
1584.000000 99.730598 44.467323 
1584.166667 96.907448 43.208549 
1584.333333 93.152008 41.534096 
1584.500000 91.323265 40.718708 
1584.666667 85.712860 38.217171 
1584.833333 81.958084 36.543011 
1585.000000 77.203438 34.423038 
1585.166667 79.991051 35.665962 
1585.333333 86.560410 38.595070 
1585.500000 89.380585 39.852516 
1585.666667 87.494438 39.011532 
1585.833333 84.617882 37.728947 
1586.000000 86.459793 38.550209 
1586.166667 90.212082 40.223259 
1586.333333 91.203308 40.665222 
1586.500000 88.418732 39.423649 
1586.666667 80.907921 36.074772 
1586.833333 76.675652 34.187710 
1587.000000 71.982185 32.095013 
1587.166667 70.134895 31.271355 
1587.333333 70.631027 31.492569 
1587.500000 77.214012 34.427753 
1587.666667 84.711739 37.770798 
1587.833333 88.449181 39.437225 
1588.000000 86.559669 38.594742 
1588.166667 86.551773 38.591221 
1588.333333 86.535088 38.583782 
1588.500000 89.306915 39.819668 
1588.666667 87.397774 38.968430 
1588.833333 82.699562 36.873619 
1589.000000 78.040756 34.796375 
1589.166667 74.307190 33.131676 
1589.333333 74.316666 33.135899 
1589.500000 75.261307 33.557091 
1589.666667 77.148582 34.398579 
1589.833333 79.062714 35.252041 
1590.000000 79.108269 35.272354 
1590.166667 81.957718 36.542850 
1590.333333 86.644936 38.632759 
1590.500000 96.953018 43.228870 
1590.666667 103.509361 46.152176 
1590.833333 105.376015 46.984467 
1591.000000 105.351143 46.973377 
1591.166667 109.050659 48.622898 
1591.333333 115.589302 51.538311 
1591.500000 116.540184 51.962284 
1591.666667 114.711403 51.146877 
1591.833333 112.876190 50.328606 
1592.000000 111.946136 49.913918 
1592.166667 109.134995 48.660500 
1592.333333 106.319199 47.405010 
1592.500000 100.719543 44.908268 
1592.666667 97.002579 43.250969 
1592.833333 88.555473 39.484619 
1593.000000 85.696342 38.209805 
1593.166667 85.649788 38.189049 
1593.333333 87.507156 39.017200 
1593.500000 86.554535 38.592453 
1593.666667 82.786140 36.912220 
1593.833333 81.803596 36.474129 
1594.000000 81.768097 36.458302 
1594.166667 82.687088 36.868057 
1594.333333 79.906525 35.628273 
1594.500000 74.301201 33.129005 
1594.666667 70.564880 31.463076 
1594.833333 73.390610 32.722996 
1595.000000 79.981560 35.661732 
1595.166667 85.633644 38.181850 
1595.333333 83.794746 37.361935 
1595.500000 85.711342 38.216496 
1595.666667 87.600647 39.058887 
1595.833333 93.206314 41.558311 
1596.000000 95.990761 42.799824 
1596.166667 98.795654 44.050453 
1596.333333 98.789337 44.047638 
1596.500000 98.779678 44.043331 
1596.666667 97.790222 43.602158 
1596.833333 99.652420 44.432465 
1597.000000 105.298790 46.950035 
1597.166667 109.112549 48.650494 
1597.333333 106.308609 47.400288 
1597.500000 103.491379 46.144157 
1597.666667 97.850082 43.628849 
1597.833333 99.768440 44.484196 
1598.000000 97.003944 43.251575 
1598.166667 94.205605 42.003868 
1598.333333 84.768677 37.796185 
1598.500000 76.246948 33.996563 
1598.666667 76.220070 33.984577 
1598.833333 78.091454 34.818981 
1599.000000 78.082886 34.815159 
1599.166667 74.284477 33.121548 
1599.333333 74.239792 33.101624 
1599.500000 74.216751 33.091351 
1599.666667 72.358429 32.262772 
1599.833333 72.397903 32.280373 
1600.000000 74.302094 33.129402 
1600.166667 77.130592 34.390556 
1600.333333 78.079674 34.813728 
1600.500000 77.150429 34.399403 
1600.666667 76.252739 33.999146 
1600.833333 77.697792 34.643456 
1601.000000 77.702255 34.645447 
1601.166667 76.726486 34.210377 
1601.333333 73.402130 32.728130 
1601.500000 75.276253 33.563755 
1601.666667 76.213867 33.981812 
1601.833333 77.109970 34.381363 
1602.000000 73.306076 32.685303 
1602.166667 69.525787 30.999769 
1602.333333 67.681831 30.177595 
1602.500000 67.721359 30.195221 
1602.666667 70.556664 31.459410 
1602.833333 71.499527 31.879810 
1603.000000 74.320297 33.137520 
1603.166667 77.153229 34.400650 
1603.333333 80.022575 35.680019 
1603.500000 80.061180 35.697231 
1603.666667 80.069839 35.701092 
1603.833333 78.144783 34.842758 
1604.000000 79.992935 35.666801 
1604.166667 82.801338 36.918999 
1604.333333 86.563553 38.596474 
1604.500000 85.614784 38.173443 
1604.666667 84.624435 37.731869 
1604.833333 84.582664 37.713245 
1605.000000 89.271881 39.804047 
1605.166667 98.728127 44.020344 
1605.333333 103.477486 46.137962 
1605.500000 100.674553 44.888206 
1605.666667 95.033958 42.373211 
1605.833333 99.734840 44.469212 
1606.000000 109.174377 48.678062 
1606.166667 115.826248 51.643959 
1606.333333 112.102783 49.983761 
1606.500000 100.794327 44.941612 
1606.666667 93.199226 41.555149 
1606.833333 91.747620 40.907917 
1607.000000 94.562653 42.163067 
1607.166667 97.362328 43.411369 
1607.333333 97.773422 43.594666 
1607.500000 102.433205 45.672344 
1607.666667 103.378777 46.093952 
1607.833333 99.672493 44.441414 
1608.000000 96.884232 43.198200 
1608.166667 95.015930 42.365173 
1608.333333 94.076653 41.946373 
1608.500000 90.318794 40.270840 
1608.666667 88.481407 39.451595 
1608.833333 92.295433 41.152172 
1609.000000 101.730583 45.359062 
1609.166667 109.217102 48.697109 
1609.333333 110.116165 49.097980 
1609.500000 108.204796 48.245750 
1609.666667 105.368584 46.981155 
1609.833333 108.173325 48.231716 
1610.000000 105.304787 46.952709 
1610.166667 99.622574 44.419155 
1610.333333 91.139565 40.636799 
1610.500000 86.478958 38.558754 
1610.666667 90.288841 40.257484 
1610.833333 94.072357 41.944458 
1611.000000 99.723801 44.464291 
1611.166667 99.728989 44.466602 
1611.333333 103.558075 46.173897 
1611.500000 105.492081 47.036221 
1611.666667 106.453377 47.464836 
1611.833333 101.686256 45.339298 
1612.000000 96.931908 43.219456 
1612.166667 92.203033 41.110973 
1612.333333 92.202576 41.110767 
1612.500000 90.311928 40.267776 
1612.666667 85.563881 38.150745 
1612.833333 78.003235 34.779648 
1613.000000 77.043175 34.351582 
1613.166667 77.088066 34.371597 
1613.333333 75.238510 33.546925 
1613.500000 65.855179 29.363140 
1613.666667 62.093700 27.685991 
1613.833333 65.865158 29.367588 
1614.000000 80.938988 36.088623 
1614.166667 93.230812 41.569233 
1614.333333 97.027740 43.262188 
1614.500000 97.020233 43.258839 
1614.666667 100.735001 44.915157 
1614.833333 108.236885 48.260056 
1615.000000 108.230972 48.257420 
1615.166667 98.810593 44.057114 
1615.333333 83.732399 37.334133 
1615.500000 70.517021 31.441736 
1615.666667 67.665184 30.170176 
1615.833333 68.610168 30.591518 
1616.000000 72.407425 32.284618 
1616.166667 73.365906 32.711979 
1616.333333 79.954285 35.649570 
1616.500000 85.602432 38.167934 
1616.666667 89.399368 39.860889 
1616.833333 87.570992 39.045666 
1617.000000 87.596565 39.057068 
1617.166667 85.699341 38.211143 
1617.333333 86.596130 38.611000 
1617.500000 82.806473 36.921288 
1617.666667 79.977089 35.659737 
1617.833333 75.267319 33.559772 
1618.000000 75.226723 33.541672 
1618.166667 74.240837 33.102089 
1618.333333 70.460777 31.416658 
1618.500000 67.671738 30.173096 
1618.666667 64.896667 28.935764 
1618.833333 63.969631 28.522421 
1619.000000 65.853928 29.362579 
1619.166667 77.139412 34.394489 
1619.333333 87.503426 39.015537 
1619.500000 93.204926 41.557690 
1619.666667 92.316620 41.161617 
1619.833333 93.270866 41.587093 
1620.000000 91.331741 40.722485 
1620.166667 89.405113 39.863453 
1620.333333 85.619064 38.175350 
1620.500000 77.156555 34.402134 
1620.666667 72.433929 32.296436 
