~Version Information
VERS.                2.00 :CWLS Log ASCII Standard
WRAP.                  NO :One line per depth step
#
~Well Information
#MNEM.UNIT               DATA                    DESCRIPTION OF MNEMONIC
#--- ---- ----------------------------------- -------------------------------
STRT.F                             265.166667 :START Depth
STOP.F                            3072.000000 :STOP Depth
STEP.F                               0.166667 :STEP Length
NULL.                             -999.250000 :NULL Value
DATE.                              2013-07-23 :LOG DATE
#
~PARAMETER INFORMATION
#--- ---- ----------------------------------- -------------------------------
TD_CALI_PTS.                                      10 :Calibration Points Used for Tension Device
TD_CALI_OFFSET.                                0.000000 :Calibration coefficient offset used for Tension Device
TD_CALI_RMS.                               23.000000 :Calibration Root Mean Square Error Used for Tension Device
TD_CALI_GAIN.                                1.000000 :Calibration coefficient gain used for Tension Device
WHEEL_CORR2.                               -4.000000 :Wheel Correction 2
CALI_SERIALNUM.                                    F087 :Calibrator Serial Number
CALI_CABLE_TYP.                                7-46P-XS :Calibration Cable Type
CALI_SERIALNUM.                                      15 :Calibrator Serial Number
TD_CALI_PEAK_ERR.                               38.000000 :Calibration Peak Error Used for Tension Device
WHEEL_CORR1.                               -5.000000 :Wheel Correction 1
LCL .M                            7315.200195 :Logging Cable Length
EP_LCEQUIP_TYP.                                7-46P-XS :Logging cable type
EP_DDEQUIP_TYP.                                   IDW-E :Depth measuring device type
EP_TDEQUIP_TYP.                                CMTD-B/A :Tension device type
CALI_DATE.                             29-Apr-2013 :Calibration Date
CALI_DATE.                             11-Jul-2013 :Calibration Date
#
~Curve Information
#--- ---- ----------------------------------- -------------------------------
TDEP.F                                        :Tool Depth
EHGR_EDTC.GAPI                                     :High Resolution Corrected Gamma Ray
HGR_EDTC.GAPI                                     :High Resolution Gamma Ray
#
~ASCII data
# ...
2492.666667 123.430107 55.034325 
2492.833333 119.591637 53.322849 
2493.000000 118.582260 52.872795 
2493.166667 122.317513 54.538250 
2493.333333 124.199181 55.377235 
2493.500000 125.147285 55.799973 
2493.666667 125.572639 55.989628 
2493.833333 130.197647 58.051796 
2494.000000 134.822632 60.113960 
2494.166667 138.599014 61.797756 
2494.333333 137.722046 61.406738 
2494.500000 136.855652 61.020435 
2494.666667 139.232605 62.080254 
2494.833333 146.760712 65.436844 
2495.000000 152.396500 67.949699 
2495.166667 153.347565 68.373756 
2495.333333 146.847916 65.475731 
2495.500000 141.279922 62.993099 
2495.666667 136.604721 60.908550 
2495.833333 140.297272 62.554966 
2496.000000 143.054825 63.784489 
2496.166667 139.262024 62.093372 
2496.333333 132.671387 59.154778 
2496.500000 128.892868 57.470032 
2496.666667 132.572113 59.110512 
2496.833333 139.079315 62.011909 
2497.000000 148.459747 66.194405 
2497.166667 152.294617 67.904274 
2497.333333 154.250916 68.776535 
2497.500000 154.286209 68.792274 
2497.666667 158.052277 70.471466 
2497.833333 157.116669 70.054298 
2498.000000 150.541946 67.122803 
2498.166667 141.205063 62.959724 
2498.333333 135.615555 60.467506 
2498.500000 136.577957 60.896618 
2498.666667 138.391495 61.705223 
2498.833333 137.390152 61.258755 
2499.000000 130.777649 58.310410 
2499.166667 129.833191 57.889297 
2499.333333 128.887970 57.467846 
2499.500000 126.941544 56.599987 
2499.666667 117.497131 52.388966 
2499.833333 104.315506 46.511616 
2500.000000 94.954170 42.337635 
2500.166667 93.116226 41.518143 
2500.333333 98.785774 44.046047 
2500.500000 109.623642 48.878376 
2500.666667 119.036209 53.075199 
2500.833333 126.582802 56.440033 
2501.000000 130.883408 58.357559 
2501.166667 137.519135 61.316261 
2501.333333 143.194489 63.846760 
2501.500000 142.202927 63.404644 
2501.666667 135.561310 60.443317 
2501.833333 125.161697 55.806396 
2502.000000 118.563446 52.864407 
2502.166667 115.737572 51.604420 
2502.333333 119.473900 53.270355 
2502.500000 121.285736 54.078205 
2502.666667 123.121391 54.896679 
2502.833333 121.244392 54.059772 
2503.000000 121.300636 54.084850 
2503.166667 119.463806 53.265854 
2503.333333 121.352257 54.107864 
2503.500000 125.115265 55.785694 
2503.666667 127.940826 57.045540 
2503.833333 127.964989 57.056313 
2504.000000 124.277573 55.412189 
2504.166667 124.315681 55.429180 
2504.333333 125.257874 55.849281 
2504.500000 130.823975 58.331062 
2504.666667 128.899643 57.473049 
2504.833333 127.002228 56.627045 
2505.000000 125.127945 55.791348 
2505.166667 128.870316 57.459976 
2505.333333 127.852623 57.006214 
2505.500000 118.412804 52.797237 
2505.666667 110.901428 49.448109 
2505.833333 106.282120 47.388477 
2506.000000 109.141739 48.663509 
2506.166667 106.322868 47.406647 
2506.333333 105.369522 46.981575 
2506.500000 102.550797 45.724777 
2506.666667 102.570381 45.733509 
2506.833333 109.223869 48.700127 
2507.000000 115.840523 51.650326 
2507.166667 127.127174 56.682755 
2507.333333 130.826340 58.332119 
2507.500000 135.493500 60.413086 
2507.666667 134.543686 59.989590 
2507.833333 135.475784 60.405182 
2508.000000 139.214752 62.072296 
2508.166667 141.960129 63.296387 
2508.333333 140.980499 62.859596 
2508.500000 135.345581 60.347130 
2508.666667 134.477280 59.959976 
2508.833333 140.162643 62.494938 
2509.000000 151.459320 67.531837 
2509.166667 158.049149 70.470070 
2509.333333 161.818909 72.150909 
2509.500000 161.840439 72.160507 
2509.666667 161.912613 72.192688 
2509.833333 158.205368 70.539726 
2510.000000 153.503281 68.443184 
2510.166667 142.148529 63.380394 
2510.333333 129.858124 57.900414 
2510.500000 121.371582 54.116482 
2510.666667 124.183044 55.370041 
2510.833333 128.875229 57.462166 
2511.000000 132.569016 59.109135 
2511.166667 133.456711 59.504932 
2511.333333 132.515900 59.085445 
2511.500000 140.112030 62.472366 
2511.666667 145.803986 65.010269 
2511.833333 151.457245 67.530907 
2512.000000 139.226563 62.077564 
2512.166667 129.818802 57.882881 
2512.333333 123.253204 54.955448 
2512.500000 122.371178 54.562176 
2512.666667 126.193024 56.266239 
2512.833333 125.247719 55.844753 
2513.000000 128.012177 57.077354 
2513.166667 127.958893 57.053596 
2513.333333 134.532516 59.984608 
2513.500000 135.468567 60.401966 
2513.666667 130.744812 58.295765 
2513.833333 127.844681 57.002670 
2514.000000 124.971230 55.721474 
2514.166667 122.154358 54.465504 
2514.333333 114.705345 51.144176 
2514.500000 108.175720 48.232784 
2514.666667 102.546249 45.722748 
2514.833333 99.728165 44.466236 
2515.000000 103.498978 46.147545 
2515.166667 107.309868 47.846725 
2515.333333 108.308395 48.291943 
2515.500000 107.402679 47.888107 
2515.666667 109.258453 48.715549 
2515.833333 117.671616 52.466763 
2516.000000 127.040070 56.643917 
2516.166667 140.199005 62.511147 
2516.333333 144.899567 64.607010 
2516.500000 146.731155 65.423668 
2516.666667 146.641754 65.383804 
2516.833333 149.400070 66.613670 
2517.000000 150.372787 67.047379 
2517.166667 146.697250 65.408546 
2517.333333 142.057495 63.339802 
2517.500000 133.604553 59.570850 
2517.666667 131.714371 58.728069 
2517.833333 130.774185 58.308865 
2518.000000 132.713364 59.173492 
2518.166667 129.030884 57.531567 
2518.333333 126.245094 56.289455 
2518.500000 120.551666 53.750904 
2518.666667 116.714363 52.039948 
2518.833333 111.976913 49.927639 
2519.000000 108.208344 48.247330 
2519.166667 102.558563 45.728237 
2519.333333 96.869392 43.191582 
2519.500000 94.937065 42.330009 
2519.666667 94.910423 42.318130 
2519.833333 96.827454 43.172882 
2520.000000 100.639694 44.872665 
2520.166667 107.248589 47.819401 
2520.333333 115.721581 51.597290 
2520.500000 123.243790 54.951252 
2520.666667 130.779678 58.311314 
2520.833333 136.494705 60.859493 
2521.000000 140.338303 62.573257 
2521.166667 143.186584 63.843235 
2521.333333 143.121918 63.814404 
2521.500000 143.982635 64.198174 
2521.666667 141.127243 62.925026 
2521.833333 140.184860 62.504845 
2522.000000 135.480240 60.407169 
2522.166667 126.006477 56.183064 
2522.333333 115.595306 51.540989 
2522.500000 111.802589 49.849915 
2522.666667 115.621429 51.552635 
2522.833333 117.563049 52.418354 
2523.000000 118.535378 52.851891 
2523.166667 115.722458 51.597683 
2523.333333 117.600212 52.434925 
2523.500000 126.086304 56.218655 
2523.666667 136.519119 60.870380 
2523.833333 142.242203 63.422157 
2524.000000 141.329300 63.015118 
2524.166667 141.256119 62.982491 
2524.333333 138.357147 61.689911 
2524.500000 133.620453 59.577938 
2524.666667 127.025810 56.637558 
2524.833333 120.436699 53.699642 
2525.000000 113.778419 50.730885 
2525.166667 106.200012 47.351868 
2525.333333 98.648422 43.984806 
2525.500000 90.238380 40.234985 
2525.666667 82.767586 36.903950 
2525.833333 83.724083 37.330425 
2526.000000 86.548996 38.589981 
2526.166667 95.011276 42.363098 
2526.333333 98.789894 44.047886 
2526.500000 105.909096 47.222157 
2526.666667 108.759911 48.493259 
2526.833333 113.465034 50.591156 
2527.000000 112.000687 49.938240 
2527.166667 112.923035 50.349491 
2527.333333 107.276939 47.832043 
2527.500000 104.437675 46.566086 
2527.666667 96.849815 43.182854 
2527.833333 103.377693 46.093468 
2528.000000 109.954575 49.025932 
2528.166667 119.412117 53.242805 
2528.333333 119.467590 53.267540 
2528.500000 114.775192 51.175320 
2528.666667 112.889427 50.334507 
2528.833333 111.944542 49.913208 
2529.000000 118.553795 52.860104 
2529.166667 121.455246 54.153786 
2529.333333 126.212448 56.274902 
2529.500000 129.976700 57.953281 
2529.666667 134.609909 60.019115 
2529.833333 138.323654 61.674980 
2530.000000 137.841644 61.460060 
2530.166667 131.238922 58.516075 
2530.333333 117.067947 52.197601 
2530.500000 106.194466 47.349396 
2530.666667 97.727196 43.574055 
2530.833333 94.960373 42.340401 
2531.000000 89.361763 39.844124 
2531.166667 90.319183 40.271011 
2531.333333 92.200783 41.109970 
2531.500000 95.965904 42.788742 
2531.666667 96.001076 42.804424 
2531.833333 91.347481 40.729504 
