~Version Information
VERS.                2.00 :CWLS Log ASCII Standard
WRAP.                  NO :One line per depth step
#
~Well Information
#MNEM.UNIT               DATA                    DESCRIPTION OF MNEMONIC
#--- ---- ----------------------------------- -------------------------------
STRT.F                             265.166667 :START Depth
STOP.F                            3072.000000 :STOP Depth
STEP.F                               0.166667 :STEP Length
NULL.                             -999.250000 :NULL Value
DATE.                              2013-07-23 :LOG DATE
#
~PARAMETER INFORMATION
#--- ---- ----------------------------------- -------------------------------
TD_CALI_PTS.                                      10 :Calibration Points Used for Tension Device
TD_CALI_OFFSET.                                0.000000 :Calibration coefficient offset used for Tension Device
TD_CALI_RMS.                               23.000000 :Calibration Root Mean Square Error Used for Tension Device
TD_CALI_GAIN.                                1.000000 :Calibration coefficient gain used for Tension Device
WHEEL_CORR2.                               -4.000000 :Wheel Correction 2
CALI_SERIALNUM.                                    F087 :Calibrator Serial Number
CALI_CABLE_TYP.                                7-46P-XS :Calibration Cable Type
CALI_SERIALNUM.                                      15 :Calibrator Serial Number
TD_CALI_PEAK_ERR.                               38.000000 :Calibration Peak Error Used for Tension Device
WHEEL_CORR1.                               -5.000000 :Wheel Correction 1
LCL .M                            7315.200195 :Logging Cable Length
EP_LCEQUIP_TYP.                                7-46P-XS :Logging cable type
EP_DDEQUIP_TYP.                                   IDW-E :Depth measuring device type
EP_TDEQUIP_TYP.                                CMTD-B/A :Tension device type
CALI_DATE.                             29-Apr-2013 :Calibration Date
CALI_DATE.                             11-Jul-2013 :Calibration Date
#
~Curve Information
#--- ---- ----------------------------------- -------------------------------
TDEP.F                                        :Tool Depth
EHGR_EDTC.GAPI                                     :High Resolution Corrected Gamma Ray
HGR_EDTC.GAPI                                     :High Resolution Gamma Ray
#
~ASCII data
# ...
2137.000000 123.133392 54.902027 
2137.166667 120.260239 53.620964 
2137.333333 115.584297 51.536079 
2137.500000 111.899719 49.893223 
2137.666667 109.124374 48.655766 
2137.833333 110.078850 49.081341 
2138.000000 110.079666 49.081707 
2138.166667 111.030922 49.505848 
2138.333333 111.088989 49.531738 
2138.500000 114.919785 51.239792 
2138.666667 114.946228 51.251583 
2138.833333 109.242699 48.708523 
2139.000000 101.644951 45.320881 
2139.166667 95.021301 42.367565 
2139.333333 95.021042 42.367451 
2139.500000 94.070694 41.943714 
2139.666667 93.086868 41.505051 
2139.833333 86.460854 38.550682 
2140.000000 82.679855 36.864830 
2140.166667 86.488213 38.562881 
2140.333333 95.937813 42.776215 
2140.500000 105.377235 46.985012 
2140.666667 111.960953 49.920525 
2140.833333 114.780685 51.177769 
2141.000000 118.551514 52.859085 
2141.166667 119.560806 53.309105 
2141.333333 128.091324 57.112640 
2141.500000 129.990204 57.959305 
2141.666667 130.865875 58.349747 
2141.833333 124.216461 55.384941 
2142.000000 121.841774 54.326130 
2142.166667 118.067856 52.643436 
2142.333333 121.764282 54.291576 
2142.500000 114.657219 51.122719 
2142.666667 113.695183 50.693771 
2142.833333 108.117958 48.207031 
2143.000000 107.225060 47.808910 
2143.166667 96.907516 43.208580 
2143.333333 85.616577 38.174240 
2143.500000 78.089973 34.818321 
2143.666667 77.163170 34.405083 
2143.833333 80.034538 35.685352 
2144.000000 79.124268 35.279488 
2144.166667 81.947533 36.538307 
2144.333333 84.721748 37.775261 
2144.500000 95.038322 42.375156 
2144.666667 100.666458 44.884598 
2144.833333 106.314240 47.402798 
2145.000000 104.414307 46.555668 
2145.166667 104.360619 46.531731 
2145.333333 101.505310 45.258621 
2145.500000 103.390732 46.099281 
2145.666667 109.095398 48.642845 
2145.833333 113.835335 50.756264 
2146.000000 121.378586 54.119606 
2146.166667 125.138458 55.796036 
2146.333333 129.845688 57.894871 
2146.500000 127.084793 56.663857 
2146.666667 124.327126 55.434284 
2146.833333 121.532860 54.188393 
2147.000000 116.770653 52.065044 
2147.166667 109.179123 48.680176 
2147.333333 98.789864 44.047871 
2147.500000 92.197701 41.108597 
2147.666667 87.490181 39.009632 
2147.833333 88.378502 39.405712 
2148.000000 91.145309 40.639362 
2148.166667 93.001183 41.466846 
2148.333333 95.872704 42.747185 
2148.500000 98.281654 43.821274 
2148.666667 103.011154 45.930038 
2148.833333 109.597626 48.866776 
2149.000000 119.487480 53.276409 
2149.166667 128.976547 57.507343 
2149.333333 130.923615 58.375492 
2149.500000 128.115509 57.123428 
2149.666667 129.908356 57.922813 
2149.833333 133.615448 59.575706 
2150.000000 136.416260 60.824520 
2150.166667 128.901993 57.474102 
2150.333333 121.370453 54.115978 
2150.500000 116.589539 51.984291 
2150.666667 113.710373 50.700546 
2150.833333 111.803360 49.850258 
2151.000000 110.937141 49.464031 
2151.166667 115.694756 51.585331 
2151.333333 123.246391 54.952412 
2151.500000 127.952606 57.050793 
2151.666667 126.071007 56.211834 
2151.833333 115.749046 51.609539 
2152.000000 110.155479 49.115509 
2152.166667 108.324577 48.299156 
2152.333333 108.314400 48.294621 
2152.500000 101.674980 45.334270 
2152.666667 93.154716 41.535305 
2152.833333 91.253548 40.687622 
2153.000000 95.010376 42.362694 
2153.166667 102.517937 45.710125 
2153.333333 105.289597 46.945938 
2153.500000 106.186836 47.345993 
2153.666667 101.488113 45.250954 
2153.833333 100.600761 44.855305 
2154.000000 95.004745 42.360184 
2154.166667 94.080521 41.948097 
2154.333333 95.026642 42.369949 
2154.500000 99.732597 44.468212 
2154.666667 106.383896 47.433857 
2154.833333 109.250969 48.712212 
2155.000000 113.963989 50.813625 
2155.166667 121.433571 54.144123 
2155.333333 126.096519 56.223209 
2155.500000 120.446014 53.703796 
2155.666667 108.204865 48.245781 
2155.833333 99.680756 44.445099 
2156.000000 108.080086 48.190144 
2156.166667 120.266792 53.623886 
2156.333333 131.600235 58.677177 
2156.500000 129.782639 57.866760 
2156.666667 122.297272 54.529224 
2156.833333 118.534256 52.851391 
2157.000000 118.540024 52.853962 
2157.166667 117.617035 52.442425 
2157.333333 110.154419 49.115036 
2157.500000 101.727249 45.357578 
2157.666667 97.976089 43.685032 
2157.833333 100.743927 44.919140 
2158.000000 109.173096 48.677490 
2158.166667 115.739639 51.605343 
2158.333333 118.557991 52.861973 
2158.500000 115.716599 51.595070 
2158.666667 111.881195 49.884960 
2158.833333 105.250160 46.928352 
2159.000000 97.708229 43.565598 
2159.166667 91.184273 40.656734 
2159.333333 91.225647 40.675182 
2159.500000 98.779640 44.043312 
2159.666667 110.072250 49.078400 
2159.833333 119.485474 53.275517 
2160.000000 123.272491 54.964050 
2160.166667 125.228508 55.836185 
2160.333333 129.986053 57.957455 
2160.500000 137.512238 61.313190 
2160.666667 140.275375 62.545200 
2160.833333 134.109024 59.795780 
2161.000000 129.380524 57.687462 
2161.166667 131.226959 58.510742 
2161.333333 138.194870 61.617554 
2161.500000 140.032669 62.436981 
2161.666667 132.511292 59.083393 
2161.833333 122.242340 54.504730 
2162.000000 123.218666 54.940048 
2162.166667 125.109497 55.783123 
2162.333333 126.058891 56.206432 
2162.500000 117.599617 52.434658 
2162.666667 111.071411 49.523899 
2162.833333 106.420097 47.449997 
2163.000000 101.738449 45.362572 
2163.166667 99.815956 44.505379 
2163.333333 94.114449 41.963223 
2163.500000 91.267654 40.693913 
2163.666667 90.320007 40.271381 
2163.833333 93.139809 41.528656 
2164.000000 96.859016 43.186958 
2164.166667 96.802925 43.161945 
2164.333333 104.306351 46.507534 
2164.500000 109.989792 49.041634 
2164.666667 118.518661 52.844437 
2164.833333 121.373978 54.117550 
2165.000000 122.318810 54.538826 
2165.166667 126.068611 56.210766 
2165.333333 129.846954 57.895435 
2165.500000 142.167847 63.389004 
2165.666667 147.883224 65.937347 
2165.833333 157.289001 70.131142 
2166.000000 161.906738 72.190071 
2166.166667 164.667282 73.420929 
2166.333333 166.534271 74.253372 
2166.500000 160.891464 71.737389 
2166.666667 155.221817 69.209435 
2166.833333 141.511948 63.096558 
2167.000000 132.081329 58.891682 
2167.166667 125.513420 55.963223 
2167.333333 130.745468 58.296059 
2167.500000 130.756927 58.301170 
2167.666667 136.412384 60.822792 
2167.833333 140.187286 62.505924 
2168.000000 145.907196 65.056282 
2168.166667 147.868958 65.930984 
2168.333333 140.379837 62.591774 
2168.500000 134.680969 60.050797 
2168.666667 127.070549 56.657505 
2168.833333 125.153008 55.802525 
2169.000000 121.382019 54.121136 
2169.166667 116.676773 52.023186 
2169.333333 111.909271 49.897480 
2169.500000 116.538254 51.961426 
2169.666667 122.146248 54.461887 
2169.833333 125.964027 56.164135 
2170.000000 125.102295 55.779911 
2170.166667 126.080963 56.216274 
2170.333333 129.846008 57.895012 
2170.500000 132.661575 59.150398 
2170.666667 142.090439 63.354488 
2170.833333 140.287460 62.550587 
2171.000000 141.287811 62.996616 
2171.166667 137.533066 61.322472 
2171.333333 138.398148 61.708191 
2171.500000 137.396835 61.261730 
2171.666667 133.604172 59.570683 
2171.833333 138.308945 61.668419 
2172.000000 136.418976 60.825733 
2172.166667 137.277435 61.208492 
2172.333333 134.394455 59.923050 
2172.500000 129.672043 57.817448 
2172.666667 123.170082 54.918388 
2172.833333 113.811920 50.745823 
2173.000000 113.834480 50.755882 
2173.166667 114.773895 51.174744 
2173.333333 118.547958 52.857502 
2173.500000 124.245461 55.397873 
2173.666667 131.359787 58.569965 
2173.833333 138.894684 61.929585 
2174.000000 142.619431 63.590355 
2174.166667 141.146790 62.933743 
2174.333333 131.721909 58.731430 
2174.500000 121.358864 54.110813 
2174.666667 110.032074 49.060486 
2174.833333 103.400688 46.103722 
2175.000000 97.724434 43.572823 
2175.166667 94.930069 42.326889 
2175.333333 98.741661 44.026379 
2175.500000 99.713303 44.459610 
2175.666667 101.599419 45.300579 
2175.833333 98.777618 44.042412 
2176.000000 100.666763 44.884735 
2176.166667 101.660263 45.327709 
2176.333333 103.603027 46.193939 
