~Version Information
VERS.                2.00 :CWLS Log ASCII Standard
WRAP.                  NO :One line per depth step
#
~Well Information
#MNEM.UNIT               DATA                    DESCRIPTION OF MNEMONIC
#--- ---- ----------------------------------- -------------------------------
STRT.F                             265.166667 :START Depth
STOP.F                            3072.000000 :STOP Depth
STEP.F                               0.166667 :STEP Length
NULL.                             -999.250000 :NULL Value
DATE.                              2013-07-23 :LOG DATE
#
~PARAMETER INFORMATION
#--- ---- ----------------------------------- -------------------------------
TD_CALI_PTS.                                      10 :Calibration Points Used for Tension Device
TD_CALI_OFFSET.                                0.000000 :Calibration coefficient offset used for Tension Device
TD_CALI_RMS.                               23.000000 :Calibration Root Mean Square Error Used for Tension Device
TD_CALI_GAIN.                                1.000000 :Calibration coefficient gain used for Tension Device
WHEEL_CORR2.                               -4.000000 :Wheel Correction 2
CALI_SERIALNUM.                                    F087 :Calibrator Serial Number
CALI_CABLE_TYP.                                7-46P-XS :Calibration Cable Type
CALI_SERIALNUM.                                      15 :Calibrator Serial Number
TD_CALI_PEAK_ERR.                               38.000000 :Calibration Peak Error Used for Tension Device
WHEEL_CORR1.                               -5.000000 :Wheel Correction 1
LCL .M                            7315.200195 :Logging Cable Length
EP_LCEQUIP_TYP.                                7-46P-XS :Logging cable type
EP_DDEQUIP_TYP.                                   IDW-E :Depth measuring device type
EP_TDEQUIP_TYP.                                CMTD-B/A :Tension device type
CALI_DATE.                             29-Apr-2013 :Calibration Date
CALI_DATE.                             11-Jul-2013 :Calibration Date
#
~Curve Information
#--- ---- ----------------------------------- -------------------------------
TDEP.F                                        :Tool Depth
EHGR_EDTC.GAPI                                     :High Resolution Corrected Gamma Ray
HGR_EDTC.GAPI                                     :High Resolution Gamma Ray
#
~ASCII data
# ...
2690.000000 153.424088 68.407875 
2690.166667 142.058456 63.340233 
2690.333333 135.468842 60.402092 
2690.500000 128.882370 57.465347 
2690.666667 126.925514 56.592838 
2690.833333 123.110962 54.892029 
2691.000000 124.994522 55.731857 
2691.166667 124.136406 55.349247 
2691.333333 125.129814 55.792183 
2691.500000 123.254120 54.955856 
2691.666667 121.361786 54.112114 
2691.833333 117.603806 52.436527 
2692.000000 110.135063 49.106407 
2692.166667 101.706703 45.348415 
2692.333333 91.355103 40.732903 
2692.500000 82.829155 36.931400 
2692.666667 73.388855 32.722214 
2692.833333 69.629745 31.046122 
2693.000000 66.808533 29.788216 
2693.166667 68.654221 30.611158 
2693.333333 70.512581 31.439754 
2693.500000 77.098038 34.376041 
2693.666667 85.604767 38.168976 
2693.833333 96.912933 43.210999 
2694.000000 101.614326 45.307228 
2694.166667 105.371338 46.982384 
2694.333333 106.346390 47.417133 
2694.500000 106.400024 47.441048 
2694.666667 107.836998 48.081757 
2694.833333 110.629807 49.327000 
2695.000000 114.342926 50.982586 
2695.166667 122.309410 54.534637 
2695.333333 127.949776 57.049530 
2695.500000 133.548523 59.545868 
2695.666667 138.185974 61.613586 
2695.833333 138.162369 61.603065 
2696.000000 139.129730 62.034386 
2696.166667 134.501984 59.970989 
2696.333333 128.882553 57.465435 
2696.500000 120.425018 53.694435 
2696.666667 112.901054 50.339691 
2696.833333 107.290810 47.838226 
2697.000000 105.463837 47.023624 
2697.166667 107.359344 47.868786 
2697.333333 108.256462 48.268787 
2697.500000 111.026169 49.503727 
2697.666667 116.653961 52.013016 
2697.833333 127.943062 57.046535 
2698.000000 138.245529 61.640144 
2698.166667 140.981277 62.859943 
2698.333333 139.071533 62.008434 
2698.500000 139.125854 62.032658 
2698.666667 137.330353 61.232090 
2698.833333 132.662384 59.150764 
2699.000000 123.245735 54.952118 
2699.166667 114.781929 51.178326 
2699.333333 105.890259 47.213757 
2699.500000 96.517464 43.034668 
2699.666667 85.230721 38.002197 
2699.833333 79.068398 35.254574 
2700.000000 78.102600 34.823952 
2700.166667 78.098145 34.821964 
2700.333333 75.272133 33.561916 
2700.500000 72.411339 32.286362 
2700.666667 77.059402 34.358814 
2700.833333 91.620865 40.851398 
2701.000000 109.534401 48.838585 
2701.166667 121.818733 54.315857 
2701.333333 129.836578 57.890808 
2701.500000 136.416138 60.824463 
2701.666667 144.888840 64.602226 
2701.833333 144.496185 64.427155 
2702.000000 133.247925 59.411842 
2702.166667 118.202179 52.703327 
2702.333333 111.069893 49.523224 
2702.500000 113.855919 50.765442 
2702.666667 116.665131 52.017998 
2702.833333 118.546410 52.856812 
2703.000000 117.547501 52.411423 
2703.166667 117.499290 52.389927 
2703.333333 124.081703 55.324856 
2703.500000 131.666840 58.706875 
2703.666667 137.357086 61.244007 
2703.833333 143.005936 63.762688 
2704.000000 144.881546 64.598976 
2704.166667 150.539444 67.121689 
2704.333333 151.090393 67.367340 
2704.500000 153.017365 68.226524 
2704.666667 152.072418 67.805199 
2704.833333 151.515350 67.556816 
2705.000000 145.840576 65.026581 
2705.166667 143.014297 63.766415 
2705.333333 139.253677 62.089653 
2705.500000 145.740753 64.982071 
2705.666667 147.550827 65.789139 
2705.833333 149.426422 66.625420 
2706.000000 141.993378 63.311211 
2706.166667 140.171463 62.498867 
2706.333333 135.480957 60.407494 
2706.500000 133.593750 59.566036 
2706.666667 127.966423 57.056953 
2706.833333 122.385681 54.568642 
2707.000000 118.673187 52.913338 
2707.166667 117.725777 52.490910 
2707.333333 116.717491 52.041344 
2707.500000 120.430267 53.696774 
2707.666667 123.247360 54.952843 
2707.833333 125.124512 55.789818 
2708.000000 126.935982 56.597507 
2708.166667 125.019852 55.743153 
2708.333333 122.207390 54.489147 
2708.500000 117.581100 52.426403 
2708.666667 111.967499 49.923443 
2708.833333 108.205933 48.246258 
2709.000000 103.500389 46.148174 
2709.166667 98.815521 44.059311 
2709.333333 98.866547 44.082062 
2709.500000 102.642616 45.765717 
2709.666667 109.209923 48.693909 
2709.833333 116.686989 52.027740 
2710.000000 117.601433 52.435471 
2710.166667 121.360680 54.111622 
2710.333333 118.512527 52.841702 
2710.500000 119.869492 53.446739 
2710.666667 117.036339 52.183510 
2710.833333 114.240273 50.936813 
2711.000000 107.247978 47.819130 
2711.166667 107.272736 47.830166 
2711.333333 108.212982 48.249401 
2711.500000 119.497467 53.280861 
2711.666667 122.329247 54.543480 
2711.833333 130.377884 58.132160 
2712.000000 137.918976 61.494541 
2712.166667 145.427948 64.842598 
2712.333333 148.653519 66.280800 
2712.500000 143.920853 64.170624 
2712.666667 133.575714 59.557991 
2712.833333 124.153694 55.356956 
2713.000000 114.695419 51.139751 
2713.166667 114.190811 50.914761 
2713.333333 114.207954 50.922405 
2713.500000 115.216499 51.372089 
2713.666667 118.549545 52.858208 
2713.833333 123.247536 54.952923 
2714.000000 124.187515 55.372036 
2714.166667 122.344292 54.550190 
2714.333333 113.929550 50.798271 
2714.500000 112.063347 49.966179 
2714.666667 108.250244 48.266014 
2714.833333 107.260422 47.824677 
2715.000000 103.486244 46.141869 
2715.166667 104.433983 46.564442 
2715.333333 108.171509 48.230907 
2715.500000 110.938927 49.464828 
2715.666667 106.221802 47.361584 
2715.833333 103.436592 46.119728 
2716.000000 100.668442 44.885483 
2716.166667 102.558830 45.728359 
2716.333333 106.323006 47.406708 
2716.500000 104.464081 46.577862 
2716.666667 103.580009 46.183674 
2716.833333 99.839546 44.515900 
2717.000000 100.763908 44.928047 
2717.166667 102.596413 45.745113 
2717.333333 100.691521 44.895771 
2717.500000 96.921173 43.214672 
2717.666667 97.848434 43.628113 
2717.833333 102.022926 45.489410 
2718.000000 109.517982 48.831264 
2718.166667 111.402451 49.671501 
2718.333333 110.988136 49.486771 
2718.500000 111.952850 49.916912 
2718.666667 113.830238 50.753990 
2718.833333 112.890152 50.334831 
2719.000000 108.190552 48.239399 
2719.166667 103.079567 45.960541 
2719.333333 98.395264 43.871929 
2719.500000 93.688553 41.773327 
2719.666667 90.341194 40.280827 
2719.833333 86.559738 38.594772 
2720.000000 89.384026 39.854050 
2720.166667 90.770470 40.472229 
2720.333333 93.538231 41.706303 
2720.500000 91.630531 40.855709 
2720.666667 90.242989 40.237038 
2720.833333 92.179008 41.100262 
2721.000000 95.961441 42.786751 
2721.166667 93.139893 41.528694 
2721.333333 91.246742 40.684586 
2721.500000 85.614143 38.173157 
2721.666667 88.956924 39.663616 
2721.833333 91.810814 40.936092 
2722.000000 92.746742 41.353397 
2722.166667 90.349724 40.284630 
2722.333333 90.326797 40.274406 
2722.500000 91.265480 40.692944 
2722.666667 99.689217 44.448872 
2722.833333 108.088997 48.194118 
2723.000000 125.930618 56.149239 
2723.166667 138.195129 61.617672 
2723.333333 143.904251 64.163223 
2723.500000 141.114197 62.919212 
2723.666667 132.658936 59.149227 
2723.833333 123.251312 54.954605 
2724.000000 115.294571 51.406898 
2724.166667 108.746880 48.487450 
2724.333333 105.006554 46.819736 
2724.500000 106.379524 47.431908 
2724.666667 111.985054 49.931271 
2724.833333 123.250763 54.954361 
2725.000000 127.953949 57.051392 
2725.166667 134.023514 59.757652 
2725.333333 131.147705 58.475403 
2725.500000 133.011444 59.306396 
2725.666667 131.650558 58.699615 
2725.833333 136.409302 60.821419 
2726.000000 136.430466 60.830853 
2726.166667 140.191101 62.507626 
2726.333333 136.912643 61.045841 
2726.500000 140.753525 62.758392 
2726.666667 139.862183 62.360970 
2726.833333 152.564346 68.024536 
2727.000000 159.073380 70.926750 
2727.166667 166.540344 74.256081 
2727.333333 161.818344 72.150658 
2727.500000 157.104294 70.048782 
2727.666667 153.292175 68.349060 
2727.833333 151.354630 67.485153 
2728.000000 138.170578 61.606728 
2728.166667 122.227867 54.498280 
2728.333333 114.759415 51.168285 
2728.500000 127.009377 56.630230 
2728.666667 140.180496 62.502899 
2728.833333 138.797409 61.886211 
2729.000000 128.508514 57.298660 
2729.166667 121.028000 53.963287 
2729.333333 120.544044 53.747505 
