~Version Information
VERS.                2.00 :CWLS Log ASCII Standard
WRAP.                  NO :One line per depth step
#
~Well Information
#MNEM.UNIT               DATA                    DESCRIPTION OF MNEMONIC
#--- ---- ----------------------------------- -------------------------------
STRT.F                             265.166667 :START Depth
STOP.F                            3072.000000 :STOP Depth
STEP.F                               0.166667 :STEP Length
NULL.                             -999.250000 :NULL Value
DATE.                              2013-07-23 :LOG DATE
#
~PARAMETER INFORMATION
#--- ---- ----------------------------------- -------------------------------
TD_CALI_PTS.                                      10 :Calibration Points Used for Tension Device
TD_CALI_OFFSET.                                0.000000 :Calibration coefficient offset used for Tension Device
TD_CALI_RMS.                               23.000000 :Calibration Root Mean Square Error Used for Tension Device
TD_CALI_GAIN.                                1.000000 :Calibration coefficient gain used for Tension Device
WHEEL_CORR2.                               -4.000000 :Wheel Correction 2
CALI_SERIALNUM.                                    F087 :Calibrator Serial Number
CALI_CABLE_TYP.                                7-46P-XS :Calibration Cable Type
CALI_SERIALNUM.                                      15 :Calibrator Serial Number
TD_CALI_PEAK_ERR.                               38.000000 :Calibration Peak Error Used for Tension Device
WHEEL_CORR1.                               -5.000000 :Wheel Correction 1
LCL .M                            7315.200195 :Logging Cable Length
EP_LCEQUIP_TYP.                                7-46P-XS :Logging cable type
EP_DDEQUIP_TYP.                                   IDW-E :Depth measuring device type
EP_TDEQUIP_TYP.                                CMTD-B/A :Tension device type
CALI_DATE.                             29-Apr-2013 :Calibration Date
CALI_DATE.                             11-Jul-2013 :Calibration Date
#
~Curve Information
#--- ---- ----------------------------------- -------------------------------
TDEP.F                                        :Tool Depth
EHGR_EDTC.GAPI                                     :High Resolution Corrected Gamma Ray
HGR_EDTC.GAPI                                     :High Resolution Gamma Ray
#
~ASCII data
# ...
473.666667 44.243816 19.727186 
473.833333 43.329132 19.319351 
474.000000 45.225204 20.164761 
474.166667 44.269043 19.738434 
474.333333 44.246212 19.728254 
474.500000 44.230751 19.721359 
474.666667 47.991997 21.398403 
474.833333 51.749489 23.073772 
475.000000 56.422180 25.157206 
475.166667 61.085911 27.236645 
475.333333 64.822769 28.902813 
475.500000 71.430817 31.849174 
475.666667 78.054230 34.802383 
475.833333 82.783966 36.911251 
476.000000 85.608849 38.170795 
476.166667 87.490814 39.009914 
476.333333 89.376259 39.850586 
476.500000 87.500061 39.014038 
476.666667 82.842972 36.937561 
476.833333 75.348473 33.595955 
477.000000 66.892090 29.825470 
477.166667 61.201069 27.287991 
477.333333 53.640266 23.916822 
477.500000 45.631138 20.345757 
477.666667 38.101440 16.988457 
477.833333 36.199574 16.140463 
478.000000 36.650684 16.341602 
478.166667 36.643707 16.338491 
478.333333 34.781780 15.508306 
478.500000 32.919769 14.678082 
478.666667 31.987108 14.262233 
478.833333 34.807690 15.519857 
479.000000 40.448132 18.034786 
479.166667 47.975033 21.390839 
479.333333 53.649456 23.920919 
479.500000 56.507774 25.195370 
479.666667 58.413471 26.045073 
479.833333 63.102360 28.135727 
480.000000 67.776009 30.219587 
480.166667 69.636284 31.049036 
480.333333 67.750031 30.208006 
480.500000 65.868752 29.369190 
480.666667 65.835434 29.354336 
480.833333 69.547363 31.009388 
481.000000 73.281639 32.674408 
481.166667 77.060997 34.359528 
481.333333 78.983871 35.216888 
481.500000 79.949890 35.647610 
481.666667 76.195580 33.973660 
481.833333 71.492561 31.876705 
482.000000 65.863266 29.366745 
482.166667 63.081055 28.126228 
482.333333 57.464314 25.621866 
482.500000 51.815815 23.103346 
482.666667 48.020000 21.410889 
482.833333 50.820385 22.659510 
483.000000 56.461082 25.174551 
483.166667 60.218803 26.850023 
483.333333 59.253365 26.419559 
483.500000 58.273575 25.982697 
483.666667 56.373863 25.135662 
483.833333 57.326702 25.560509 
484.000000 59.240284 26.413727 
484.166667 59.263935 26.424273 
484.333333 57.392673 25.589924 
484.500000 54.574078 24.333185 
484.666667 58.336468 26.010738 
484.833333 63.047604 28.111313 
485.000000 67.792374 30.226885 
485.166667 67.822685 30.240400 
485.333333 65.008995 28.985846 
485.500000 63.086277 28.128557 
485.666667 63.995747 28.534065 
485.833333 66.803497 29.785969 
486.000000 65.859116 29.364895 
486.166667 64.875740 28.926434 
486.333333 65.779526 29.329407 
486.500000 68.591492 30.583191 
486.666667 69.573212 31.020914 
486.833333 68.667473 30.617067 
487.000000 67.737686 30.202501 
487.166667 64.913956 28.943470 
487.333333 61.150204 27.265310 
487.500000 55.508038 24.749613 
487.666667 51.774212 23.084797 
487.833333 48.976395 21.837320 
488.000000 48.045410 21.422218 
488.166667 50.843155 22.669662 
488.333333 54.580002 24.335827 
488.500000 59.267914 26.426046 
488.666667 66.788277 29.779184 
488.833333 75.254875 33.554222 
489.000000 83.673912 37.308056 
489.166667 86.445160 38.543686 
489.333333 85.480988 38.113785 
489.500000 77.059395 34.358810 
489.666667 67.701370 30.186310 
489.833333 61.140579 27.261019 
490.000000 54.088398 24.116632 
490.166667 44.683804 19.923365 
490.333333 34.341675 15.312074 
490.500000 32.010918 14.272849 
490.666667 35.790218 15.957942 
490.833333 37.675976 16.798754 
491.000000 38.602467 17.211851 
491.166667 40.470856 18.044918 
491.333333 46.111687 20.560020 
491.500000 53.635998 23.914919 
491.666667 57.389885 25.588680 
491.833333 59.235107 26.411419 
492.000000 56.390472 25.143068 
492.166667 56.386597 25.141340 
492.333333 55.474472 24.734648 
492.500000 59.256817 26.421099 
492.666667 59.264744 26.424633 
492.833333 60.208759 26.845545 
493.000000 58.325855 26.006006 
493.166667 56.449986 25.169603 
493.333333 57.426483 25.605000 
493.500000 61.215446 27.294401 
493.666667 62.154911 27.713284 
493.833333 62.120464 27.697926 
494.000000 59.272362 26.428030 
494.166667 62.095203 27.686663 
494.333333 63.970211 28.522680 
494.500000 64.876434 28.926741 
494.666667 63.902874 28.492657 
494.833333 61.071793 27.230349 
495.000000 61.105957 27.245583 
495.166667 57.374008 25.581602 
495.333333 56.448292 25.168848 
495.500000 54.570793 24.331720 
495.666667 56.452202 25.170591 
495.833333 56.457161 25.172804 
496.000000 54.602318 24.345776 
496.166667 53.693718 23.940655 
496.333333 55.592522 24.787283 
496.500000 59.335789 26.456310 
496.666667 61.184498 27.280602 
496.833333 59.275345 26.429359 
497.000000 56.444714 25.167253 
497.166667 56.439392 25.164881 
497.333333 56.415199 25.154093 
497.500000 56.385048 25.140650 
497.666667 51.206772 22.831789 
497.833333 45.590977 20.327850 
498.000000 41.860046 18.664324 
498.166667 42.341118 18.878820 
498.333333 44.222446 19.717657 
498.500000 46.103199 20.556236 
498.666667 45.162407 20.136761 
498.833333 43.302406 19.307434 
499.000000 41.442547 18.478170 
499.166667 42.396107 18.903339 
499.333333 41.434414 18.474545 
499.500000 37.646736 16.785717 
499.666667 33.869251 15.101433 
499.833333 34.807770 15.519894 
500.000000 38.567734 17.196365 
500.166667 44.183155 19.700138 
500.333333 46.042370 20.529114 
500.500000 49.792652 22.201269 
500.666667 52.644924 23.473024 
500.833333 62.078121 27.679045 
501.000000 66.803284 29.785875 
501.166667 67.745644 30.206049 
501.333333 64.925652 28.948687 
501.500000 65.866272 29.368086 
501.666667 68.718224 30.639698 
501.833333 67.813011 30.236086 
502.000000 65.011391 28.986914 
502.166667 57.465755 25.622509 
502.333333 51.782154 23.088337 
502.500000 46.114063 20.561081 
502.666667 41.399212 18.458849 
502.833333 35.742367 15.936607 
503.000000 30.080399 13.412080 
503.166667 27.248837 12.149559 
503.333333 28.197052 12.572344 
503.500000 28.214710 12.580217 
503.666667 31.989216 14.263173 
503.833333 36.697399 16.362431 
504.000000 43.283157 19.298853 
504.166667 47.984940 21.395256 
504.333333 49.882057 22.241133 
504.500000 52.739235 23.515076 
504.666667 53.702892 23.944746 
504.833333 57.462044 25.620855 
505.000000 55.546879 24.766932 
505.166667 56.466774 25.177090 
505.333333 56.453747 25.171282 
505.500000 58.336788 26.010881 
505.666667 58.318501 26.002728 
505.833333 56.402737 25.148537 
506.000000 56.374268 25.135843 
506.166667 55.440727 24.719601 
506.333333 53.591148 23.894922 
506.500000 46.088001 20.549459 
506.666667 39.978722 17.825489 
506.833333 36.213703 16.146763 
507.000000 37.632168 16.779221 
507.166667 38.127941 17.000273 
507.333333 36.266079 16.170116 
507.500000 36.738228 16.380636 
507.666667 38.598415 17.210045 
507.833333 39.523811 17.622656 
508.000000 36.695023 16.361372 
508.166667 35.751976 15.940890 
508.333333 37.625519 16.776257 
508.500000 44.176914 19.697355 
508.666667 49.796078 22.202797 
508.833333 53.560486 23.881250 
509.000000 55.475166 24.734957 
509.166667 56.445599 25.167648 
509.333333 59.277374 26.430264 
509.500000 58.337048 26.010996 
509.666667 55.510479 24.750702 
509.833333 49.868851 22.235245 
510.000000 45.189674 20.148920 
510.166667 40.505016 18.060150 
510.333333 38.629860 17.224066 
510.500000 38.605995 17.213425 
510.666667 38.586693 17.204819 
510.833333 40.456245 18.038404 
511.000000 42.332542 18.874998 
511.166667 45.127998 20.121420 
511.333333 46.979424 20.946922 
511.500000 47.909618 21.361673 
511.666667 48.871265 21.790447 
511.833333 50.782906 22.642797 
512.000000 51.740959 23.069969 
512.166667 52.686230 23.491442 
512.333333 50.804508 22.652430 
512.500000 48.919880 21.812122 
512.666667 48.934624 21.818697 
512.833333 50.852589 22.673868 
513.000000 54.647045 24.365719 
513.166667 55.588688 24.785574 
513.333333 61.198269 27.286741 
513.500000 64.933052 28.951986 
513.666667 68.681732 30.623426 
513.833333 68.682457 30.623749 
514.000000 67.728065 30.198212 
514.166667 66.753906 29.763859 
514.333333 64.838524 28.909838 
514.500000 67.656532 30.166317 
514.666667 66.749863 29.762056 
514.833333 62.080246 27.679993 
515.000000 55.511013 24.750940 
515.166667 52.690235 23.493227 
