~Version Information
VERS.                2.00 :CWLS Log ASCII Standard
WRAP.                  NO :One line per depth step
#
~Well Information
#MNEM.UNIT               DATA                    DESCRIPTION OF MNEMONIC
#--- ---- ----------------------------------- -------------------------------
STRT.F                             265.166667 :START Depth
STOP.F                            3072.000000 :STOP Depth
STEP.F                               0.166667 :STEP Length
NULL.                             -999.250000 :NULL Value
DATE.                              2013-07-23 :LOG DATE
#
~PARAMETER INFORMATION
#--- ---- ----------------------------------- -------------------------------
TD_CALI_PTS.                                      10 :Calibration Points Used for Tension Device
TD_CALI_OFFSET.                                0.000000 :Calibration coefficient offset used for Tension Device
TD_CALI_RMS.                               23.000000 :Calibration Root Mean Square Error Used for Tension Device
TD_CALI_GAIN.                                1.000000 :Calibration coefficient gain used for Tension Device
WHEEL_CORR2.                               -4.000000 :Wheel Correction 2
CALI_SERIALNUM.                                    F087 :Calibrator Serial Number
CALI_CABLE_TYP.                                7-46P-XS :Calibration Cable Type
CALI_SERIALNUM.                                      15 :Calibrator Serial Number
TD_CALI_PEAK_ERR.                               38.000000 :Calibration Peak Error Used for Tension Device
WHEEL_CORR1.                               -5.000000 :Wheel Correction 1
LCL .M                            7315.200195 :Logging Cable Length
EP_LCEQUIP_TYP.                                7-46P-XS :Logging cable type
EP_DDEQUIP_TYP.                                   IDW-E :Depth measuring device type
EP_TDEQUIP_TYP.                                CMTD-B/A :Tension device type
CALI_DATE.                             29-Apr-2013 :Calibration Date
CALI_DATE.                             11-Jul-2013 :Calibration Date
#
~Curve Information
#--- ---- ----------------------------------- -------------------------------
TDEP.F                                        :Tool Depth
EHGR_EDTC.GAPI                                     :High Resolution Corrected Gamma Ray
HGR_EDTC.GAPI                                     :High Resolution Gamma Ray
#
~ASCII data
# ...
2334.833333 99.659088 44.435436 
2335.000000 95.004333 42.360001 
2335.166667 94.086792 41.950893 
2335.333333 93.149338 41.532906 
2335.500000 86.569412 38.599087 
2335.666667 79.078125 35.258911 
2335.833333 69.710777 31.082251 
2336.000000 71.611511 31.929739 
2336.166667 72.522499 32.335926 
2336.333333 75.301117 33.574841 
2336.500000 73.393181 32.724140 
2336.666667 74.328560 33.141201 
2336.833333 77.149872 34.399155 
2337.000000 80.868820 36.057339 
2337.166667 84.579300 37.711746 
2337.333333 86.436279 38.539726 
2337.500000 89.293221 39.813560 
2337.666667 91.226097 40.675381 
2337.833333 90.313644 40.268543 
2338.000000 87.494995 39.011780 
2338.166667 80.904640 36.073307 
2338.333333 77.145294 34.397114 
2338.500000 72.485321 32.319351 
2338.666667 67.813065 30.236109 
2338.833333 59.357582 26.466026 
2339.000000 54.614571 24.351240 
2339.166667 52.704918 23.499775 
2339.333333 54.573963 24.333134 
2339.500000 59.276440 26.429848 
2339.666667 67.742828 30.204794 
2339.833333 76.157753 33.956795 
2340.000000 82.699005 36.873371 
2340.166667 91.135284 40.634892 
2340.333333 99.654930 44.433582 
2340.500000 112.875740 50.328403 
2340.666667 124.193481 55.374695 
2340.833333 134.539307 59.987633 
2341.000000 137.358551 61.244659 
2341.166667 140.216293 62.518856 
2341.333333 143.126953 63.816643 
2341.500000 145.072128 64.683952 
2341.666667 140.355911 62.581108 
2341.833333 128.039795 57.089664 
2342.000000 111.986488 49.931908 
2342.166667 101.622681 45.310951 
2342.333333 95.964684 42.788197 
2342.500000 94.966927 42.343323 
2342.666667 89.286736 39.810669 
2342.833333 85.523140 38.132580 
2343.000000 85.578094 38.157082 
2343.166667 88.430168 39.428749 
2343.333333 98.788780 44.047390 
2343.500000 100.660889 44.882114 
2343.666667 106.306503 47.399349 
2343.833333 106.355034 47.420986 
2344.000000 113.011574 50.388969 
2344.166667 118.695892 52.923462 
2344.333333 126.188164 56.264072 
2344.500000 139.302994 62.111641 
2344.666667 147.739868 65.873428 
2344.833333 157.144775 70.066833 
2345.000000 154.311081 68.803360 
2345.166667 151.426041 67.516998 
2345.333333 144.749481 64.540092 
2345.500000 141.891708 63.265881 
2345.666667 137.229919 61.187309 
2345.833333 126.019478 56.188862 
2346.000000 112.881729 50.331074 
2346.166667 99.721191 44.463127 
2346.333333 92.198219 41.108826 
2346.500000 89.389481 39.856483 
2346.666667 90.378059 40.297264 
2346.833333 95.138512 42.419827 
2347.000000 97.039986 43.267647 
2347.166667 98.882751 44.089287 
2347.333333 95.062714 42.386032 
2347.500000 94.096230 41.955101 
2347.666667 96.911545 43.210377 
2347.833333 103.491386 46.144161 
2348.000000 106.262245 47.379616 
2348.166667 102.447433 45.678688 
2348.333333 97.722672 43.572037 
2348.500000 94.943146 42.332718 
2348.666667 100.645737 44.875359 
2348.833333 108.192329 48.240192 
2349.000000 117.605507 52.437286 
2349.166667 119.474258 53.270515 
2349.333333 118.540108 52.854000 
2349.500000 115.780472 51.623550 
2349.666667 112.077950 49.972691 
2349.833333 105.521217 47.049210 
2350.000000 96.991859 43.246189 
2350.166667 88.468010 39.445621 
2350.333333 80.910103 36.075745 
2350.500000 79.026466 35.235878 
2350.666667 82.736084 36.889904 
2350.833333 93.034103 41.481525 
2351.000000 102.409050 45.661575 
2351.166667 104.347466 46.525864 
2351.333333 101.586540 45.294838 
2351.500000 94.092461 41.953419 
2351.666667 94.096100 41.955044 
2351.833333 97.858101 43.632423 
2352.000000 102.585533 45.740265 
2352.166667 106.409126 47.445107 
2352.333333 111.162369 49.564457 
2352.500000 121.513351 54.179695 
2352.666667 131.793686 58.763432 
2352.833333 142.091858 63.355125 
2353.000000 143.943481 64.180717 
2353.166667 142.058975 63.340462 
2353.333333 140.144562 62.486874 
2353.500000 140.069229 62.453281 
2353.666667 141.891556 63.265812 
2353.833333 139.066544 62.006210 
2354.000000 137.263763 61.202400 
2354.166667 134.503998 59.971889 
2354.333333 132.643921 59.142529 
2354.500000 127.937462 57.044041 
2354.666667 123.235046 54.947353 
2354.833333 118.563766 52.864548 
2355.000000 114.866409 51.215992 
2355.166667 112.092896 49.979355 
2355.333333 108.320885 48.297512 
2355.500000 107.325905 47.853874 
2355.666667 105.396408 46.993561 
2355.833333 109.144157 48.664585 
2356.000000 111.021088 49.501461 
2356.166667 110.998428 49.491360 
2356.333333 107.177032 47.787495 
2356.500000 106.184952 47.345154 
2356.666667 108.074242 48.187538 
2356.833333 107.188293 47.792519 
2357.000000 108.186302 48.237503 
2357.166667 106.321419 47.405998 
2357.333333 107.258018 47.823605 
2357.500000 104.429741 46.562550 
2357.666667 101.644836 45.320831 
2357.833333 103.599785 46.192493 
2358.000000 106.467873 47.471298 
2358.166667 114.910484 51.235645 
2358.333333 118.613991 52.886944 
2358.500000 123.276917 54.966022 
2358.666667 121.391441 54.125336 
2358.833333 123.264244 54.960373 
2359.000000 124.147369 55.354134 
2359.166667 118.442612 52.810528 
2359.333333 109.934555 49.017006 
2359.500000 101.512497 45.261826 
2359.666667 100.620964 44.864311 
2359.833333 94.078857 41.947353 
2360.000000 91.260025 40.690510 
2360.166667 90.323975 40.273148 
2360.333333 95.024750 42.369102 
2360.500000 99.739014 44.471073 
2360.666667 104.496292 46.592224 
2360.833333 106.419365 47.449673 
2361.000000 106.420952 47.450378 
2361.166667 113.892036 50.781544 
2361.333333 121.381630 54.120964 
2361.500000 124.183670 55.370319 
2361.666667 116.652344 52.012295 
2361.833333 111.933365 49.908222 
2362.000000 112.821465 50.304203 
2362.166667 116.535789 51.960327 
2362.333333 118.412781 52.797230 
2362.500000 111.882050 49.885342 
2362.666667 104.402748 46.550514 
2362.833333 99.721252 44.463154 
2363.000000 106.315170 47.403214 
2363.166667 111.018219 49.500183 
2363.333333 109.142044 48.663643 
2363.500000 100.730232 44.913033 
2363.666667 99.837929 44.515179 
2363.833333 104.552727 46.617386 
2364.000000 112.022049 49.947765 
2364.166667 112.913528 50.345253 
2364.333333 112.422005 50.126095 
2364.500000 112.407883 50.119797 
2364.666667 114.219696 50.927639 
2364.833333 111.818695 49.857094 
2365.000000 110.869507 49.433876 
2365.166667 112.820152 50.303619 
2365.333333 117.568298 52.420696 
2365.500000 117.586456 52.428791 
2365.666667 112.886452 50.333179 
2365.833333 111.000031 49.492073 
2366.000000 119.475815 53.271210 
2366.166667 128.025040 57.083092 
2366.333333 131.862015 58.793896 
2366.500000 129.069794 57.548920 
2366.666667 131.819794 58.775074 
2366.833333 136.458328 60.843273 
2367.000000 145.826935 65.020500 
2367.166667 149.584839 66.696053 
2367.333333 150.519775 67.112915 
2367.500000 151.366974 67.490662 
2367.666667 158.796768 70.803413 
2367.833333 163.468857 72.886581 
2368.000000 157.923111 70.413872 
2368.166667 154.256348 68.778961 
2368.333333 150.525330 67.115395 
2368.500000 152.402588 67.952415 
2368.666667 147.691467 65.851845 
2368.833333 141.118332 62.921055 
2369.000000 130.847214 58.341427 
2369.166667 121.503662 54.175373 
2369.333333 121.524620 54.184719 
2369.500000 121.455742 54.154007 
2369.666667 119.513397 53.287964 
2369.833333 113.840408 50.758526 
2370.000000 110.079445 49.081608 
2370.166667 111.960503 49.920322 
2370.333333 114.715317 51.148624 
2370.500000 119.353920 53.216858 
2370.666667 126.843315 56.556187 
2370.833333 130.674103 58.264236 
2371.000000 134.509323 59.974262 
2371.166667 132.673355 59.155651 
2371.333333 132.673294 59.155624 
2371.500000 128.905136 57.475502 
2371.666667 124.213943 55.383820 
2371.833333 124.286888 55.416344 
2372.000000 117.749420 52.501453 
2372.166667 113.052467 50.407204 
2372.333333 107.338539 47.859509 
2372.500000 111.045929 49.512539 
2372.666667 110.083786 49.083542 
2372.833333 108.195107 48.241428 
2373.000000 104.414307 46.555668 
2373.166667 102.472511 45.689869 
2373.333333 103.366692 46.088562 
2373.500000 102.420380 45.666626 
2373.666667 99.651001 44.431831 
2373.833333 94.057869 41.937996 
2374.000000 96.903122 43.206623 
2374.166667 102.548012 45.723534 
2374.333333 109.134544 48.660301 
