~Version Information
VERS.                2.00 :CWLS Log ASCII Standard
WRAP.                  NO :One line per depth step
#
~Well Information
#MNEM.UNIT               DATA                    DESCRIPTION OF MNEMONIC
#--- ---- ----------------------------------- -------------------------------
STRT.F                             265.166667 :START Depth
STOP.F                            3072.000000 :STOP Depth
STEP.F                               0.166667 :STEP Length
NULL.                             -999.250000 :NULL Value
DATE.                              2013-07-23 :LOG DATE
#
~PARAMETER INFORMATION
#--- ---- ----------------------------------- -------------------------------
TD_CALI_PTS.                                      10 :Calibration Points Used for Tension Device
TD_CALI_OFFSET.                                0.000000 :Calibration coefficient offset used for Tension Device
TD_CALI_RMS.                               23.000000 :Calibration Root Mean Square Error Used for Tension Device
TD_CALI_GAIN.                                1.000000 :Calibration coefficient gain used for Tension Device
WHEEL_CORR2.                               -4.000000 :Wheel Correction 2
CALI_SERIALNUM.                                    F087 :Calibrator Serial Number
CALI_CABLE_TYP.                                7-46P-XS :Calibration Cable Type
CALI_SERIALNUM.                                      15 :Calibrator Serial Number
TD_CALI_PEAK_ERR.                               38.000000 :Calibration Peak Error Used for Tension Device
WHEEL_CORR1.                               -5.000000 :Wheel Correction 1
LCL .M                            7315.200195 :Logging Cable Length
EP_LCEQUIP_TYP.                                7-46P-XS :Logging cable type
EP_DDEQUIP_TYP.                                   IDW-E :Depth measuring device type
EP_TDEQUIP_TYP.                                CMTD-B/A :Tension device type
CALI_DATE.                             29-Apr-2013 :Calibration Date
CALI_DATE.                             11-Jul-2013 :Calibration Date
#
~Curve Information
#--- ---- ----------------------------------- -------------------------------
TDEP.F                                        :Tool Depth
EHGR_EDTC.GAPI                                     :High Resolution Corrected Gamma Ray
HGR_EDTC.GAPI                                     :High Resolution Gamma Ray
#
~ASCII data
# ...
1939.166667 91.360245 40.735195 
1939.333333 93.269882 41.586655 
1939.500000 97.946465 43.671822 
1939.666667 108.248970 48.265446 
1939.833333 118.565353 52.865257 
1940.000000 122.310280 54.535023 
1940.166667 124.182404 55.369755 
1940.333333 124.129494 55.346165 
1940.500000 129.697571 57.828827 
1940.666667 133.416336 59.486931 
1940.833333 128.751190 57.406860 
1941.000000 123.185844 54.925415 
1941.166667 116.642479 52.007896 
1941.333333 114.767296 51.171799 
1941.500000 111.942528 49.912308 
1941.666667 112.890953 50.335186 
1941.833333 113.887672 50.779598 
1942.000000 111.129471 49.549786 
1942.166667 109.280701 48.725468 
1942.333333 105.466400 47.024769 
1942.500000 101.647949 45.322220 
1942.666667 96.915062 43.211945 
1942.833333 97.852928 43.630116 
1943.000000 100.667183 44.884922 
1943.166667 100.612839 44.860691 
1943.333333 104.312820 46.510418 
1943.500000 106.161690 47.334782 
1943.666667 108.090416 48.194752 
1943.833333 110.034019 49.061352 
1944.000000 110.065956 49.075592 
1944.166667 109.131218 48.658817 
1944.333333 96.908539 43.209038 
1944.500000 85.177704 37.978558 
1944.666667 77.687027 34.638657 
1944.833333 77.700752 34.644775 
1945.000000 79.082077 35.260674 
1945.166667 79.048874 35.245869 
1945.333333 80.911880 36.076538 
1945.500000 89.380569 39.852509 
1945.666667 97.830795 43.620247 
1945.833333 101.545532 45.276554 
1946.000000 99.620598 44.418274 
1946.166667 95.856384 42.739910 
1946.333333 94.974411 42.346661 
1946.500000 94.078812 41.947334 
1946.666667 95.042633 42.377079 
1946.833333 92.215218 41.116405 
1947.000000 90.343620 40.281910 
1947.166667 90.375717 40.296219 
1947.333333 95.136986 42.419147 
1947.500000 100.811333 44.949192 
1947.666667 103.601242 46.193142 
1947.833333 106.363655 47.424831 
1948.000000 107.268707 47.828373 
1948.166667 109.137398 48.661572 
1948.333333 111.013008 49.497860 
1948.500000 112.839401 50.312202 
1948.666667 115.603279 51.544544 
1948.833333 117.449768 52.367847 
1949.000000 118.428337 52.804165 
1949.166667 117.553276 52.413998 
1949.333333 118.533615 52.851105 
1949.500000 124.193703 55.374794 
1949.666667 131.720871 58.730965 
1949.833333 134.585663 60.008301 
1950.000000 129.935715 57.935009 
1950.166667 124.319931 55.431076 
1950.333333 124.275986 55.411480 
1950.500000 122.334663 54.545895 
1950.666667 120.423233 53.693638 
1950.833333 113.838356 50.757610 
1951.000000 112.895119 50.337044 
1951.166667 111.888535 49.888233 
1951.333333 116.532600 51.958904 
1951.500000 118.392326 52.788109 
1951.666667 119.398643 53.236801 
1951.833333 117.578362 52.425182 
1952.000000 120.426147 53.694939 
1952.166667 125.126205 55.790573 
1952.333333 132.643127 59.142174 
1952.500000 139.251846 62.088833 
1952.666667 146.862289 65.482140 
1952.833333 152.575897 68.029686 
1953.000000 156.336594 69.706490 
1953.166667 157.181534 70.083221 
1953.333333 153.352051 68.375755 
1953.500000 149.557312 66.683777 
1953.666667 142.041412 63.332634 
1953.833333 134.499939 59.970081 
1954.000000 123.163582 54.915489 
1954.166667 117.471329 52.377460 
1954.333333 111.830475 49.862347 
1954.500000 111.421822 49.680138 
1954.666667 113.359581 50.544136 
1954.833333 119.966408 53.489952 
1955.000000 121.377243 54.119007 
1955.166667 122.350655 54.553024 
1955.333333 118.653313 52.904476 
1955.500000 123.400414 55.021088 
1955.666667 123.376129 55.010258 
1955.833333 122.366554 54.560116 
1956.000000 111.969154 49.924179 
1956.166667 101.599251 45.300507 
1956.333333 96.894936 43.202972 
1956.500000 98.743813 44.027340 
1956.666667 104.329712 46.517948 
1956.833333 105.235878 46.921986 
1957.000000 104.319054 46.513195 
1957.166667 105.331306 46.964535 
1957.333333 107.256187 47.822788 
1957.500000 108.217087 48.251228 
1957.666667 105.390846 46.991081 
1957.833333 101.630661 45.314510 
1958.000000 96.973755 43.238117 
1958.166667 92.319878 41.163071 
1958.333333 89.510277 39.910343 
1958.500000 84.753960 37.789623 
1958.666667 85.640480 38.184898 
1958.833333 87.493668 39.011189 
1959.000000 95.955879 42.784271 
1959.166667 97.832840 43.621159 
1959.333333 100.602043 44.855877 
1959.500000 99.613670 44.415188 
1959.666667 103.354507 46.083130 
1959.833333 105.288849 46.945602 
1960.000000 103.932205 46.340710 
1960.166667 97.380920 43.419659 
1960.333333 91.745956 40.907173 
1960.500000 85.641045 38.185150 
1960.666667 82.856873 36.943760 
1960.833333 79.120483 35.277798 
1961.000000 81.002449 36.116920 
1961.166667 81.904839 36.519272 
1961.333333 86.578117 38.602966 
1961.500000 92.202446 41.110710 
1961.666667 99.725212 44.464920 
1961.833333 103.448242 46.124924 
1962.000000 103.398705 46.102837 
1962.166667 103.354820 46.083271 
1962.333333 105.256042 46.930977 
1962.500000 108.128433 48.211700 
1962.666667 108.163696 48.227425 
1962.833333 106.300598 47.396717 
1963.000000 107.245331 47.817947 
1963.166667 110.072861 49.078671 
1963.333333 115.771919 51.619736 
1963.500000 116.777237 52.067982 
1963.666667 120.578430 53.762836 
1963.833333 124.294533 55.419750 
1964.000000 131.755753 58.746517 
1964.166667 130.780807 58.311813 
1964.333333 131.713531 58.727695 
1964.500000 131.708588 58.725491 
1964.666667 130.706238 58.278568 
1964.833333 124.053162 55.312130 
1965.000000 114.618355 51.105392 
1965.166667 110.909706 49.451801 
1965.333333 110.039825 49.063942 
1965.500000 115.707649 51.591080 
1965.666667 116.648026 52.010368 
1965.833333 114.759460 51.168308 
1966.000000 111.514069 49.721268 
1966.166667 109.698723 48.911854 
1966.333333 106.905579 47.666462 
1966.500000 103.577530 46.182571 
1966.666667 103.526978 46.160030 
1966.833333 106.334755 47.411945 
1967.000000 107.283508 47.834972 
1967.166667 106.330940 47.410244 
1967.333333 109.081459 48.636631 
1967.500000 112.772469 50.282356 
1967.666667 118.390816 52.787434 
1967.833333 115.632195 51.557438 
1968.000000 110.986092 49.485859 
1968.166667 104.422775 46.559444 
1968.333333 108.182198 48.235672 
1968.500000 113.829109 50.753487 
1968.666667 120.442993 53.702450 
1968.833333 121.454597 54.153496 
1969.000000 120.564178 53.756481 
1969.166667 120.564514 53.756630 
1969.333333 122.387550 54.569477 
1969.500000 122.338936 54.547802 
1969.666667 116.681107 52.025120 
1969.833333 109.144386 48.664688 
1970.000000 104.426361 46.561043 
1970.166667 104.362030 46.532360 
1970.333333 102.437584 45.674297 
1970.500000 100.555237 44.835007 
1970.666667 95.906662 42.762325 
1970.833333 95.011948 42.363396 
1971.000000 93.146614 41.531693 
1971.166667 93.152153 41.534161 
1971.333333 88.494011 39.457214 
1971.500000 88.545860 39.480331 
1971.666667 89.509605 39.910042 
1971.833333 92.288582 41.149117 
1972.000000 95.057327 42.383629 
1972.166667 103.494576 46.145584 
1972.333333 114.785858 51.180077 
1972.500000 123.245026 54.951801 
1972.666667 128.819946 57.437519 
1972.833333 137.206787 61.176994 
1973.000000 142.817261 63.678562 
1973.166667 150.403580 67.061104 
1973.333333 150.485168 67.097488 
1973.500000 146.763702 65.438179 
1973.666667 136.425201 60.828503 
1973.833333 127.008682 56.629921 
1974.000000 120.422867 53.693474 
1974.166667 108.243935 48.263199 
1974.333333 98.876984 44.086716 
1974.500000 88.548721 39.481609 
1974.666667 85.673676 38.199699 
1974.833333 84.697212 37.764320 
1975.000000 93.142601 41.529903 
1975.166667 101.609856 45.305233 
1975.333333 113.824966 50.751640 
1975.500000 125.968567 56.166161 
1975.666667 138.135315 61.591003 
1975.833333 144.693054 64.514931 
1976.000000 148.544525 66.232201 
1976.166667 151.425476 67.516747 
1976.333333 148.635529 66.272781 
1976.500000 142.048355 63.335724 
1976.666667 130.771591 58.307705 
1976.833333 120.458145 53.709206 
1977.000000 115.834373 51.647583 
1977.166667 115.884453 51.669910 
1977.333333 115.874756 51.665588 
1977.500000 107.331200 47.856236 
1977.666667 98.812836 44.058113 
1977.833333 95.031532 42.372128 
1978.000000 93.130661 41.524578 
1978.166667 88.373802 39.403618 
1978.333333 82.694984 36.871578 
1978.500000 77.995567 34.776226 
1978.666667 79.923271 35.635742 
