~Version Information
VERS.                2.00 :CWLS Log ASCII Standard
WRAP.                  NO :One line per depth step
#
~Well Information
#MNEM.UNIT               DATA                    DESCRIPTION OF MNEMONIC
#--- ---- ----------------------------------- -------------------------------
STRT.F                             265.166667 :START Depth
STOP.F                            3072.000000 :STOP Depth
STEP.F                               0.166667 :STEP Length
NULL.                             -999.250000 :NULL Value
DATE.                              2013-07-23 :LOG DATE
#
~PARAMETER INFORMATION
#--- ---- ----------------------------------- -------------------------------
TD_CALI_PTS.                                      10 :Calibration Points Used for Tension Device
TD_CALI_OFFSET.                                0.000000 :Calibration coefficient offset used for Tension Device
TD_CALI_RMS.                               23.000000 :Calibration Root Mean Square Error Used for Tension Device
TD_CALI_GAIN.                                1.000000 :Calibration coefficient gain used for Tension Device
WHEEL_CORR2.                               -4.000000 :Wheel Correction 2
CALI_SERIALNUM.                                    F087 :Calibrator Serial Number
CALI_CABLE_TYP.                                7-46P-XS :Calibration Cable Type
CALI_SERIALNUM.                                      15 :Calibrator Serial Number
TD_CALI_PEAK_ERR.                               38.000000 :Calibration Peak Error Used for Tension Device
WHEEL_CORR1.                               -5.000000 :Wheel Correction 1
LCL .M                            7315.200195 :Logging Cable Length
EP_LCEQUIP_TYP.                                7-46P-XS :Logging cable type
EP_DDEQUIP_TYP.                                   IDW-E :Depth measuring device type
EP_TDEQUIP_TYP.                                CMTD-B/A :Tension device type
CALI_DATE.                             29-Apr-2013 :Calibration Date
CALI_DATE.                             11-Jul-2013 :Calibration Date
#
~Curve Information
#--- ---- ----------------------------------- -------------------------------
TDEP.F                                        :Tool Depth
EHGR_EDTC.GAPI                                     :High Resolution Corrected Gamma Ray
HGR_EDTC.GAPI                                     :High Resolution Gamma Ray
#
~ASCII data
# ...
1217.666667 101.555916 45.281185 
1217.833333 101.595856 45.298992 
1218.000000 99.725204 44.464916 
1218.166667 98.778709 44.042900 
1218.333333 95.958580 42.785477 
1218.500000 87.533318 39.028866 
1218.666667 82.881409 36.954700 
1218.833333 82.906197 36.965752 
1219.000000 85.698891 38.210941 
1219.166667 89.413490 39.867188 
1219.333333 89.393394 39.858227 
1219.500000 92.212990 41.115414 
1219.666667 93.149780 41.533104 
1219.833333 99.679253 44.444427 
1220.000000 101.500793 45.256607 
1220.166667 99.595169 44.406937 
1220.333333 93.997467 41.911064 
1220.500000 91.235374 40.679520 
1220.666667 94.082199 41.948845 
1220.833333 98.794075 44.049751 
1221.000000 107.274185 47.830814 
1221.166667 112.992363 50.380402 
1221.333333 114.921227 51.240433 
1221.500000 113.048370 50.405376 
1221.666667 106.392418 47.437656 
1221.833333 103.532043 46.162289 
1222.000000 98.806984 44.055504 
1222.166667 98.809341 44.056557 
1222.333333 95.025635 42.369499 
1222.500000 96.844780 43.180611 
1222.666667 94.919113 42.322002 
1222.833333 93.027428 41.478550 
1223.000000 88.385338 39.408760 
1223.166667 85.603378 38.168354 
1223.333333 90.326012 40.274055 
1223.500000 92.202309 41.110649 
1223.666667 98.795654 44.050453 
1223.833333 96.931915 43.219460 
1224.000000 100.755386 44.924248 
1224.166667 104.554657 46.618244 
1224.333333 113.961205 50.812386 
1224.500000 120.486084 53.721661 
1224.666667 122.326027 54.542046 
1224.833333 123.256035 54.956711 
1225.000000 123.253021 54.955368 
1225.166667 124.169693 55.364090 
1225.333333 125.971054 56.167271 
1225.500000 124.993645 55.731468 
1225.666667 122.176628 54.475433 
1225.833333 118.481194 52.827732 
1226.000000 113.814720 50.747070 
1226.166667 107.236801 47.814144 
1226.333333 98.771355 44.039619 
1226.500000 96.932495 43.219719 
1226.666667 100.757416 44.925152 
1226.833333 104.553070 46.617538 
1227.000000 101.701591 45.346138 
1227.166667 101.642418 45.319752 
1227.333333 103.497978 46.147099 
1227.500000 106.319237 47.405025 
1227.666667 103.504181 46.149864 
1227.833333 94.060646 41.939236 
1228.000000 86.483032 38.560570 
1228.166667 78.931534 35.193550 
1228.333333 78.956451 35.204662 
1228.500000 77.121025 34.386292 
1228.666667 83.725311 37.330975 
1228.833333 93.139053 41.528320 
1229.000000 104.423790 46.559895 
1229.166667 108.199936 48.243584 
1229.333333 105.431778 47.009331 
1229.500000 102.660698 45.773777 
1229.666667 98.916405 44.104294 
1229.833333 97.925407 43.662434 
1230.000000 90.347191 40.283501 
1230.166667 81.849670 36.494675 
1230.333333 79.020325 35.233139 
1230.500000 85.549377 38.144279 
1230.666667 94.901649 42.314217 
1230.833333 97.696106 43.560192 
1231.000000 94.924896 42.324581 
1231.166667 92.159569 41.091595 
1231.333333 94.069855 41.943340 
1231.500000 101.600220 45.300938 
1231.666667 107.246407 47.818428 
1231.833333 108.194160 48.241009 
1232.000000 110.147255 49.111843 
1232.166667 115.854607 51.656605 
1232.333333 124.351303 55.445065 
1232.500000 128.988968 57.512878 
1232.666667 124.224556 55.388550 
1232.833333 110.082527 49.082981 
1233.000000 96.909515 43.209473 
1233.166667 91.260918 40.690907 
1233.333333 90.265945 40.247276 
1233.500000 84.580963 37.712486 
1233.666667 75.157516 33.510815 
1233.833333 67.682671 30.177971 
1234.000000 69.602509 31.033978 
1234.166667 78.079941 34.813847 
1234.333333 85.605072 38.169109 
1234.500000 89.370674 39.848095 
1234.666667 90.341949 40.281162 
1234.833333 94.166489 41.986427 
1235.000000 101.743988 45.365040 
1235.166667 108.323067 48.298485 
1235.333333 107.321472 47.851898 
1235.500000 98.800789 44.052742 
1235.666667 91.260300 40.690632 
1235.833333 86.554604 38.592484 
1236.000000 86.049698 38.367359 
1236.166667 80.365837 35.833069 
1236.333333 73.772804 32.893406 
1236.500000 69.575851 31.022093 
1236.666667 69.618561 31.041136 
1236.833333 72.445793 32.301723 
1237.000000 77.150848 34.399590 
1237.166667 79.965492 35.654568 
1237.333333 89.420456 39.870293 
1237.500000 97.017570 43.257652 
1237.666667 112.118073 49.990578 
1237.833333 119.622032 53.336403 
1238.000000 123.306259 54.979107 
1238.166667 122.331718 54.544582 
1238.333333 118.554901 52.860596 
1238.500000 115.736450 51.603920 
1238.666667 107.222908 47.807949 
1238.833333 99.633751 44.424141 
1239.000000 92.076775 41.054676 
1239.166667 93.977898 41.902340 
1239.333333 102.505211 45.704449 
1239.500000 109.117348 48.652634 
1239.666667 110.064552 49.074966 
1239.833333 111.009712 49.496391 
1240.000000 112.900391 50.339394 
1240.166667 116.740982 52.051815 
1240.333333 113.972755 50.817535 
1240.500000 105.990852 47.258610 
1240.666667 97.453354 43.451958 
1240.833333 96.457108 43.007755 
1241.000000 96.905434 43.207653 
1241.166667 96.901779 43.206024 
1241.333333 92.144379 41.084820 
1241.500000 92.096100 41.063293 
1241.666667 93.012985 41.472111 
1241.833333 91.172661 40.651558 
1242.000000 90.285545 40.256016 
1242.166667 85.608109 38.170464 
1242.333333 86.549118 38.590038 
1242.500000 87.487503 39.008438 
1242.666667 88.430565 39.428925 
1242.833333 83.774780 37.353031 
1243.000000 77.227394 34.433720 
1243.166667 73.483757 32.764526 
1243.333333 74.385773 33.166714 
1243.500000 78.114708 34.829350 
1243.666667 79.042351 35.242962 
1243.833333 75.279221 33.565079 
1244.000000 72.452927 32.304905 
1244.166667 78.035652 34.794102 
1244.333333 93.969200 41.898460 
1244.500000 108.053894 48.178467 
1244.666667 114.690598 51.137604 
1244.833333 110.979263 49.482815 
1245.000000 104.423042 46.559563 
1245.166667 101.596550 45.299301 
1245.333333 100.663826 44.883423 
1245.500000 100.680222 44.890736 
1245.666667 90.846062 40.505936 
1245.833333 85.215782 37.995537 
1246.000000 82.374840 36.728832 
1246.166667 89.389793 39.856621 
1246.333333 93.136467 41.527168 
1246.500000 99.717735 44.461586 
1246.666667 102.531364 45.716110 
1246.833333 105.295769 46.948689 
1247.000000 105.256592 46.931221 
1247.166667 105.252296 46.929306 
1247.333333 105.321861 46.960323 
1247.500000 99.730797 44.467411 
1247.666667 97.872490 43.638840 
1247.833333 92.218819 41.118011 
1248.000000 86.570526 38.599583 
1248.166667 80.954300 36.095451 
1248.333333 79.116058 35.275826 
1248.500000 81.020515 36.124973 
1248.666667 80.053993 35.694027 
1248.833333 80.945915 36.091713 
1249.000000 82.800911 36.918808 
1249.166667 87.501984 39.014896 
1249.333333 93.150635 41.533485 
1249.500000 94.997948 42.357155 
1249.666667 93.064842 41.495232 
1249.833333 83.634689 37.290569 
1250.000000 78.955109 35.204063 
1250.166667 82.773056 36.906387 
1250.333333 87.499428 39.013756 
1250.500000 90.328506 40.275169 
1250.666667 90.323288 40.272842 
1250.833333 98.848145 44.073856 
1251.000000 108.320435 48.297310 
1251.166667 112.115135 49.989269 
1251.333333 106.413002 47.446835 
1251.500000 98.827515 44.064659 
1251.666667 91.268646 40.694355 
1251.833333 89.385979 39.854919 
1252.000000 86.558807 38.594357 
1252.166667 81.813408 36.478504 
1252.333333 77.069382 34.363266 
1252.500000 73.282082 32.674606 
1252.666667 76.139488 33.948650 
1252.833333 80.884819 36.064472 
1253.000000 89.376839 39.850845 
1253.166667 91.264221 40.692379 
1253.333333 91.262291 40.691521 
1253.500000 90.345139 40.282585 
1253.666667 96.993591 43.246960 
1253.833333 101.751183 45.368248 
1254.000000 104.569862 46.625027 
1254.166667 102.623276 45.757092 
1254.333333 99.760086 44.480469 
1254.500000 95.982368 42.796082 
1254.666667 94.106590 41.959721 
1254.833333 93.120239 41.519932 
1255.000000 89.318626 39.824890 
1255.166667 79.899605 35.625191 
1255.333333 74.287804 33.123032 
1255.500000 79.017334 35.231808 
1255.666667 93.129967 41.524269 
1255.833333 103.469910 46.134586 
1256.000000 107.249817 47.819950 
1256.166667 107.302231 47.843319 
1256.333333 111.137039 49.553162 
1256.500000 114.924980 51.242107 
1256.666667 118.661964 52.908333 
1256.833333 114.836586 51.202694 
1257.000000 103.514793 46.154598 
1257.166667 94.091072 41.952801 
1257.333333 88.440956 39.433559 
1257.500000 87.466362 38.999012 
