~Version Information
VERS.                2.00 :CWLS Log ASCII Standard
WRAP.                  NO :One line per depth step
#
~Well Information
#MNEM.UNIT               DATA                    DESCRIPTION OF MNEMONIC
#--- ---- ----------------------------------- -------------------------------
STRT.F                             265.166667 :START Depth
STOP.F                            3072.000000 :STOP Depth
STEP.F                               0.166667 :STEP Length
NULL.                             -999.250000 :NULL Value
DATE.                              2013-07-23 :LOG DATE
#
~PARAMETER INFORMATION
#--- ---- ----------------------------------- -------------------------------
TD_CALI_PTS.                                      10 :Calibration Points Used for Tension Device
TD_CALI_OFFSET.                                0.000000 :Calibration coefficient offset used for Tension Device
TD_CALI_RMS.                               23.000000 :Calibration Root Mean Square Error Used for Tension Device
TD_CALI_GAIN.                                1.000000 :Calibration coefficient gain used for Tension Device
WHEEL_CORR2.                               -4.000000 :Wheel Correction 2
CALI_SERIALNUM.                                    F087 :Calibrator Serial Number
CALI_CABLE_TYP.                                7-46P-XS :Calibration Cable Type
CALI_SERIALNUM.                                      15 :Calibrator Serial Number
TD_CALI_PEAK_ERR.                               38.000000 :Calibration Peak Error Used for Tension Device
WHEEL_CORR1.                               -5.000000 :Wheel Correction 1
LCL .M                            7315.200195 :Logging Cable Length
EP_LCEQUIP_TYP.                                7-46P-XS :Logging cable type
EP_DDEQUIP_TYP.                                   IDW-E :Depth measuring device type
EP_TDEQUIP_TYP.                                CMTD-B/A :Tension device type
CALI_DATE.                             29-Apr-2013 :Calibration Date
CALI_DATE.                             11-Jul-2013 :Calibration Date
#
~Curve Information
#--- ---- ----------------------------------- -------------------------------
TDEP.F                                        :Tool Depth
EHGR_EDTC.GAPI                                     :High Resolution Corrected Gamma Ray
HGR_EDTC.GAPI                                     :High Resolution Gamma Ray
#
~ASCII data
# ...
849.000000 64.945007 28.957315 
849.166667 64.984566 28.974957 
849.333333 68.767639 30.661732 
849.500000 71.098587 31.701040 
849.666667 70.120766 31.265057 
849.833333 69.157768 30.835680 
850.000000 71.502037 31.880930 
850.166667 75.232635 33.544308 
850.333333 74.252953 33.107491 
850.500000 67.653061 30.164768 
850.666667 64.856277 28.917755 
850.833333 63.012074 28.095470 
851.000000 70.555740 31.458998 
851.166667 71.500137 31.880083 
851.333333 75.264915 33.558701 
851.500000 71.508179 31.883667 
851.666667 68.720299 30.640621 
851.833333 65.935402 29.398909 
852.000000 65.009392 28.986023 
852.166667 68.744843 30.651566 
852.333333 68.706947 30.634668 
852.500000 70.570061 31.465384 
852.666667 67.745857 30.206144 
852.833333 68.687248 30.625887 
853.000000 73.814400 32.911953 
853.166667 78.493103 34.998066 
853.333333 80.372818 35.836182 
853.500000 76.186188 33.969471 
853.666667 76.207382 33.978920 
853.833333 76.204605 33.977684 
854.000000 80.902863 36.072517 
854.166667 80.907677 36.074661 
854.333333 82.837273 36.935020 
854.500000 86.652397 38.636086 
854.666667 92.311333 41.159260 
854.833333 98.853325 44.076168 
855.000000 97.869171 43.637360 
855.166667 100.675896 44.888805 
855.333333 100.673904 44.887917 
855.500000 105.372261 46.982796 
855.666667 110.010925 49.051056 
855.833333 109.961197 49.028885 
856.000000 108.065620 48.183693 
856.166667 102.490288 45.697796 
856.333333 103.483353 46.140579 
856.500000 103.031532 45.939125 
856.666667 102.080879 45.515251 
856.833333 102.115547 45.530708 
857.000000 101.700378 45.345596 
857.166667 106.450310 47.463470 
857.333333 107.366455 47.871956 
857.500000 109.192368 48.686081 
857.666667 106.329247 47.409489 
857.833333 98.796249 44.050720 
858.000000 89.391594 39.857426 
858.166667 75.258492 33.555836 
858.333333 66.753883 29.763849 
858.500000 57.320507 25.557747 
858.666667 56.392525 25.143984 
858.833333 55.484695 24.739206 
859.000000 57.384869 25.586445 
859.166667 57.389519 25.588518 
859.333333 58.328510 26.007191 
859.500000 60.213757 26.847773 
859.666667 63.074875 28.123472 
859.833333 63.110497 28.139355 
860.000000 58.883575 26.254679 
860.166667 52.263035 23.302750 
860.333333 48.469181 21.611168 
860.500000 47.990902 21.397915 
860.666667 47.048283 20.977625 
860.833333 47.019325 20.964714 
861.000000 47.930851 21.371140 
861.166667 49.798107 22.203701 
861.333333 50.762947 22.633900 
861.500000 52.672768 23.485439 
861.666667 52.685516 23.491123 
861.833333 53.626804 23.910820 
862.000000 51.743324 23.071024 
862.166667 47.984768 21.395180 
862.333333 43.304825 19.308514 
862.500000 39.562668 17.639980 
862.666667 37.684109 16.802380 
862.833333 40.483833 18.050705 
863.000000 48.459526 21.606863 
863.166667 57.861851 25.799118 
863.333333 66.329559 29.574654 
863.500000 69.599922 31.032824 
863.666667 74.265076 33.112896 
863.833333 78.946869 35.200390 
864.000000 76.148277 33.952568 
864.166667 68.663002 30.615074 
864.333333 58.336441 26.010727 
864.500000 52.690952 23.493547 
864.666667 53.625908 23.910419 
864.833333 54.569866 24.331306 
865.000000 61.194294 27.284969 
865.166667 63.102345 28.135721 
865.333333 64.046272 28.556595 
865.500000 62.126976 27.700829 
865.666667 61.160927 27.270092 
865.833333 62.093067 27.685709 
866.000000 61.154507 27.267229 
866.166667 62.091316 27.684929 
866.333333 59.237606 26.412533 
866.500000 61.094559 27.240499 
866.666667 64.852585 28.916107 
866.833333 72.412758 32.286995 
867.000000 76.198654 33.975029 
867.166667 77.625458 34.611206 
867.333333 75.753006 33.776325 
867.500000 73.909058 32.954159 
867.666667 75.361023 33.601551 
867.833333 76.319572 34.028946 
868.000000 76.287498 34.014645 
868.166667 73.419632 32.735935 
868.333333 72.444984 32.301365 
868.500000 72.435341 32.297066 
868.666667 74.306786 33.131493 
868.833333 74.275162 33.117393 
869.000000 66.724899 29.750925 
869.166667 54.488724 24.295128 
869.333333 46.995014 20.953875 
869.500000 47.965065 21.386395 
869.666667 47.981346 21.393654 
869.833333 43.282021 19.298346 
870.000000 37.636002 16.780930 
870.166667 35.753258 15.941463 
870.333333 39.537411 17.628719 
870.500000 45.207996 20.157089 
870.666667 47.101284 21.001257 
870.833333 43.315704 19.313364 
871.000000 41.877186 18.671965 
871.166667 43.745239 19.504883 
871.333333 49.390392 22.021912 
871.500000 48.897789 21.802273 
871.666667 49.811401 22.209629 
871.833333 48.855881 21.783587 
872.000000 54.522499 24.310186 
872.166667 60.194096 26.839006 
872.333333 65.851456 29.361479 
872.500000 67.730911 30.199480 
872.666667 68.672653 30.619377 
872.833333 69.620911 31.042183 
873.000000 70.608864 31.482685 
873.166667 71.586349 31.918520 
873.333333 71.594963 31.922361 
873.500000 70.609146 31.482811 
873.666667 68.696358 30.629948 
873.833333 66.805077 29.786674 
874.000000 63.042339 28.108965 
874.166667 59.273064 26.428343 
874.333333 55.478634 24.736504 
874.500000 52.646267 23.473623 
874.666667 49.828468 22.217239 
874.833333 46.094936 20.552553 
875.000000 45.165165 20.137991 
875.166667 43.283237 19.298887 
875.333333 44.221558 19.717260 
875.500000 44.234913 19.723215 
875.666667 43.315765 19.313391 
875.833333 43.334408 19.321703 
876.000000 43.326904 19.318357 
876.166667 48.006229 21.404749 
876.333333 50.809635 22.654716 
876.500000 56.448929 25.169132 
876.666667 57.393574 25.590326 
876.833333 60.195507 26.839636 
877.000000 61.094830 27.240622 
877.166667 61.071701 27.230309 
877.333333 57.320415 25.557707 
877.500000 51.717541 23.059528 
877.666667 48.914837 21.809874 
877.833333 46.102356 20.555861 
878.000000 44.217091 19.715269 
878.166667 40.457790 18.039093 
878.333333 41.893200 18.679106 
878.500000 47.559082 21.205378 
878.666667 54.145588 24.142132 
878.833333 58.354607 26.018826 
879.000000 61.156807 27.268255 
879.166667 64.916656 28.944677 
879.333333 69.616570 31.040247 
879.500000 72.404015 32.283096 
879.666667 73.302238 32.683594 
879.833333 68.585159 30.580366 
880.000000 63.912540 28.496965 
880.166667 63.953785 28.515356 
880.333333 66.793320 29.781431 
880.500000 70.566666 31.463869 
880.666667 72.450829 32.303970 
880.833333 76.226479 33.987434 
881.000000 79.091553 35.264900 
881.166667 83.843040 37.383465 
881.333333 87.622261 39.068523 
881.500000 86.640381 38.630730 
881.666667 80.947319 36.092339 
881.833333 75.274460 33.562954 
882.000000 69.623978 31.043550 
882.166667 61.610558 27.470572 
882.333333 50.297890 22.426542 
882.500000 42.759254 19.065258 
882.666667 37.600121 16.764931 
882.833333 34.799477 15.516196 
883.000000 33.869179 15.101399 
883.166667 34.806957 15.519532 
883.333333 37.630867 16.778641 
883.500000 40.459122 18.039686 
883.666667 43.313133 19.312218 
883.833333 45.211826 20.158796 
884.000000 46.154999 20.579332 
884.166667 49.890419 22.244862 
884.333333 50.812202 22.655861 
884.500000 52.689289 23.492805 
884.666667 52.689022 23.492687 
884.833333 53.625465 23.910223 
885.000000 53.590214 23.894505 
885.166667 51.686234 23.045568 
885.333333 49.802532 22.205675 
885.500000 47.954384 21.381632 
885.666667 47.504669 21.181116 
885.833333 48.452751 21.603842 
886.000000 49.394424 22.023710 
886.166667 51.765587 23.080950 
886.333333 56.507618 25.195301 
886.500000 63.119961 28.143576 
886.666667 65.931656 29.397240 
886.833333 65.898575 29.382488 
887.000000 60.225353 26.852943 
887.166667 57.394524 25.590750 
887.333333 60.210770 26.846441 
887.500000 66.770538 29.771273 
887.666667 72.372955 32.269249 
887.833333 70.466438 31.419182 
888.000000 66.721542 29.749430 
888.166667 64.882339 28.929375 
888.333333 66.791763 29.780737 
888.500000 67.739067 30.203117 
888.666667 61.154125 27.267059 
888.833333 51.747169 23.072739 
889.000000 44.240772 19.725828 
889.166667 42.382458 18.897253 
889.333333 42.391754 18.901398 
889.500000 42.843384 19.102768 
889.666667 44.701221 19.931131 
889.833333 50.333630 22.442478 
890.000000 54.563911 24.328651 
890.166667 57.358196 25.574553 
890.333333 59.203125 26.397158 
890.500000 62.950451 28.067995 
