~Version Information
VERS.                2.00 :CWLS Log ASCII Standard
WRAP.                  NO :One line per depth step
#
~Well Information
#MNEM.UNIT               DATA                    DESCRIPTION OF MNEMONIC
#--- ---- ----------------------------------- -------------------------------
STRT.F                             265.166667 :START Depth
STOP.F                            3072.000000 :STOP Depth
STEP.F                               0.166667 :STEP Length
NULL.                             -999.250000 :NULL Value
DATE.                              2013-07-23 :LOG DATE
#
~PARAMETER INFORMATION
#--- ---- ----------------------------------- -------------------------------
TD_CALI_PTS.                                      10 :Calibration Points Used for Tension Device
TD_CALI_OFFSET.                                0.000000 :Calibration coefficient offset used for Tension Device
TD_CALI_RMS.                               23.000000 :Calibration Root Mean Square Error Used for Tension Device
TD_CALI_GAIN.                                1.000000 :Calibration coefficient gain used for Tension Device
WHEEL_CORR2.                               -4.000000 :Wheel Correction 2
CALI_SERIALNUM.                                    F087 :Calibrator Serial Number
CALI_CABLE_TYP.                                7-46P-XS :Calibration Cable Type
CALI_SERIALNUM.                                      15 :Calibrator Serial Number
TD_CALI_PEAK_ERR.                               38.000000 :Calibration Peak Error Used for Tension Device
WHEEL_CORR1.                               -5.000000 :Wheel Correction 1
LCL .M                            7315.200195 :Logging Cable Length
EP_LCEQUIP_TYP.                                7-46P-XS :Logging cable type
EP_DDEQUIP_TYP.                                   IDW-E :Depth measuring device type
EP_TDEQUIP_TYP.                                CMTD-B/A :Tension device type
CALI_DATE.                             29-Apr-2013 :Calibration Date
CALI_DATE.                             11-Jul-2013 :Calibration Date
#
~Curve Information
#--- ---- ----------------------------------- -------------------------------
TDEP.F                                        :Tool Depth
EHGR_EDTC.GAPI                                     :High Resolution Corrected Gamma Ray
HGR_EDTC.GAPI                                     :High Resolution Gamma Ray
#
~ASCII data
# ...
1015.333333 62.113907 27.695002 
1015.500000 63.040085 28.107960 
1015.666667 62.099152 27.688423 
1015.833333 56.450863 25.169994 
1016.000000 50.782600 22.642662 
1016.166667 44.174282 19.696182 
1016.333333 42.285294 18.853930 
1016.500000 44.190647 19.703478 
1016.666667 56.912086 25.375643 
1016.833333 69.153320 30.833694 
1017.000000 80.450630 35.870876 
1017.166667 86.580223 38.603905 
1017.333333 89.455719 39.886017 
1017.500000 91.364532 40.737106 
1017.666667 92.303482 41.155762 
1017.833333 87.550728 39.036629 
1018.000000 82.814247 36.924755 
1018.166667 74.336632 33.144802 
1018.333333 72.448563 32.302959 
1018.500000 69.615135 31.039608 
1018.666667 71.449448 31.857479 
1018.833333 73.304832 32.684750 
1019.000000 75.184692 33.522930 
1019.166667 73.344872 32.702602 
1019.333333 73.370857 32.714188 
1019.500000 79.022301 35.234020 
1019.666667 82.783623 36.911098 
1019.833333 82.786400 36.912338 
1020.000000 76.237267 33.992245 
1020.166667 70.630852 31.492491 
1020.333333 64.063332 28.564201 
1020.500000 58.391777 26.035398 
1020.666667 49.891396 22.245296 
1020.833333 49.874435 22.237734 
1021.000000 53.631332 23.912838 
1021.166667 63.007301 28.093344 
1021.333333 65.794151 29.335928 
1021.500000 66.716927 29.747372 
1021.666667 67.683861 30.178501 
1021.833333 68.655075 30.611540 
1022.000000 69.611435 31.037958 
1022.166667 64.910667 28.942007 
1022.333333 58.325542 26.005867 
1022.500000 50.808197 22.654076 
1022.666667 48.009312 21.406124 
1022.833333 48.035900 21.417978 
1023.000000 47.100330 21.000832 
1023.166667 45.195702 20.151608 
1023.333333 47.051579 20.979095 
1023.500000 52.686077 23.491373 
1023.666667 58.331253 26.008413 
1023.833333 59.725105 26.629896 
1024.000000 58.750343 26.195274 
1024.166667 57.792164 25.768047 
1024.333333 58.280842 25.985935 
1024.500000 54.553528 24.324022 
1024.666667 49.864559 22.233332 
1024.833333 44.219688 19.716427 
1025.000000 42.333469 18.875410 
1025.166667 41.397671 18.458162 
1025.333333 42.365841 18.889845 
1025.500000 45.215523 20.160444 
1025.666667 47.105129 21.002972 
1025.833333 46.135197 20.570503 
1026.000000 44.226334 19.719391 
1026.166667 44.212788 19.713350 
1026.333333 45.155148 20.133524 
1026.500000 48.916080 21.810429 
1026.666667 51.705372 23.054102 
1026.833333 52.621033 23.462372 
1027.000000 49.787724 22.199072 
1027.166667 49.820484 22.213678 
1027.333333 50.787769 22.644966 
1027.500000 54.567196 24.330116 
1027.666667 60.215931 26.848743 
1027.833333 63.977161 28.525780 
1028.000000 65.865120 29.367571 
1028.166667 65.899933 29.383095 
1028.333333 65.914330 29.389511 
1028.500000 64.026535 28.547792 
1028.666667 60.224922 26.852751 
1028.833333 55.507011 24.749155 
1029.000000 52.684204 23.490538 
1029.166667 47.038094 20.973082 
1029.333333 47.011345 20.961155 
1029.500000 47.927822 21.369789 
1029.666667 54.510555 24.304861 
1029.833333 61.125977 27.254509 
1030.000000 63.033607 28.105072 
1030.166667 60.218582 26.849924 
1030.333333 56.453941 25.171368 
1030.500000 55.508297 24.749729 
1030.666667 52.693176 23.494539 
1030.833333 47.070030 20.987322 
1031.000000 42.382263 18.897167 
1031.166667 40.497395 18.056751 
1031.333333 42.355602 18.885279 
1031.500000 46.104355 20.556751 
1031.666667 52.684196 23.490536 
1031.833333 62.096886 27.687412 
1032.000000 67.730042 30.199093 
1032.166667 72.390869 32.277237 
1032.333333 71.420357 31.844509 
1032.500000 69.539810 31.006021 
1032.666667 64.876953 28.926971 
1032.833333 60.195271 26.839531 
1033.000000 52.677284 23.487453 
1033.166667 49.856712 22.229832 
1033.333333 48.936523 21.819544 
1033.500000 51.787277 23.090622 
1033.666667 54.632881 24.359404 
1033.833333 60.271690 26.873604 
1034.000000 65.894302 29.380585 
1034.166667 69.640121 31.050749 
1034.333333 72.456970 32.306709 
1034.500000 74.329605 33.141670 
1034.666667 75.240173 33.547668 
1034.833333 72.373131 32.269325 
1035.000000 74.227997 33.096363 
1035.166667 74.245369 33.104111 
1035.333333 74.282661 33.120739 
1035.500000 71.486481 31.873993 
1035.666667 66.787704 29.778929 
1035.833333 64.907181 28.940451 
1036.000000 61.155533 27.267687 
1036.166667 60.720089 27.073534 
1036.333333 56.988350 25.409647 
1036.500000 55.581337 24.782295 
1036.666667 57.906521 25.819036 
1036.833333 63.522060 28.322861 
1037.000000 65.870171 29.369823 
1037.166667 67.746078 30.206244 
1037.333333 66.767761 29.770035 
1037.500000 70.484222 31.427113 
1037.666667 73.283691 32.675323 
1037.833333 73.317345 32.690327 
1038.000000 71.475960 31.869303 
1038.166667 66.793015 29.781296 
1038.333333 66.791687 29.780703 
1038.500000 67.729378 30.198797 
1038.666667 70.560463 31.461105 
1038.833333 69.660728 31.059935 
1039.000000 64.986420 28.975782 
1039.166667 60.290943 26.882189 
1039.333333 53.668877 23.929579 
1039.500000 48.001041 21.402435 
1039.666667 43.283058 19.298807 
1039.833333 39.988434 17.829819 
1040.000000 38.085789 16.981478 
1040.166667 36.186218 16.134508 
1040.333333 39.467209 17.597418 
1040.500000 46.070538 20.541674 
1040.666667 51.733356 23.066580 
1040.833333 53.630501 23.912468 
1041.000000 52.692158 23.494085 
1041.166667 54.573875 24.333094 
1041.333333 59.301315 26.440939 
1041.500000 62.155464 27.713531 
1041.666667 58.411861 26.044353 
1041.833333 53.690498 23.939219 
1042.000000 51.774693 23.085011 
1042.166667 53.631226 23.912790 
1042.333333 55.507111 24.749201 
1042.500000 55.506855 24.749086 
1042.666667 54.548874 24.321947 
1042.833333 55.453217 24.725170 
1043.000000 59.195698 26.393847 
1043.166667 62.030930 27.658005 
1043.333333 63.007664 28.093504 
1043.500000 66.796204 29.782719 
1043.666667 70.565056 31.463154 
1043.833333 72.445633 32.301655 
1044.000000 69.625381 31.044176 
1044.166667 66.371101 29.593176 
1044.333333 64.507347 28.762175 
1044.500000 59.796318 26.661648 
1044.666667 53.647911 23.920231 
1044.833333 48.924149 21.814026 
1045.000000 46.102654 20.555994 
1045.166667 46.100021 20.554819 
1045.333333 50.771580 22.637749 
1045.500000 53.563931 23.882786 
1045.666667 60.130398 26.810606 
1045.833333 64.868820 28.923346 
1046.000000 71.481842 31.871923 
1046.166667 72.446251 32.301929 
1046.333333 70.564819 31.463047 
1046.500000 66.798904 29.783922 
1046.666667 61.150883 27.265614 
1046.833333 54.592319 24.341318 
1047.000000 48.033119 21.416739 
1047.166667 42.394772 18.902744 
1047.333333 34.841579 15.534969 
1047.500000 31.056280 13.847200 
1047.666667 31.991535 14.264207 
1047.833333 35.754711 15.942111 
1048.000000 37.637779 16.781723 
1048.166667 43.252605 19.285231 
1048.333333 46.988472 20.950956 
1048.500000 51.680347 23.042944 
1048.666667 51.708149 23.055340 
1048.833333 53.616684 23.906307 
1049.000000 53.156712 23.701218 
1049.166667 51.275116 22.862263 
1049.333333 42.815575 19.090368 
1049.500000 36.720161 16.372580 
1049.666667 30.147129 13.441833 
1049.833333 28.258789 12.599871 
1050.000000 29.177851 13.009657 
1050.166667 30.106861 13.423879 
1050.333333 31.985201 14.261382 
1050.500000 31.047647 13.843351 
1050.666667 31.035620 13.837989 
1050.833333 33.836246 15.086716 
1051.000000 40.398140 18.012497 
1051.166667 48.868607 21.789261 
1051.333333 56.423149 25.157639 
1051.500000 62.088306 27.683586 
1051.666667 69.621918 31.042631 
1051.833333 81.845116 36.492641 
1052.000000 94.088089 41.951469 
1052.166667 103.548424 46.169594 
1052.333333 106.894638 47.661583 
1052.500000 107.864532 48.094036 
1052.666667 104.060745 46.398022 
1052.833333 99.310577 44.280045 
1053.000000 88.925156 39.649452 
1053.166667 83.267258 37.126740 
1053.333333 76.168716 33.961681 
1053.500000 72.367096 32.266636 
1053.666667 67.643524 30.160517 
1053.833333 64.851074 28.915436 
1054.000000 65.825439 29.349880 
1054.166667 66.786438 29.778362 
1054.333333 70.555786 31.459019 
1054.500000 73.379517 32.718048 
1054.666667 77.149422 34.398952 
1054.833333 78.131485 34.836830 
1055.000000 79.117622 35.276524 
1055.166667 78.193726 34.864582 
1055.333333 78.154350 34.847023 
1055.500000 77.169708 34.407997 
1055.666667 73.384369 32.720211 
