~Version Information
VERS.                2.00 :CWLS Log ASCII Standard
WRAP.                  NO :One line per depth step
#
~Well Information
#MNEM.UNIT               DATA                    DESCRIPTION OF MNEMONIC
#--- ---- ----------------------------------- -------------------------------
STRT.F                             265.166667 :START Depth
STOP.F                            3072.000000 :STOP Depth
STEP.F                               0.166667 :STEP Length
NULL.                             -999.250000 :NULL Value
DATE.                              2013-07-23 :LOG DATE
#
~PARAMETER INFORMATION
#--- ---- ----------------------------------- -------------------------------
TD_CALI_PTS.                                      10 :Calibration Points Used for Tension Device
TD_CALI_OFFSET.                                0.000000 :Calibration coefficient offset used for Tension Device
TD_CALI_RMS.                               23.000000 :Calibration Root Mean Square Error Used for Tension Device
TD_CALI_GAIN.                                1.000000 :Calibration coefficient gain used for Tension Device
WHEEL_CORR2.                               -4.000000 :Wheel Correction 2
CALI_SERIALNUM.                                    F087 :Calibrator Serial Number
CALI_CABLE_TYP.                                7-46P-XS :Calibration Cable Type
CALI_SERIALNUM.                                      15 :Calibrator Serial Number
TD_CALI_PEAK_ERR.                               38.000000 :Calibration Peak Error Used for Tension Device
WHEEL_CORR1.                               -5.000000 :Wheel Correction 1
LCL .M                            7315.200195 :Logging Cable Length
EP_LCEQUIP_TYP.                                7-46P-XS :Logging cable type
EP_DDEQUIP_TYP.                                   IDW-E :Depth measuring device type
EP_TDEQUIP_TYP.                                CMTD-B/A :Tension device type
CALI_DATE.                             29-Apr-2013 :Calibration Date
CALI_DATE.                             11-Jul-2013 :Calibration Date
#
~Curve Information
#--- ---- ----------------------------------- -------------------------------
TDEP.F                                        :Tool Depth
EHGR_EDTC.GAPI                                     :High Resolution Corrected Gamma Ray
HGR_EDTC.GAPI                                     :High Resolution Gamma Ray
#
~ASCII data
# ...
1419.166667 117.631729 52.448978 
1419.333333 116.672379 52.021229 
1419.500000 115.727951 51.600132 
1419.666667 116.650528 52.011486 
1419.833333 115.643135 51.562313 
1420.000000 108.075806 48.188236 
1420.166667 101.485687 45.249870 
1420.333333 94.025856 41.923721 
1420.500000 91.238525 40.680923 
1420.666667 86.552574 38.591579 
1420.833333 78.080589 34.814137 
1421.000000 72.447647 32.302551 
1421.166667 69.661484 31.060272 
1421.333333 72.528297 32.338512 
1421.500000 71.602997 31.925943 
1421.666667 68.747231 30.652632 
1421.833333 64.004623 28.538023 
1422.000000 63.984112 28.528877 
1422.166667 70.569145 31.464975 
1422.333333 78.087898 34.817394 
1422.500000 81.808441 36.476292 
1422.666667 80.816277 36.033909 
1422.833333 82.675438 36.862862 
1423.000000 84.593460 37.718060 
1423.166667 89.346161 39.837166 
1423.333333 92.191315 41.105747 
1423.500000 93.137650 41.527695 
1423.666667 89.371941 39.848660 
1423.833333 84.672989 37.753517 
1424.000000 80.961853 36.098820 
1424.166667 76.294571 34.017796 
1424.333333 73.491875 32.768147 
1424.500000 69.676491 31.066965 
1424.666667 69.644257 31.052593 
1424.833333 68.679543 30.622452 
1425.000000 71.499428 31.879765 
1425.166667 71.456154 31.860470 
1425.333333 71.421989 31.845236 
1425.500000 67.643181 30.160364 
1425.666667 66.743210 29.759089 
1425.833333 63.018639 28.098398 
1426.000000 59.274837 26.429132 
1426.166667 58.337273 26.011097 
1426.333333 58.339001 26.011868 
1426.500000 61.170994 27.274580 
1426.666667 63.088997 28.129768 
1426.833333 67.826675 30.242178 
1427.000000 72.532913 32.340569 
1427.166667 76.253654 33.999554 
1427.333333 78.097054 34.821476 
1427.500000 79.028458 35.236767 
1427.666667 79.027306 35.236252 
1427.833333 79.953117 35.649048 
1428.000000 82.721062 36.883205 
1428.166667 82.689911 36.869316 
1428.333333 79.873596 35.613594 
1428.500000 76.163834 33.959503 
1428.666667 76.199585 33.975445 
1428.833333 79.027824 35.236485 
1429.000000 79.970978 35.657013 
1429.166667 79.981041 35.661499 
1429.333333 75.313416 33.580326 
1429.500000 72.524879 32.336987 
1429.666667 70.653801 31.502722 
1429.833333 72.511940 32.331219 
1430.000000 72.475777 32.315094 
1430.166667 71.516365 31.887316 
1430.333333 72.452339 32.304646 
1430.500000 73.386215 32.721035 
1430.666667 74.290726 33.124332 
1430.833333 75.188568 33.524658 
1431.000000 75.174309 33.518299 
1431.166667 76.138947 33.948406 
1431.333333 75.236465 33.546013 
1431.500000 74.314613 33.134983 
1431.666667 73.380104 32.718311 
1431.833333 72.446640 32.302101 
1432.000000 72.483521 32.318546 
1432.166667 72.527313 32.338074 
1432.333333 71.602432 31.925694 
1432.500000 69.686035 31.071220 
1432.666667 65.879921 29.374170 
1432.833333 60.211956 26.846970 
1433.000000 52.685459 23.491098 
1433.166667 47.980286 21.393181 
1433.333333 50.773006 22.638384 
1433.500000 59.203617 26.397377 
1433.666667 64.830910 28.906443 
1433.833333 64.862518 28.920538 
1434.000000 63.018322 28.098257 
1434.166667 62.098484 27.688126 
1434.333333 62.099388 27.688528 
1434.500000 61.158211 27.268881 
1434.666667 56.455189 25.171925 
1434.833333 52.718975 23.506042 
1435.000000 48.975555 21.836946 
1435.166667 48.982471 21.840031 
1435.333333 50.834538 22.665819 
1435.500000 56.461918 25.174925 
1435.666667 64.921005 28.946613 
1435.833333 72.447769 32.302605 
1436.000000 78.085289 34.816231 
1436.166667 78.040268 34.796158 
1436.333333 78.009483 34.782433 
1436.500000 78.942139 35.198280 
1436.666667 81.813293 36.478455 
1436.833333 79.958725 35.651550 
1437.000000 78.090767 34.818676 
1437.166667 76.206017 33.978313 
1437.333333 75.273438 33.562500 
1437.500000 74.368103 33.158833 
1437.666667 75.352631 33.597809 
1437.833333 79.139557 35.286304 
1438.000000 80.051071 35.692722 
1438.166667 81.886925 36.511284 
1438.333333 83.739105 37.337124 
1438.500000 84.672447 37.753277 
1438.666667 83.728233 37.332275 
1438.833333 80.867615 36.056801 
1439.000000 79.879059 35.616028 
1439.166667 81.743851 36.447491 
1439.333333 84.596359 37.719353 
1439.500000 86.523460 38.578598 
1439.666667 85.131210 37.957829 
1439.833333 84.199165 37.542252 
1440.000000 86.087105 38.384037 
1440.166667 84.719650 37.774323 
1440.333333 80.996597 36.114311 
1440.500000 75.367996 33.604660 
1440.666667 77.215614 34.428467 
1440.833333 80.946083 36.091785 
1441.000000 79.042664 35.243099 
1441.166667 75.272392 33.562035 
1441.333333 67.740913 30.203941 
1441.500000 65.830025 29.351925 
1441.666667 64.852570 28.916100 
1441.833333 64.833649 28.907663 
1442.000000 61.101196 27.243460 
1442.166667 54.552753 24.323677 
1442.333333 54.573498 24.332926 
1442.500000 58.335121 26.010138 
1442.666667 63.979122 28.526653 
1442.833333 65.869804 29.369661 
1443.000000 64.964211 28.965878 
1443.166667 64.053970 28.560026 
1443.333333 64.054474 28.560251 
1443.500000 66.843781 29.803932 
1443.666667 68.695732 30.629667 
1443.833333 69.627975 31.045334 
1444.000000 72.451508 32.304272 
1444.166667 78.084068 34.815689 
1444.333333 80.860703 36.053719 
1444.500000 80.828583 36.039398 
1444.666667 77.067787 34.362553 
1444.833333 76.167946 33.961338 
1445.000000 72.430931 32.295097 
1445.166667 68.675171 30.620501 
1445.333333 62.089111 27.683947 
1445.500000 58.331284 26.008427 
1445.666667 59.302841 26.441620 
1445.833333 66.876030 29.818310 
1446.000000 74.424751 33.184093 
1446.166667 76.287041 34.014439 
1446.333333 72.482445 32.318066 
1446.500000 70.108246 31.259474 
1446.666667 67.272217 29.994961 
1446.833333 63.477661 28.303064 
1447.000000 57.328457 25.561293 
1447.166667 56.367489 25.132820 
1447.333333 61.086563 27.236935 
1447.500000 72.409042 32.285339 
1447.666667 79.957771 35.651123 
1447.833333 86.554329 38.592361 
1448.000000 88.434029 39.430470 
1448.166667 91.265686 40.693035 
1448.333333 91.315094 40.715065 
1448.500000 87.597931 39.057674 
1448.666667 78.201454 34.868027 
1448.833333 68.744087 30.651228 
1449.000000 63.996468 28.534388 
1449.166667 61.153080 27.266594 
1449.333333 58.332157 26.008816 
1449.500000 52.682583 23.489815 
1449.666667 51.713985 23.057943 
1449.833333 51.681339 23.043386 
1450.000000 58.252319 25.973219 
1450.166667 61.098988 27.242476 
1450.333333 63.950603 28.513937 
1450.500000 62.086060 27.682585 
1450.666667 64.912910 28.943005 
1450.833333 69.619019 31.041340 
1451.000000 73.389793 32.722630 
1451.166667 72.490356 32.321594 
1451.333333 66.869736 29.815504 
1451.500000 62.172081 27.720940 
1451.666667 55.547306 24.767122 
1451.833333 50.820778 22.659685 
1452.000000 46.102909 20.556107 
1452.166667 47.040771 20.974276 
1452.333333 51.740959 23.069969 
1452.500000 58.291538 25.990705 
1452.666667 62.030636 27.657873 
1452.833333 66.724442 29.750721 
1453.000000 72.407997 32.284874 
1453.166667 79.958519 35.651459 
1453.333333 81.852463 36.495918 
1453.500000 77.146271 34.397549 
1453.666667 69.619644 31.041618 
1453.833333 66.821365 29.793936 
1454.000000 66.857765 29.810167 
1454.166667 68.763802 30.660019 
1454.333333 67.804688 30.232374 
1454.500000 69.653023 31.056499 
1454.666667 75.750099 33.775032 
1454.833333 81.395714 36.292267 
1455.000000 83.270866 37.128349 
1455.166667 81.813560 36.478573 
1455.333333 78.960014 35.206249 
1455.500000 77.997017 34.776875 
1455.666667 74.266487 33.113525 
1455.833333 66.762665 29.767765 
1456.000000 63.018448 28.098312 
1456.166667 61.148689 27.264635 
1456.333333 64.918266 28.945395 
1456.500000 64.961716 28.964767 
1456.666667 62.166080 27.718264 
1456.833333 59.361160 26.467623 
1457.000000 57.443699 25.612675 
1457.166667 61.178322 27.277847 
1457.333333 61.157909 27.268747 
1457.500000 61.153145 27.266623 
1457.666667 57.385288 25.586632 
1457.833333 56.414787 25.153910 
1458.000000 59.202488 26.396873 
1458.166667 62.007633 27.647617 
1458.333333 64.858215 28.918619 
1458.500000 62.074295 27.677340 
1458.666667 60.210556 26.846346 
1458.833333 62.087345 27.683159 
1459.000000 64.907227 28.940472 
1459.166667 69.614792 31.039454 
1459.333333 67.775902 30.219542 
1459.500000 67.810143 30.234806 
