~Version Information
VERS.                2.00 :CWLS Log ASCII Standard
WRAP.                  NO :One line per depth step
#
~Well Information
#MNEM.UNIT               DATA                    DESCRIPTION OF MNEMONIC
#--- ---- ----------------------------------- -------------------------------
STRT.F                             265.166667 :START Depth
STOP.F                            3072.000000 :STOP Depth
STEP.F                               0.166667 :STEP Length
NULL.                             -999.250000 :NULL Value
DATE.                              2013-07-23 :LOG DATE
#
~PARAMETER INFORMATION
#--- ---- ----------------------------------- -------------------------------
TD_CALI_PTS.                                      10 :Calibration Points Used for Tension Device
TD_CALI_OFFSET.                                0.000000 :Calibration coefficient offset used for Tension Device
TD_CALI_RMS.                               23.000000 :Calibration Root Mean Square Error Used for Tension Device
TD_CALI_GAIN.                                1.000000 :Calibration coefficient gain used for Tension Device
WHEEL_CORR2.                               -4.000000 :Wheel Correction 2
CALI_SERIALNUM.                                    F087 :Calibrator Serial Number
CALI_CABLE_TYP.                                7-46P-XS :Calibration Cable Type
CALI_SERIALNUM.                                      15 :Calibrator Serial Number
TD_CALI_PEAK_ERR.                               38.000000 :Calibration Peak Error Used for Tension Device
WHEEL_CORR1.                               -5.000000 :Wheel Correction 1
LCL .M                            7315.200195 :Logging Cable Length
EP_LCEQUIP_TYP.                                7-46P-XS :Logging cable type
EP_DDEQUIP_TYP.                                   IDW-E :Depth measuring device type
EP_TDEQUIP_TYP.                                CMTD-B/A :Tension device type
CALI_DATE.                             29-Apr-2013 :Calibration Date
CALI_DATE.                             11-Jul-2013 :Calibration Date
#
~Curve Information
#--- ---- ----------------------------------- -------------------------------
TDEP.F                                        :Tool Depth
EHGR_EDTC.GAPI                                     :High Resolution Corrected Gamma Ray
HGR_EDTC.GAPI                                     :High Resolution Gamma Ray
#
~ASCII data
# ...
1780.333333 99.721329 44.463188 
1780.500000 106.310013 47.400913 
1780.666667 109.135193 48.660591 
1780.833333 112.022934 49.948158 
1781.000000 112.086609 49.976551 
1781.166667 106.468018 47.471363 
1781.333333 105.468094 47.025524 
1781.500000 103.521004 46.157368 
1781.666667 105.374725 46.983894 
1781.833333 100.668114 44.885334 
1782.000000 96.854767 43.185062 
1782.166667 95.854950 42.739269 
1782.333333 99.587769 44.403637 
1782.500000 103.400642 46.103699 
1782.666667 102.520721 45.711365 
1782.833333 99.731819 44.467865 
1783.000000 96.911446 43.210335 
1783.166667 98.782288 44.044495 
1783.333333 103.491089 46.144028 
1783.500000 109.202049 48.690399 
1783.666667 110.193748 49.132572 
1783.833333 106.445625 47.461380 
1784.000000 103.556313 46.173111 
1784.166667 103.508347 46.151722 
1784.333333 111.951096 49.916130 
1784.500000 117.599586 52.434647 
1784.666667 124.189850 55.373077 
1784.833333 123.181961 54.923683 
1785.000000 124.066856 55.318237 
1785.166667 123.101181 54.887665 
1785.333333 122.238205 54.502888 
1785.500000 121.351563 54.107555 
1785.666667 118.554039 52.860210 
1785.833333 117.607826 52.438320 
1786.000000 113.850410 50.762985 
1786.166667 112.015755 49.944958 
1786.333333 109.257675 48.715202 
1786.500000 113.998886 50.829185 
1786.666667 122.431068 54.588879 
1786.833333 133.193237 59.387459 
1787.000000 141.625626 63.147243 
1787.166667 146.313751 65.237556 
1787.333333 144.838959 64.579987 
1787.500000 143.803619 64.118355 
1787.666667 139.056641 62.001801 
1787.833333 133.457611 59.505333 
1788.000000 123.200165 54.931801 
1788.166667 113.832428 50.754967 
1788.333333 106.313866 47.402634 
1788.500000 104.425789 46.560787 
1788.666667 107.257561 47.823402 
1788.833333 106.374870 47.429832 
1789.000000 104.554550 46.618198 
1789.166667 101.752312 45.368752 
1789.333333 101.691353 45.341572 
1789.500000 102.566978 45.731991 
1789.666667 99.723022 44.463943 
1789.833333 94.080345 41.948017 
1790.000000 88.437347 39.431950 
1790.166667 94.954353 42.337715 
1790.333333 108.060570 48.181442 
1790.500000 124.961861 55.717297 
1790.666667 134.441574 59.944057 
1790.833333 140.160202 62.493847 
1791.000000 140.192459 62.508232 
1791.166667 143.010132 63.764557 
1791.333333 149.595917 66.700989 
1791.500000 146.800613 65.454636 
1791.666667 138.869095 61.918179 
1791.833333 129.471588 57.728065 
1792.000000 126.633438 56.462608 
1792.166667 121.388840 54.124176 
1792.333333 113.846222 50.761116 
1792.500000 104.429214 46.562313 
1792.666667 100.659004 44.881275 
1792.833333 96.846893 43.181553 
1793.000000 94.930397 42.327034 
1793.166667 91.163956 40.647675 
1793.333333 94.035149 41.927868 
1793.500000 98.786171 44.046227 
1793.666667 101.623108 45.311142 
1793.833333 98.800621 44.052670 
1794.000000 94.093163 41.953732 
1794.166667 92.259201 41.136017 
1794.333333 90.425529 40.318428 
1794.500000 92.327957 41.166672 
1794.666667 94.161186 41.984062 
1794.833333 101.635689 45.316753 
1795.000000 110.079277 49.081532 
1795.166667 118.548813 52.857883 
1795.333333 125.130142 55.792328 
1795.500000 128.815659 57.435604 
1795.666667 129.677689 57.819965 
1795.833333 126.820465 56.546001 
1796.000000 119.359528 53.219360 
1796.166667 113.792183 50.737022 
1796.333333 107.244766 47.817696 
1796.500000 102.544060 45.721771 
1796.666667 95.011513 42.363201 
1796.833333 90.317139 40.270100 
1797.000000 92.261253 41.136932 
1797.166667 95.136093 42.418751 
1797.333333 97.495346 43.470680 
1797.500000 94.620735 42.188965 
1797.666667 98.812714 44.058060 
1797.833333 107.738762 48.037956 
1798.000000 116.194641 51.808216 
1798.166667 115.664917 51.572025 
1798.333333 111.850700 49.871365 
1798.500000 110.900391 49.447647 
1798.666667 116.595123 51.986782 
1798.833333 119.468132 53.267784 
1799.000000 116.658348 52.014973 
1799.166667 111.956100 49.918362 
1799.333333 110.075195 49.079712 
1799.500000 111.055977 49.517017 
1799.666667 112.062408 49.965759 
1799.833333 109.272331 48.721737 
1800.000000 104.539803 46.611622 
1800.166667 102.591568 45.742954 
1800.333333 102.544937 45.722164 
1800.500000 106.297478 47.395325 
1800.666667 105.354141 46.974716 
1800.833333 105.322884 46.960777 
1801.000000 103.382233 46.095493 
1801.166667 108.042770 48.173508 
1801.333333 115.597229 51.541847 
1801.500000 120.361237 53.665997 
1801.666667 121.353874 54.108585 
1801.833333 114.783508 51.179028 
1802.000000 117.615578 52.441776 
1802.166667 124.273895 55.410549 
1802.333333 133.755081 59.637966 
1802.500000 139.442184 62.173702 
1802.666667 139.373276 62.142975 
1802.833333 141.188309 62.952255 
1803.000000 142.091446 63.354939 
1803.166667 146.795517 65.452362 
1803.333333 146.785934 65.448090 
1803.500000 137.312363 61.224068 
1803.666667 122.191170 54.481915 
1803.833333 103.351402 46.081745 
1804.000000 96.814316 43.167027 
1804.166667 91.231781 40.677917 
1804.333333 97.839218 43.624004 
1804.500000 96.901253 43.205788 
1804.666667 97.843292 43.625820 
1804.833333 95.027260 42.370224 
1805.000000 99.804596 44.500317 
1805.166667 106.434746 47.456528 
1805.333333 108.340080 48.306068 
1805.500000 106.391815 47.437389 
1805.666667 100.697258 44.898331 
1805.833333 102.551781 45.725216 
1806.000000 103.485100 46.141357 
1806.166667 106.307373 47.399738 
1806.333333 105.305351 46.952961 
1806.500000 105.261848 46.933563 
1806.666667 107.119141 47.761684 
1806.833333 107.177048 47.787502 
1807.000000 103.461136 46.130672 
1807.166667 93.138626 41.528130 
1807.333333 87.497444 39.012871 
1807.500000 89.377258 39.851032 
1807.666667 94.108231 41.960453 
1807.833333 93.210159 41.560024 
1808.000000 89.457085 39.886623 
1808.166667 88.489571 39.455235 
1808.333333 92.212166 41.115044 
1808.500000 96.904068 43.207043 
1808.666667 98.784515 44.045486 
1808.833333 96.874390 43.193810 
1809.000000 94.940025 42.331329 
1809.166667 98.664803 43.992111 
1809.333333 102.444008 45.677162 
1809.500000 110.022408 49.056175 
1809.666667 113.819466 50.749187 
1809.833333 115.710938 51.592545 
1810.000000 109.122757 48.655045 
1810.166667 108.195099 48.241425 
1810.333333 113.904121 50.786934 
1810.500000 120.555428 53.752579 
1810.666667 122.469521 54.606026 
1810.833333 122.418243 54.583160 
1811.000000 123.298882 54.975815 
1811.166667 122.321640 54.540089 
1811.333333 118.546539 52.856869 
1811.500000 110.070671 49.077694 
1811.666667 99.664742 44.437958 
1811.833333 91.145264 40.639339 
1812.000000 90.177246 40.207726 
1812.166667 85.520836 38.131554 
1812.333333 81.811790 36.477783 
1812.500000 80.906654 36.074207 
1812.666667 94.087204 41.951077 
1812.833333 106.326759 47.408382 
1813.000000 116.758202 52.059494 
1813.166667 118.700157 52.925362 
1813.333333 121.537331 54.190384 
1813.500000 123.341805 54.994953 
1813.666667 127.048454 56.647655 
1813.833333 129.848328 57.896046 
1814.000000 123.261719 54.959248 
1814.166667 113.847984 50.761902 
1814.333333 101.557564 45.281918 
1814.500000 103.385597 46.096992 
1814.666667 108.069359 48.185360 
1814.833333 114.718605 51.150089 
1815.000000 113.825089 50.751694 
1815.166667 111.024368 49.502926 
1815.333333 111.017708 49.499954 
1815.500000 117.604736 52.436943 
1815.666667 125.167496 55.808983 
1815.833333 122.400642 54.575314 
1816.000000 115.859840 51.658939 
1816.166667 107.361725 47.869846 
1816.333333 107.301544 47.843014 
1816.500000 103.499435 46.147751 
1816.666667 101.607964 45.304390 
1816.833333 96.907143 43.208416 
1817.000000 97.814186 43.612843 
1817.166667 96.819283 43.169239 
1817.333333 97.263535 43.367321 
1817.500000 95.408951 42.540409 
1817.666667 94.516212 42.142361 
1817.833333 97.831848 43.620716 
1818.000000 98.775742 44.041576 
1818.166667 96.907104 43.208397 
1818.333333 95.080330 42.393887 
1818.500000 97.021301 43.259315 
1818.666667 106.460381 47.467960 
1818.833333 113.006134 50.386543 
1819.000000 116.706230 52.036320 
1819.166667 112.909668 50.343533 
1819.333333 113.831100 50.754375 
1819.500000 113.819580 50.749237 
1819.666667 119.399017 53.236965 
1819.833333 122.166382 54.470863 
