~Version Information
VERS.                2.00 :CWLS Log ASCII Standard
WRAP.                  NO :One line per depth step
#
~Well Information
#MNEM.UNIT               DATA                    DESCRIPTION OF MNEMONIC
#--- ---- ----------------------------------- -------------------------------
STRT.F                             265.166667 :START Depth
STOP.F                            3072.000000 :STOP Depth
STEP.F                               0.166667 :STEP Length
NULL.                             -999.250000 :NULL Value
DATE.                              2013-07-23 :LOG DATE
#
~PARAMETER INFORMATION
#--- ---- ----------------------------------- -------------------------------
TD_CALI_PTS.                                      10 :Calibration Points Used for Tension Device
TD_CALI_OFFSET.                                0.000000 :Calibration coefficient offset used for Tension Device
TD_CALI_RMS.                               23.000000 :Calibration Root Mean Square Error Used for Tension Device
TD_CALI_GAIN.                                1.000000 :Calibration coefficient gain used for Tension Device
WHEEL_CORR2.                               -4.000000 :Wheel Correction 2
CALI_SERIALNUM.                                    F087 :Calibrator Serial Number
CALI_CABLE_TYP.                                7-46P-XS :Calibration Cable Type
CALI_SERIALNUM.                                      15 :Calibrator Serial Number
TD_CALI_PEAK_ERR.                               38.000000 :Calibration Peak Error Used for Tension Device
WHEEL_CORR1.                               -5.000000 :Wheel Correction 1
LCL .M                            7315.200195 :Logging Cable Length
EP_LCEQUIP_TYP.                                7-46P-XS :Logging cable type
EP_DDEQUIP_TYP.                                   IDW-E :Depth measuring device type
EP_TDEQUIP_TYP.                                CMTD-B/A :Tension device type
CALI_DATE.                             29-Apr-2013 :Calibration Date
CALI_DATE.                             11-Jul-2013 :Calibration Date
#
~Curve Information
#--- ---- ----------------------------------- -------------------------------
TDEP.F                                        :Tool Depth
EHGR_EDTC.GAPI                                     :High Resolution Corrected Gamma Ray
HGR_EDTC.GAPI                                     :High Resolution Gamma Ray
#
~ASCII data
# ...
3045.500000 145.646439 64.940018 
3045.666667 148.497925 66.211426 
3045.833333 145.653763 64.943283 
3046.000000 130.188354 58.047657 
3046.166667 121.703575 54.264511 
3046.333333 117.775505 52.513084 
3046.500000 119.257393 53.173820 
3046.666667 118.917473 53.022259 
3046.833333 117.010681 52.172070 
3047.000000 112.427940 50.128742 
3047.166667 101.204002 45.124275 
3047.333333 96.945374 43.225460 
3047.500000 106.416267 47.448292 
3047.666667 117.601852 52.435658 
3047.833333 117.030525 52.180916 
3048.000000 107.034004 47.723724 
3048.166667 98.550674 43.941223 
3048.333333 98.901520 44.097656 
3048.500000 104.246300 46.480759 
3048.666667 117.791985 52.520432 
3048.833333 119.198669 53.147636 
3049.000000 114.110130 50.878788 
3049.166667 106.239883 47.369644 
3049.333333 109.507637 48.826653 
3049.500000 117.779305 52.514778 
3049.666667 114.784073 51.179279 
3049.833333 95.414459 42.542866 
3050.000000 90.644966 40.416271 
3050.166667 103.274063 46.047260 
3050.333333 130.769791 58.306904 
3050.500000 139.056061 62.001541 
3050.666667 126.788307 56.531662 
3050.833333 116.597176 51.987698 
3051.000000 121.122818 54.005566 
3051.166667 130.523956 58.197289 
3051.333333 126.061523 56.207607 
3051.500000 109.347145 48.755093 
3051.666667 103.581871 46.184505 
3051.833333 113.540985 50.625019 
3052.000000 124.482933 55.503754 
3052.166667 134.916702 60.155903 
3052.333333 135.837662 60.566536 
3052.500000 133.775299 59.646984 
3052.666667 126.648544 56.469345 
3052.833333 130.532639 58.201160 
3053.000000 136.730270 60.964531 
3053.166667 136.951385 61.063118 
3053.333333 118.938911 53.031818 
3053.500000 104.240852 46.478329 
3053.666667 108.550331 48.399815 
3053.833333 118.969849 53.045612 
3054.000000 124.132004 55.347282 
3054.166667 119.638382 53.343693 
3054.333333 108.500237 48.377480 
3054.500000 109.708107 48.916039 
3054.666667 107.235596 47.813606 
3054.833333 113.095551 50.426411 
3055.000000 112.978737 50.374329 
3055.166667 118.240005 52.720192 
3055.333333 128.393250 57.247261 
3055.500000 139.089050 62.016247 
3055.666667 150.160355 66.952660 
3055.833333 147.121460 65.597694 
3056.000000 134.201309 59.836929 
3056.166667 124.625008 55.567101 
3056.333333 119.341530 53.211334 
3056.500000 120.614410 53.778877 
3056.666667 119.603874 53.328308 
3056.833333 125.974335 56.168732 
3057.000000 126.503181 56.404530 
3057.166667 117.402740 52.346878 
3057.333333 116.662750 52.016933 
3057.500000 121.169296 54.026287 
3057.666667 130.460480 58.168991 
3057.833333 130.957550 58.390617 
3058.000000 130.183777 58.045616 
3058.166667 130.647141 58.252216 
3058.333333 125.124176 55.789669 
3058.500000 122.357468 54.556065 
3058.666667 126.859756 56.563519 
3058.833333 125.918541 56.143856 
3059.000000 117.057198 52.192810 
3059.166667 113.647842 50.672665 
3059.333333 116.580193 51.980125 
3059.500000 116.975388 52.156330 
3059.666667 104.571381 46.625702 
3059.833333 98.778313 44.042721 
3060.000000 114.606392 51.100056 
3060.166667 128.366699 57.235428 
3060.333333 134.123123 59.802067 
3060.500000 126.367592 56.344074 
3060.666667 119.810410 53.420395 
3060.833333 122.505760 54.622185 
3061.000000 122.872849 54.785858 
3061.166667 128.151749 57.139587 
3061.333333 133.262085 59.418152 
3061.500000 138.313980 61.670666 
3061.666667 133.960083 59.729374 
3061.833333 123.636375 55.126297 
3062.000000 117.050453 52.189800 
3062.166667 123.108971 54.891140 
3062.333333 133.661530 59.596252 
3062.500000 137.267288 61.203968 
3062.666667 123.263420 54.960003 
3062.833333 114.587654 51.091702 
3063.000000 124.826187 55.656803 
3063.166667 138.943619 61.951401 
3063.333333 146.068680 65.128288 
3063.500000 141.707916 63.183933 
3063.666667 140.213791 62.517742 
3063.833333 135.676285 60.494583 
3064.000000 125.871574 56.122913 
3064.166667 118.786888 52.964035 
3064.333333 115.951881 51.699978 
3064.500000 118.184784 52.695572 
3064.666667 120.800018 53.861637 
3064.833333 126.086517 56.218750 
3065.000000 133.597839 59.567860 
3065.166667 136.042786 60.657993 
3065.333333 133.812851 59.663723 
3065.500000 127.211296 56.720261 
3065.666667 121.719696 54.271698 
3065.833333 126.073982 56.213161 
3066.000000 125.890419 56.131317 
3066.166667 123.623428 55.120522 
3066.333333 112.325233 50.082947 
3066.500000 109.627861 48.880257 
3066.666667 112.234436 50.042461 
3066.833333 119.170059 53.134880 
3067.000000 130.217804 58.060783 
3067.166667 144.705429 64.520447 
3067.333333 148.921356 66.400223 
3067.500000 138.748062 61.864212 
3067.666667 124.490479 55.507118 
3067.833333 119.855690 53.440586 
3068.000000 120.211449 53.599209 
3068.166667 115.394806 51.451591 
3068.333333 100.556671 44.835648 
3068.500000 86.425163 38.534767 
3068.666667 87.694221 39.100609 
3068.833333 101.255859 45.147396 
3069.000000 118.163246 52.685966 
3069.166667 120.212708 53.599770 
3069.333333 111.572105 49.747147 
3069.500000 108.570717 48.408905 
3069.666667 116.645859 52.009403 
3069.833333 128.146896 57.137424 
3070.000000 128.365341 57.234818 
3070.166667 118.373627 52.779770 
3070.333333 117.612335 52.440331 
3070.500000 114.419670 51.016804 
3070.666667 115.727356 51.599865 
3070.833333 119.090271 53.099304 
3071.000000 126.271706 56.301323 
3071.166667 122.150330 54.463707 
3071.333333 103.882263 46.318443 
3071.500000 101.049484 45.055378 
3071.666667 112.355629 50.096500 
3071.833333 126.295609 56.311981 
