~Version Information
VERS.                2.00 :CWLS Log ASCII Standard
WRAP.                  NO :One line per depth step
#
~Well Information
#MNEM.UNIT               DATA                    DESCRIPTION OF MNEMONIC
#--- ---- ----------------------------------- -------------------------------
STRT.F                             265.166667 :START Depth
STOP.F                            3072.000000 :STOP Depth
STEP.F                               0.166667 :STEP Length
NULL.                             -999.250000 :NULL Value
DATE.                              2013-07-23 :LOG DATE
#
~PARAMETER INFORMATION
#--- ---- ----------------------------------- -------------------------------
TD_CALI_PTS.                                      10 :Calibration Points Used for Tension Device
TD_CALI_OFFSET.                                0.000000 :Calibration coefficient offset used for Tension Device
TD_CALI_RMS.                               23.000000 :Calibration Root Mean Square Error Used for Tension Device
TD_CALI_GAIN.                                1.000000 :Calibration coefficient gain used for Tension Device
WHEEL_CORR2.                               -4.000000 :Wheel Correction 2
CALI_SERIALNUM.                                    F087 :Calibrator Serial Number
CALI_CABLE_TYP.                                7-46P-XS :Calibration Cable Type
CALI_SERIALNUM.                                      15 :Calibrator Serial Number
TD_CALI_PEAK_ERR.                               38.000000 :Calibration Peak Error Used for Tension Device
WHEEL_CORR1.                               -5.000000 :Wheel Correction 1
LCL .M                            7315.200195 :Logging Cable Length
EP_LCEQUIP_TYP.                                7-46P-XS :Logging cable type
EP_DDEQUIP_TYP.                                   IDW-E :Depth measuring device type
EP_TDEQUIP_TYP.                                CMTD-B/A :Tension device type
CALI_DATE.                             29-Apr-2013 :Calibration Date
CALI_DATE.                             11-Jul-2013 :Calibration Date
#
~Curve Information
#--- ---- ----------------------------------- -------------------------------
TDEP.F                                        :Tool Depth
EHGR_EDTC.GAPI                                     :High Resolution Corrected Gamma Ray
HGR_EDTC.GAPI                                     :High Resolution Gamma Ray
#
~ASCII data
# ...
2848.000000 112.994499 50.381355 
2848.166667 118.578049 52.870918 
2848.333333 127.020584 56.635227 
2848.500000 131.715576 58.728603 
2848.666667 134.487061 59.964340 
2848.833333 143.805374 64.119133 
2849.000000 159.285172 71.021179 
2849.166667 168.744110 75.238678 
2849.333333 168.829575 75.276787 
2849.500000 160.874619 71.729874 
2849.666667 150.525055 67.115273 
2849.833333 137.352097 61.241783 
2850.000000 120.472214 53.715477 
2850.166667 111.136620 49.552975 
2850.333333 106.461769 47.468578 
2850.500000 107.352219 47.865608 
2850.666667 103.521912 46.157772 
2850.833333 102.552299 45.725445 
2851.000000 104.431084 46.563148 
2851.166667 110.018341 49.054363 
2851.333333 116.533287 51.959209 
2851.500000 122.620316 54.673260 
2851.666667 130.205490 58.055298 
2851.833333 138.743210 61.862045 
2852.000000 145.831940 65.022728 
2852.166667 151.476440 67.539467 
2852.333333 151.476166 67.539345 
2852.500000 144.969681 64.638268 
2852.666667 133.753265 59.637157 
2852.833333 122.959045 54.824291 
2853.000000 113.471901 50.594215 
2853.166667 107.746597 48.041451 
2853.333333 102.547691 45.723392 
2853.500000 106.306633 47.399406 
2853.666667 108.126472 48.210827 
2853.833333 119.337463 53.209522 
2854.000000 121.184425 54.033035 
2854.166667 125.009750 55.738647 
2854.333333 125.096268 55.777225 
2854.500000 127.958565 57.053448 
2854.666667 127.019608 56.634792 
2854.833333 126.073952 56.213150 
2855.000000 119.553131 53.305683 
2855.166667 115.846718 51.653088 
2855.333333 112.102356 49.983570 
2855.500000 112.969688 50.370293 
2855.666667 117.616234 52.442070 
2855.833333 115.715706 51.594673 
2856.000000 116.660225 52.015808 
2856.166667 114.710030 51.146267 
2856.333333 118.406052 52.794228 
2856.500000 118.372009 52.779049 
2856.666667 114.675575 51.130905 
2856.833333 106.278786 47.386990 
2857.000000 99.730682 44.467358 
2857.166667 93.148285 41.532436 
2857.333333 92.210159 41.114151 
2857.500000 96.031418 42.817951 
2857.666667 104.554184 46.618034 
2857.833333 110.674370 49.346870 
2858.000000 118.156654 52.683029 
2858.166667 124.698494 55.599869 
2858.333333 127.983665 57.064640 
2858.500000 127.020950 56.635391 
2858.666667 120.368492 53.669231 
2858.833333 116.553902 51.968403 
2859.000000 112.775711 50.283802 
2859.166667 110.948708 49.469189 
2859.333333 109.105400 48.647305 
2859.500000 112.892708 50.335968 
2859.666667 113.841675 50.759090 
2859.833333 111.998627 49.937321 
2860.000000 106.412666 47.446686 
2860.166667 103.626137 46.204243 
2860.333333 106.426300 47.452763 
2860.500000 104.483566 46.586548 
2860.666667 105.380432 46.986439 
2860.833333 107.251663 47.820770 
2861.000000 112.855789 50.319508 
2861.166667 115.612198 51.548519 
2861.333333 117.446175 52.366245 
2861.500000 111.826187 49.860435 
2861.666667 113.297447 50.516434 
2861.833333 105.812576 47.179119 
2862.000000 106.759880 47.601498 
2862.166667 103.472977 46.135952 
2862.333333 106.340828 47.414654 
2862.500000 108.286797 48.282310 
2862.666667 111.150688 49.559246 
2862.833333 113.015793 50.390850 
2863.000000 115.784340 51.625275 
2863.166667 114.805588 51.188873 
2863.333333 113.846832 50.761391 
2863.500000 109.101555 48.645592 
2863.666667 106.222755 47.362007 
2863.833333 108.059402 48.180923 
2864.000000 109.972618 49.033978 
2864.166667 108.147530 48.220215 
2864.333333 108.192940 48.240463 
2864.500000 112.907455 50.342545 
2864.666667 121.378174 54.119423 
2864.833333 131.802277 58.767265 
2865.000000 134.695938 60.057472 
2865.166667 137.550201 61.330116 
2865.333333 138.424561 61.719967 
2865.500000 146.817673 65.462242 
2865.666667 153.363266 68.380753 
2865.833333 156.166809 69.630783 
2866.000000 151.380417 67.496651 
2866.166667 155.055389 69.135231 
2866.333333 153.140549 68.281448 
2866.500000 154.154068 68.733353 
2866.666667 150.485260 67.097527 
2866.833333 151.464645 67.534210 
2867.000000 156.181931 69.637527 
2867.166667 157.132797 70.061493 
2867.333333 150.630035 67.162079 
2867.500000 145.996246 65.095993 
2867.666667 141.317154 63.009701 
2867.833333 142.650040 63.604004 
2868.000000 138.810867 61.892216 
2868.166667 134.070343 59.778538 
2868.333333 127.002457 56.627144 
2868.500000 121.290237 54.080212 
2868.666667 118.402359 52.792583 
2868.833333 119.322571 53.202881 
2869.000000 118.452393 52.814892 
2869.166667 115.224998 51.375877 
2869.333333 110.552780 49.292656 
2869.500000 111.498894 49.714504 
2869.666667 117.630608 52.448479 
2869.833333 125.233871 55.838577 
2870.000000 127.155228 56.695263 
2870.166667 125.273613 55.856297 
2870.333333 123.779373 55.190056 
2870.500000 124.668274 55.586391 
2870.666667 126.525055 56.414284 
2870.833333 126.039581 56.197823 
2871.000000 128.786499 57.422604 
2871.166667 142.831543 63.684933 
2871.333333 156.939087 69.975121 
2871.500000 171.142593 76.308105 
2871.666667 174.983765 78.020782 
2871.833333 175.957214 78.454819 
2872.000000 172.188751 76.774559 
2872.166667 165.666107 73.866280 
2872.333333 150.680069 67.184387 
2872.500000 138.489777 61.749046 
2872.666667 120.563652 53.756248 
2872.833333 112.960464 50.366180 
2873.000000 103.501312 46.148586 
2873.166667 103.486397 46.141937 
2873.333333 97.804237 43.608406 
2873.500000 95.877228 42.749203 
2873.666667 93.955894 41.892529 
2873.833333 101.505287 45.258610 
2874.000000 105.790543 47.169296 
2874.166667 106.769455 47.605766 
2874.333333 103.955368 46.351040 
2874.500000 106.321243 47.405922 
2874.666667 113.909340 50.789261 
2874.833333 119.623810 53.337196 
2875.000000 123.415482 55.027805 
2875.166667 123.364944 55.005272 
2875.333333 126.134354 56.240082 
2875.500000 130.804977 58.322594 
2875.666667 136.432053 60.831558 
2875.833333 140.122055 62.476841 
2876.000000 142.851486 63.693821 
2876.166667 140.940155 62.841610 
2876.333333 140.992554 62.864971 
2876.500000 135.432617 60.385941 
2876.666667 129.822861 57.884689 
2876.833333 125.132645 55.793446 
2877.000000 120.428970 53.696198 
2877.166667 122.391861 54.571400 
2877.333333 124.325401 55.433514 
2877.500000 130.943253 58.384243 
2877.666667 136.518677 60.870182 
2877.833333 143.997101 64.204620 
2878.000000 144.905853 64.609810 
2878.166667 139.252228 62.089005 
2878.333333 125.073120 55.766903 
2878.500000 117.489708 52.385654 
2878.666667 111.828384 49.861416 
2878.833333 107.177330 47.787628 
2879.000000 99.234367 44.246063 
2879.166667 97.366196 43.413094 
2879.333333 106.779968 47.610455 
2879.500000 117.622253 52.444752 
2879.666667 122.395111 54.572849 
2879.833333 122.444847 54.595024 
2880.000000 121.505638 54.176254 
2880.166667 124.266884 55.407425 
2880.333333 125.159462 55.805401 
2880.500000 122.312218 54.535889 
2880.666667 117.582024 52.426815 
2880.833333 120.330177 53.652145 
2881.000000 125.919701 56.144371 
2881.166667 135.326889 60.338799 
2881.333333 136.345322 60.792892 
2881.500000 136.404755 60.819389 
2881.666667 132.660202 59.149792 
2881.833333 133.134842 59.361420 
2882.000000 130.360458 58.124393 
2882.166667 129.489777 57.736176 
2882.333333 125.291832 55.864422 
2882.500000 125.247215 55.844528 
2882.666667 128.003754 57.073597 
2882.833333 135.490356 60.411682 
2883.000000 137.351089 61.241333 
2883.166667 137.293686 61.215740 
2883.333333 132.511963 59.083694 
2883.500000 134.353729 59.904888 
2883.666667 131.577042 58.666836 
2883.833333 129.772171 57.862087 
2884.000000 123.231812 54.945911 
2884.166667 121.830109 54.320927 
2884.333333 119.956642 53.485596 
2884.500000 120.971039 53.937889 
2884.666667 117.748512 52.501049 
2884.833333 116.838699 52.095387 
2885.000000 110.197296 49.134155 
2885.166667 105.437523 47.011894 
2885.333333 95.995392 42.801888 
2885.500000 93.165886 41.540283 
2885.666667 92.161026 41.092243 
2885.833333 95.861160 42.742039 
2886.000000 99.588669 44.404037 
2886.166667 103.391937 46.099819 
2886.333333 111.914131 49.899647 
2886.500000 121.828583 54.320248 
2886.666667 129.366516 57.681221 
2886.833333 128.441818 57.268917 
2887.000000 122.388786 54.570026 
2887.166667 120.563110 53.756004 
