~Version Information
VERS.                2.00 :CWLS Log ASCII Standard
WRAP.                  NO :One line per depth step
#
~Well Information
#MNEM.UNIT               DATA                    DESCRIPTION OF MNEMONIC
#--- ---- ----------------------------------- -------------------------------
STRT.F                             265.166667 :START Depth
STOP.F                            3072.000000 :STOP Depth
STEP.F                               0.166667 :STEP Length
NULL.                             -999.250000 :NULL Value
DATE.                              2013-07-23 :LOG DATE
#
~PARAMETER INFORMATION
#--- ---- ----------------------------------- -------------------------------
TD_CALI_PTS.                                      10 :Calibration Points Used for Tension Device
TD_CALI_OFFSET.                                0.000000 :Calibration coefficient offset used for Tension Device
TD_CALI_RMS.                               23.000000 :Calibration Root Mean Square Error Used for Tension Device
TD_CALI_GAIN.                                1.000000 :Calibration coefficient gain used for Tension Device
WHEEL_CORR2.                               -4.000000 :Wheel Correction 2
CALI_SERIALNUM.                                    F087 :Calibrator Serial Number
CALI_CABLE_TYP.                                7-46P-XS :Calibration Cable Type
CALI_SERIALNUM.                                      15 :Calibrator Serial Number
TD_CALI_PEAK_ERR.                               38.000000 :Calibration Peak Error Used for Tension Device
WHEEL_CORR1.                               -5.000000 :Wheel Correction 1
LCL .M                            7315.200195 :Logging Cable Length
EP_LCEQUIP_TYP.                                7-46P-XS :Logging cable type
EP_DDEQUIP_TYP.                                   IDW-E :Depth measuring device type
EP_TDEQUIP_TYP.                                CMTD-B/A :Tension device type
CALI_DATE.                             29-Apr-2013 :Calibration Date
CALI_DATE.                             11-Jul-2013 :Calibration Date
#
~Curve Information
#--- ---- ----------------------------------- -------------------------------
TDEP.F                                        :Tool Depth
EHGR_EDTC.GAPI                                     :High Resolution Corrected Gamma Ray
HGR_EDTC.GAPI                                     :High Resolution Gamma Ray
#
~ASCII data
265.333333 49.875263 22.238104 
265.500000 49.898705 22.248556 
265.666667 48.964493 21.832014 
265.833333 49.901783 22.249928 
266.000000 52.697353 23.496401 
266.166667 56.449932 25.169580 
266.333333 55.963249 24.952581 
266.500000 55.930412 24.937939 
266.666667 54.986897 24.517250 
266.833333 52.654789 23.477423 
267.000000 51.749115 23.073606 
267.166667 51.284115 22.866274 
267.333333 53.169575 23.706953 
267.500000 52.255634 23.299450 
267.666667 51.796619 23.094788 
267.833333 51.789528 23.091625 
268.000000 49.878471 22.239534 
268.166667 47.984722 21.395159 
268.333333 45.145073 20.129032 
268.500000 45.121784 20.118649 
268.666667 44.169872 19.694216 
268.833333 41.833076 18.652298 
269.000000 40.913960 18.242487 
269.166667 43.744884 19.504725 
269.333333 47.042271 20.974945 
269.500000 51.306076 22.876066 
269.666667 53.205406 23.722929 
269.833333 55.086048 24.561459 
270.000000 52.708466 23.501356 
270.166667 49.873100 22.237139 
270.333333 48.916965 21.810823 
270.500000 48.889259 21.798470 
270.666667 47.470131 21.165716 
270.833333 49.367233 22.011585 
271.000000 50.333382 22.442368 
271.166667 50.811565 22.655577 
271.333333 47.047474 20.977264 
271.500000 44.719826 19.939426 
271.666667 44.729465 19.943724 
271.833333 43.789639 19.524679 
272.000000 44.704865 19.932755 
272.166667 49.400276 22.026320 
272.333333 54.098419 24.121101 
272.500000 57.830151 25.784985 
272.666667 55.932476 24.938860 
272.833333 54.523628 24.310690 
273.000000 51.262608 22.856686 
273.166667 45.630180 20.345329 
273.333333 40.459538 18.039873 
273.500000 38.602970 17.212076 
273.666667 46.621971 20.787544 
273.833333 56.030308 24.982481 
274.000000 65.416374 29.167488 
274.166667 70.572144 31.466312 
274.333333 76.211617 33.980808 
274.500000 75.231636 33.543861 
274.666667 68.629860 30.600300 
274.833333 56.401535 25.148001 
275.000000 47.969776 21.388496 
275.166667 46.099918 20.554773 
275.333333 47.985237 21.395390 
275.500000 51.781147 23.087889 
275.666667 55.565750 24.775347 
275.833333 64.035049 28.551590 
276.000000 68.711479 30.636690 
276.166667 66.810364 29.789030 
276.333333 61.156437 27.268089 
276.500000 56.420460 25.156439 
276.666667 53.588257 23.893633 
276.833333 46.535778 20.749113 
277.000000 40.915707 18.243267 
277.166667 39.043243 17.408382 
277.333333 42.339676 18.878178 
277.500000 48.019409 21.410625 
277.666667 48.509689 21.629229 
277.833333 46.626392 20.789515 
278.000000 41.891754 18.678461 
278.166667 39.517609 17.619890 
278.333333 34.809036 15.520459 
278.500000 31.027693 13.834455 
278.666667 29.136414 12.991181 
278.833333 31.958952 14.249679 
279.000000 34.327324 15.305675 
279.166667 35.280315 15.730590 
279.333333 35.754337 15.941943 
279.500000 37.183918 16.579357 
279.666667 42.852463 19.106817 
279.833333 49.913216 22.255026 
280.000000 59.304100 26.442181 
280.166667 63.987045 28.530186 
280.333333 63.974766 28.524712 
280.500000 60.650219 27.042381 
280.666667 59.686867 26.612846 
280.833333 60.624973 27.031124 
281.000000 58.770683 26.204344 
281.166667 53.142776 23.695004 
281.333333 50.330757 22.441196 
281.500000 50.829124 22.663406 
281.666667 48.971119 21.834969 
281.833333 46.630215 20.791220 
282.000000 47.547554 21.200237 
282.166667 55.054600 24.547438 
282.333333 63.980721 28.527367 
282.500000 71.935341 32.074127 
282.666667 76.610237 34.158543 
282.833333 76.603432 34.155510 
283.000000 75.234009 33.544918 
283.166667 78.085999 34.816547 
283.333333 76.682693 34.190849 
283.500000 72.944923 32.524273 
283.666667 65.452675 29.183672 
283.833333 65.938698 29.400379 
284.000000 67.796814 30.228865 
284.166667 72.465355 32.310448 
284.333333 74.328094 33.140995 
284.500000 77.581062 34.591412 
284.666667 80.374886 35.837105 
284.833333 79.424950 35.413551 
285.000000 75.229477 33.542900 
285.166667 64.907829 28.940741 
285.333333 59.742382 26.637600 
285.500000 55.990108 24.964556 
285.666667 53.196598 23.719002 
285.833333 45.212593 20.159138 
286.000000 38.616333 17.218035 
286.166667 35.295452 15.737338 
286.333333 38.105412 16.990229 
286.500000 39.978874 17.825558 
286.666667 47.004143 20.957945 
286.833333 55.455654 24.726257 
287.000000 62.047169 27.665245 
287.166667 64.899033 28.936819 
287.333333 57.390095 25.588774 
287.500000 47.985153 21.395351 
287.666667 36.715549 16.370523 
287.833333 35.322437 15.749372 
288.000000 39.091240 17.429783 
288.166667 44.249332 19.729645 
288.333333 47.525749 21.190516 
288.500000 49.400120 22.026249 
288.666667 48.432831 21.594959 
288.833333 43.715805 19.491758 
289.000000 39.948952 17.812216 
289.166667 38.562244 17.193918 
289.333333 40.452789 18.036863 
289.500000 41.396797 18.457773 
289.666667 42.343899 18.880060 
289.833333 40.481022 18.049452 
290.000000 38.605499 17.213203 
290.166667 36.713646 16.369675 
290.333333 37.635422 16.780672 
290.500000 40.450722 18.035942 
290.666667 44.665531 19.915216 
290.833333 49.347057 22.002590 
291.000000 52.160667 23.257107 
291.166667 53.594635 23.896477 
291.333333 54.559090 24.326502 
291.500000 60.214485 26.848099 
291.666667 68.694542 30.629137 
291.833333 78.620468 35.054855 
292.000000 86.169220 38.420650 
292.166667 90.867386 40.515442 
292.333333 89.413857 39.867352 
292.500000 81.870461 36.503944 
292.666667 70.555054 31.458694 
292.833333 62.059032 27.670534 
293.000000 56.397102 25.146025 
293.166667 54.532955 24.314850 
293.333333 52.674469 23.486198 
293.500000 51.270527 22.860216 
293.666667 50.331646 22.441593 
293.833333 51.300243 22.873466 
294.000000 53.669380 23.929804 
294.166667 56.491161 25.187963 
294.333333 61.172234 27.275133 
294.500000 63.982529 28.528172 
294.666667 67.255669 29.987583 
294.833333 66.281776 29.553349 
295.000000 63.445877 28.288893 
295.166667 62.054447 27.668489 
295.333333 62.085922 27.682524 
295.500000 61.628155 27.478416 
295.666667 56.933838 25.385342 
295.833333 52.256611 23.299885 
296.000000 51.802940 23.097605 
296.166667 51.792168 23.092802 
296.333333 48.941616 21.821814 
296.500000 47.045113 20.976212 
296.666667 47.496979 21.177687 
296.833333 48.417339 21.588053 
297.000000 44.644089 19.905657 
297.166667 43.720787 19.493980 
297.333333 45.619087 20.340384 
297.500000 52.210957 23.279530 
297.666667 54.568840 24.330849 
297.833333 57.427509 25.605457 
298.000000 56.039341 24.986507 
298.166667 55.096954 24.566322 
298.333333 51.301018 22.873812 
298.500000 46.104099 20.556639 
298.666667 45.141205 20.127308 
298.833333 46.993176 20.953054 
299.000000 52.622124 23.462858 
299.166667 52.640354 23.470987 
299.333333 54.551476 24.323107 
299.500000 55.509739 24.750372 
299.666667 55.984066 24.961863 
299.833333 56.958004 25.396116 
300.000000 58.869099 26.248224 
300.166667 60.283878 26.879038 
300.333333 57.430706 25.606882 
300.500000 54.111217 24.126806 
300.666667 49.399731 22.026075 
300.833333 43.262394 19.289595 
301.000000 39.953007 17.814024 
301.166667 43.244816 19.281757 
301.333333 49.377567 22.016193 
301.500000 54.091618 24.118069 
301.666667 55.973530 24.957165 
301.833333 55.994865 24.966677 
302.000000 55.551010 24.768774 
302.166667 54.145775 24.142216 
302.333333 52.243877 23.294209 
302.500000 51.750519 23.074232 
302.666667 52.686916 23.491747 
302.833333 56.423428 25.157763 
303.000000 55.465054 24.730448 
303.166667 54.993668 24.520269 
303.333333 52.193130 23.271582 
303.500000 51.266666 22.858494 
303.666667 50.798859 22.649912 
303.833333 50.825024 22.661577 
304.000000 55.087284 24.562010 
304.166667 59.801853 26.664116 
304.333333 63.548721 28.334749 
304.500000 64.934563 28.952660 
304.666667 62.094944 27.686546 
304.833333 63.941765 28.509996 
305.000000 62.041100 27.662539 
305.166667 61.570011 27.452492 
305.333333 61.599312 27.465557 
305.500000 61.615067 27.472582 
305.666667 59.739170 26.636168 
305.833333 54.103275 24.123266 
306.000000 54.607105 24.347910 
306.166667 59.795708 26.661375 
306.333333 63.085995 28.128431 
306.500000 62.588112 27.906437 
306.666667 59.754288 26.642908 
306.833333 57.849953 25.793814 
