~Version Information
 VERS.                2.00:   CWLS log ASCII Standard -VERSION 2.00
 WRAP.                  NO:   One line per frame      
~Well Information Block
#MNEM.UNIT                   Data                   Description
#----.----   ------------------------------------   -------------------------------
 STRT.M                                 3253.6250 : Starting Depth
 STOP.M                                 3396.1250 : Ending Depth
 STEP.M                                    0.1250 : Level Spacing
 NULL.                                  -999.2500 : Absent Value
 COMP.       GDF SUEZ                             : Company
 WELL.       L5-13                                : Well
 FLD .       L5 OIL                               : Field
 LOC .       LAT: 53 48'40.57" N                  : Location
 PROV.       NOBLE PIET V EDE                     : Province
 SRVC.       Baker Atlas                          : Service Company
 LIC .                                            : License Number
 DATE.       3-JUN-2012                           : Log Date
 UWI .                                            : Unique Well ID
~Curve Information Block
#MNEM    .UNIT        API Codes     Curve Description
#--------.--------   LG--CV-CL--M   -------------------------------
 DEPT    .M          99 995 99  1 : Depth
 BIT     .in         70 282  1  1 : Bit size
 CHT     .lbf        99 635 99  1 : Cable head tension
 GR      .gAPI       30 310  1  1 : Gamma ray
 GRSL    .gAPI       30 310  1  1 : Gamma ray from 1329 spectrum
 K       .pct        31 719 99  1 : Potassium content
 KTH     .gAPI       31 995 99  1 : Stripped potassium-thorium
 M1R1    .ohm.m       8 120 10  1 : Vertical 1-foot resolution matched resistivity, 10-inch DOI
 M1R2    .ohm.m       8 120 20  1 : Vertical 1-foot resolution matched resistivity, 20-inch DOI
 M1R3    .ohm.m       8 120 30  1 : Vertical 1-foot resolution matched resistivity, 30-inch DOI
 M1R6    .ohm.m       8 120 60  1 : Vertical 1-foot resolution matched resistivity, 60-inch DOI
 M1R9    .ohm.m       8 120 90  1 : Vertical 1-foot resolution matched resistivity, 90-inch DOI
 M1RX    .ohm.m       8 120 90  1 : Vertical 1-foot resolution matched resistivity, 120-inch DOI
 QHDL    .lbf        99 995 99  1 : Quality for differential tension pulls for HDIL
 RTHK    .ppm/pct    31 995 99  1 : Ratio of thorium to potassium
 RTHU    .1          31 995 99  1 : Ratio of thorium to uranium
 RUK     .ppm/pct    31 995 99  1 : Ratio of uranium to potassium
 SPD     .m/min      99 636 99  1 : Speed
 TH      .ppm        31 790 99  1 : Thorium concentration
 TTEN    .lbf        99 635 99  1 : Total tension
 U       .ppm        31 792 99  1 : Uranium content
 WRM     .ohm.m      99 823 99  1 : Mud resistivity
 WTBH    .degC       99 995 99  1 : Temperature of borehole
~Parameter Information Block
#MNEM.UNIT                     Value                    Description
#----.----   ----------------------------------------   -------------------------------
 HIDE.       HIGH DEFINITION INDUCTION LOG            : Header Identifer
 HID1.       X-MULTIPOLE ARRAY ACOUSTILOG             : Header Identifer
 HID2.       GAMMA RAY LOG                            : Header Identifer
 CLAB.       RIG NAME                                 : County Label (Comments)
 SLAB.       COUNTRY                                  : State Label (Comments)
 STAT.       NETHERLANDS                              : State Or Province
 CMT1.       FINAL PRINT                              : Comment 1  
 CMT2.       SCALE 1:200/500                          : Comment 2  
 FL1 .       LON: 04 21'06.15"  E                     : Field Location 1
 OS1 .       ZDL/CN                                   : Other Services Line 1
 OS2 .       RCI                                      : Other Services Line 2
 OS3 .       BHP                                      : Other Services Line 3
 PDAT.       MSL                                      : Permanent Datum
 EPD .M      0                                        : Elevation Of Perm. Datum
 LMF .       DF                                       : Log Measured From
 APD .M      41.1                                     : Above Permanent Datum
 DMF .       DF                                       : Drilling Measured From
 EKB .M      41.1                                     : Elevation Of Kelly Bushing
 EDF .M      41.1                                     : Elevation Of Derrick Floor
 EGL .M      -42.0                                    : Elevation Of Ground Level
 TRIP.       5                                        : Trip Number
 SON .       13-168551                                : Service Order Number
 TDD .M      3491                                     : Total Depth - Driller
 BLI .M      3480                                     : Bottom Log Interval
 TLI .M      3296                                     : Top Log Interval
 CSIZ.IN     9.625                                    : Casing Size
 CBDR.M      3299                                     : Casing Bottom - Driller
 CBLO.M      3996.2                                   : Casing Bottom - Logger
 BS  .IN     8.375                                    : Bit Size
 DFT .       LTOBM                                    : Drilling Fluid Type
 DFD .G/C3   1.52                                     : Drilling Fluid Density
 DFV .S      25                                       : Drilling Fluid Viscosity
 DFL .M3     1.2                                      : Drilling Fluid Loss
 MSS .       FLOWLINE                                 : Mud Sample Source
 RMS .OHMM   >10                                      : Resistivity Of Mud Sample
 RMFS.OHMM   >10                                      : Resistivity Of Mud Filtrate Sample
 RMCS.OHMM   >10                                      : Resistivity Of Mud Cake Sample
 MFSS.       NA                                       : Mud Filtrate Sample Source
 MCSS.       NA                                       : Mud Cake Sample Source
 RMB .OHMM   >10                                      : Mud Resistivity At Bht
 TSC .       36 HRS                                   : Time Since Circulation
 MRT .DEGC   104                                      : Maximum Recorded Temperature
 LUN .       8934                                     : Logging Unit Number
 LUL .       DEN HELDER                               : Logging Unit Location
 ENGI.       A. WIEFKERS/H. V DIJKEN                  : Engineer's Name
 WITN.       P. GERRITSEN                             : Witness' Name
 TSTR.       HDIL/XMAC/GR                             : Title Service Mnemonic
 TSTG.       NA                                       : Title Service Mnemonic
 STUS.       FINAL                                    : Status
 LCNM.       BAKER ATLAS                              : Logging Company Name
 LCC .       150                                      : Logging Company Code
 OPMD.       OH.WIRE                                  : Operation Mode
 PANA.       A. WIEFKERS/H. V DIJKEN                  : Processing Analyst
 PCON.       BAKER ATLAS                              : Processing Contractor
 APIN.                                                : API Serial Number
~Other information
DEPTH AUDIT:                                                                    
- ALL DEPTHS ARE REFERENCED TO DRILL FLOOR.                                     
- TOOLS DEPLOYED BY DRILL PIPE USING BAKER ATLAS PCL EQUIPMENT WITH CONSTANT    
  TENSION DEVICE.                                                               
GENERAL:                                                                        
- LAST CIRCULATION ON 04-JUN-2013 AT 02:30 HRS.                                 
- MAXIMUM RECORDED TEMPERATURE FROM TTRM SUB IS 104 DEGC AT 3441 M              
- MAXIMUM RECORDED DEVIATION IS 32 DEG AT 3421 FROM ORIT SUB.                   
- TOOLSTRING RUN  A5 PCL/DSL/CN/ZDL/MREX/KNJT/ORIT/XMAC/WGI/HDIL/CENT           
- DSL AND WGI RECORDED SIMULTANEOUS BUT PRESENTED UNDER SEPARATE HEADINGS       
- ADDITIONAL MUD PROPERTIES: WHOLE MUD SALINITY = 26000 MG/L                    
                             CORRECTED SOLIDS = 28 %                            
                             YP = 22 LB/100FT2                                  
                             PV = 14 CP                                         
                             OIL/WATER RATIO 80/20                              
- RUNS A1-A2-A3-A4 WIRELINE RUN WITH DIFFERENT TOOL CONFIGURATIONS. UNABLE TO   
  REACH TD, HUD 3393 M. ONLY ON RUN A2 DATA RECORDED FROM 3393 UPTO THE CASING  
  SHOE. DATA NOT PRESENTED.                                                     
- DATA RECORDED IN DOWNWARDS DIRECTION. NO UP LOG DATA AVAILABLE DUE TO TOOL    
  FAILURE (PARTING OF 3218MB MANDREL).                                          
- TOOL DEPLOYMENT INTO OPEN HOLE WAS NOT SMOOTH, DATA RECORDED IN TWO FILES     
  DATA SPLICE AT 3360 M.                                                        
GR:                                                                             
- GAMARAY RECORDED IN SPECTRAL MODE, DSL DATA NOT PRESENTED.                    
- GAMMA RAY READING HIGH DUE TO FORMATION ACTIVATION FROM CN/ZDL TOOLS.         
CN:                                                                             
-RECORDED IN SAME PASS, DATA PRESENTED UNDER SEPERATE HEADER.                   
ZDL:                                                                            
-RECORDED IN SAME PASS, DATA PRESENTED UNDER SEPERATE HEADER.                   
MREX:                                                                           
- NO DATA RECORDED.                                                             
XMAC-F1:                                                                        
- XMAC-F1 WAS RUN CENTRALISED.                                                  
- XMAC-F1 RUN IN SUBSET 1: FULLWAVE MONOPOLE AND CROSS DIPOLE.                  
- DT24QI IS THE COMPRESSIONAL DT DERIVED FROM SURFACE PICKED FIRST ARRIVALS.    
  DTCQI IS THE WAVE AVAN PROCESSED COMPRESSIONAL DT DERIVED FROM THE FULLWAVE   
  MONOPOLE DATA.                                                                
  DTSQI IS THE WAVE AVAN PROCESSED SHEAR DT DERIVED FROM THE FULLWAVE MONOPOLE  
  DATA.                                                                         
  DTSTQI IS THE WAVE AVAN PROCESSED STONELY DT DERIVED FROM THE FULLWAVE        
  MONOPOLE DATA.                                                                
  DTXXQI AND DTYYQI ARE THE ESTIMATED DIRECTIONAL DT DERIVED FROM THE DIPOLE    
  FULLWAVE DATA USING WAVE AVAN PROCESSING.                                     
- TOTAL INTEGRATED TRAVEL TIME FROM LAST READING DT TO CASING SHOE: 50.4 MS.    
- TOOL STRING CENTRALIZATION OPTIMIZED FOR 8 3/8" HOLE.                         
WGI (6CAL):                                                                     
- CALIPER CURVE (CHADW) PRESENTED IS FROM WGI.                                  
- AT 3360 M CALIPER ARMS 2 AND 5 MOST LIKELY GOT DAMAGED                        
HDIL:                                                                           
- HDIL IS TEMPERATURE CORRECTED                                                 
- HDIL TOOL WAS RUN CENTRALISED.                                                
- PRESENTED ARE THE 1FT MATCHED RESOLUTION CURVES (M1R?)                        
- HDIL PROCESSING AND CENTRALIZATION OPTIMIZED FOR 8 3/8" HOLE .                
#  Curve Data
~A  DEPT        BIT         CHT         GR          GRSL        K           KTH         M1R1        M1R2        M1R3        M1R6        M1R9        M1RX        QHDL        RTHK        RTHU        RUK         SPD         TH          TTEN        U           WRM         WTBH      
# ...
   3326.1250      8.3750    812.3488     83.4984     83.2887      2.4136     71.5671      1.0497      0.9175      0.8712      0.8582      0.8542      0.8494      0.0000      4.9845      7.0842      0.7039     13.8255     12.0305   5642.6968      1.6989   1383.5105     96.2769
   3326.2500      8.3750    817.2045     81.5508     81.4931      2.4684     70.8479      1.0676      0.9296      0.8809      0.8674      0.8630      0.8586      0.0000      4.8516      7.6039      0.6382     13.8541     11.9751   5655.8511      1.5752   1362.8955     96.2798
   3326.3750      8.3750    824.5865     82.1270     82.2355      2.5339     72.0327      1.0827      0.9405      0.8897      0.8758      0.8710      0.8671      0.0000      4.6816      7.9025      0.5926     13.8964     11.8613   5674.6880      1.5012   1342.2054     96.2838
   3326.5000      8.3750    826.0677     84.3467     84.5086      2.6600     74.8471      1.0899      0.9466      0.8947      0.8805      0.8754      0.8721      0.0000      4.4022      8.3667      0.5264     13.9374     11.7076   5687.9834      1.3997   1331.3041     96.2956
   3326.6250      8.3750    823.4395     86.9570     87.0285      2.8476     78.0669      1.1096      0.9632      0.9096      0.8950      0.8894      0.8866      0.0000      4.0670      8.9717      0.4536     13.9631     11.5752   5684.6831      1.2906   1328.5483     96.2985
   3326.7500      8.3750    825.5729     89.4641     89.4511      3.0366     80.7409      1.1537      0.9993      0.9422      0.9266      0.9203      0.9180      0.0000      3.7952      9.1477      0.4149     13.9913     11.5233   5675.2207      1.2598   1327.0386     96.2884
   3326.8750      8.3750    832.4216     91.6750     91.6736      3.1831     82.5036      1.1884      1.0291      0.9696      0.9531      0.9464      0.9446      0.0000      3.6387      8.6492      0.4208     14.0325     11.5812   5676.9468      1.3396   1324.7128     96.2898
   3327.0000      8.3750    832.6241     93.5551     93.5885      3.2756     82.9107      1.1691      1.0185      0.9612      0.9451      0.9383      0.9372      0.0000      3.5742      7.4138      0.4845     14.0576     11.7076   5686.1279      1.5876   1320.9170     96.3168
   3327.1250      8.3750    823.4432     96.4271     96.4722      3.2679     81.7601      1.1437      1.0026      0.9481      0.9323      0.9258      0.9252      0.0000      3.6197      5.3435      0.6804     14.0401     11.8284   5685.9028      2.2222   1317.3566     96.3462
   3327.2500      8.3750    813.6510    101.6652    101.7734      3.0816     79.2682      1.1374      1.0005      0.9472      0.9313      0.9248      0.9247      0.0000      3.8275      3.5365      1.0973     13.9847     11.7903   5666.6846      3.3729   1317.2107     96.3565
   3327.3750      8.3750    812.4454    107.4569    107.6702      2.8527     77.3238      1.1181      0.9876      0.9364      0.9207      0.9145      0.9147      0.0000      4.0778      2.6359      1.5525     13.9431     11.6294   5642.3784      4.4230   1321.5066     96.3564
   3327.5000      8.3750    818.5801    110.4946    110.7512      2.7110     76.2372      1.1088      0.9818      0.9317      0.9160      0.9100      0.9105      0.0000      4.2354      2.3313      1.8169     13.9340     11.4821   5625.2871      4.9254   1329.5931     96.3436
   3327.6250      8.3750    823.9338    108.4899    108.6394      2.6602     74.7079      1.1170      0.9891      0.9385      0.9224      0.9166      0.9173      0.0000      4.2735      2.3364      1.8292     13.9404     11.3687   5617.0015      4.8664   1344.1919     96.2861
   3327.7500      8.3750    823.9229    103.7866    103.7466      2.6375     72.8238      1.1015      0.9771      0.9277      0.9119      0.9066      0.9074      0.0000      4.2154      2.4804      1.7009     13.9371     11.1180   5611.2051      4.4859   1357.4727     96.2025
   3327.8750      8.3750    819.2975     99.1715     99.0336      2.6610     72.1293      1.0849      0.9636      0.9155      0.9001      0.8953      0.8961      0.0000      4.0223      2.7437      1.4669     13.9205     10.7031   5608.7285      3.9031   1356.3851     96.1546
   3328.0000      8.3750    813.5143     96.0826     96.0097      2.7191     72.5139      1.0681      0.9495      0.9027      0.8879      0.8837      0.8844      0.0000      3.7945      3.0485      1.2465     13.9123     10.3164   5619.5000      3.3882   1342.3649     96.1852
   3328.1250      8.3750    811.5284     93.6824     93.7121      2.7860     72.8927      1.0488      0.9335      0.8884      0.8743      0.8707      0.8712      0.0000      3.6429      3.3689      1.0820     13.9265     10.1490   5647.1294      3.0141   1336.3295     96.2261
   3328.2500      8.3750    816.5191     92.0087     92.0947      2.8511     73.2980      1.0421      0.9278      0.8835      0.8701      0.8669      0.8671      0.0000      3.5616      3.6983      0.9636     13.9469     10.1544   5684.2979      2.7469   1355.7972     96.2048
   3328.3750      8.3750    824.9395     92.2631     92.4063      2.9461     75.4779      1.0505      0.9347      0.8903      0.8773      0.8744      0.8742      0.0000      3.4774      4.1688      0.8362     13.9407     10.2438   5715.5596      2.4619   1385.9032     96.1608
   3328.5000      8.3750    833.6595     94.1312     94.3859      3.0936     80.1398      1.0788      0.9581      0.9123      0.8994      0.8965      0.8958      0.0000      3.4148      5.2126      0.6586     13.9040     10.5638   5733.8965      2.0358   1396.9564     96.1743
   3328.6250      8.3750    843.6826     95.4737     95.7379      3.3014     86.0579      1.0973      0.9748      0.9285      0.9159      0.9130      0.9115      0.0000      3.4296      8.3825      0.4180     13.8614     11.3233   5734.5010      1.3763   1380.8225     96.2543
   3328.7500      8.3750    855.2856     94.8209     94.9184      3.5017     90.2240      1.1041      0.9829      0.9372      0.9250      0.9220      0.9196      0.0000      3.5173     20.2742      0.1951     13.8351     12.3185   5721.1528      0.6798   1357.8118     96.3249
   3328.8750      8.3750    864.0638     93.9985     93.9379      3.6694     93.5371      1.0999      0.9827      0.9384      0.9267      0.9234      0.9200      0.0000      3.6401    412.1484      0.0162     13.8050     13.3572   5701.8833      0.0595   1344.4744     96.3430
   3329.0000      8.3750    862.1685     95.3553     95.2900      3.7796     95.2788      1.0962      0.9825      0.9394      0.9279      0.9242      0.9197      0.0000      3.8447   8749.0430      0.0004     13.7467     14.5332   5683.9355      0.0017   1347.8500     96.3052
   3329.1250      8.3750    850.1766     97.4496     97.4298      3.8152     97.4189      1.0920      0.9809      0.9388      0.9272      0.9229      0.9172      0.0000      4.1309   9487.3701      0.0004     13.6853     15.7597   5670.1914      0.0017   1361.6816     96.2329
   3329.2500      8.3750    833.1580     98.6192     98.5703      3.7712     98.5595      1.0780      0.9698      0.9290      0.9173      0.9123      0.9056      0.0000      4.4306  10058.2676      0.0004     13.6533     16.7080   5663.8618      0.0017   1382.7102     96.1486
   3329.3750      8.3750    817.7032     98.5047     98.3589      3.6732     98.3483      1.0550      0.9496      0.9103      0.8985      0.8929      0.8853      0.0000      4.6796  10346.2900      0.0005     13.6590     17.1865   5669.6606      0.0017   1391.6058     96.0926
   3329.5000      8.3750    809.4902     98.1055     97.9090      3.5356     97.8982      1.0251      0.9229      0.8852      0.8735      0.8673      0.8592      0.0000      4.9176  10465.4648      0.0005     13.6769     17.3844   5682.2651      0.0017   1379.9561     96.0649
   3329.6250      8.3750    813.6061     97.6874     97.5081      3.3811     97.4972      1.0089      0.9071      0.8699      0.8580      0.8512      0.8426      0.0000      5.1442  10469.9727      0.0005     13.6939     17.3919   5694.1245      0.0017   1364.9152     96.0532
