~Version Information
 VERS.                2.00:   CWLS log ASCII Standard -VERSION 2.00
 WRAP.                  NO:   One line per frame      
~Well Information Block
#MNEM.UNIT                   Data                   Description
#----.----   ------------------------------------   -------------------------------
 STRT.M                                 3253.6250 : Starting Depth
 STOP.M                                 3396.1250 : Ending Depth
 STEP.M                                    0.1250 : Level Spacing
 NULL.                                  -999.2500 : Absent Value
 COMP.       GDF SUEZ                             : Company
 WELL.       L5-13                                : Well
 FLD .       L5 OIL                               : Field
 LOC .       LAT: 53 48'40.57" N                  : Location
 PROV.       NOBLE PIET V EDE                     : Province
 SRVC.       Baker Atlas                          : Service Company
 LIC .                                            : License Number
 DATE.       3-JUN-2012                           : Log Date
 UWI .                                            : Unique Well ID
~Curve Information Block
#MNEM    .UNIT        API Codes     Curve Description
#--------.--------   LG--CV-CL--M   -------------------------------
 DEPT    .M          99 995 99  1 : Depth
 BIT     .in         70 282  1  1 : Bit size
 CHT     .lbf        99 635 99  1 : Cable head tension
 GR      .gAPI       30 310  1  1 : Gamma ray
 GRSL    .gAPI       30 310  1  1 : Gamma ray from 1329 spectrum
 K       .pct        31 719 99  1 : Potassium content
 KTH     .gAPI       31 995 99  1 : Stripped potassium-thorium
 M1R1    .ohm.m       8 120 10  1 : Vertical 1-foot resolution matched resistivity, 10-inch DOI
 M1R2    .ohm.m       8 120 20  1 : Vertical 1-foot resolution matched resistivity, 20-inch DOI
 M1R3    .ohm.m       8 120 30  1 : Vertical 1-foot resolution matched resistivity, 30-inch DOI
 M1R6    .ohm.m       8 120 60  1 : Vertical 1-foot resolution matched resistivity, 60-inch DOI
 M1R9    .ohm.m       8 120 90  1 : Vertical 1-foot resolution matched resistivity, 90-inch DOI
 M1RX    .ohm.m       8 120 90  1 : Vertical 1-foot resolution matched resistivity, 120-inch DOI
 QHDL    .lbf        99 995 99  1 : Quality for differential tension pulls for HDIL
 RTHK    .ppm/pct    31 995 99  1 : Ratio of thorium to potassium
 RTHU    .1          31 995 99  1 : Ratio of thorium to uranium
 RUK     .ppm/pct    31 995 99  1 : Ratio of uranium to potassium
 SPD     .m/min      99 636 99  1 : Speed
 TH      .ppm        31 790 99  1 : Thorium concentration
 TTEN    .lbf        99 635 99  1 : Total tension
 U       .ppm        31 792 99  1 : Uranium content
 WRM     .ohm.m      99 823 99  1 : Mud resistivity
 WTBH    .degC       99 995 99  1 : Temperature of borehole
~Parameter Information Block
#MNEM.UNIT                     Value                    Description
#----.----   ----------------------------------------   -------------------------------
 HIDE.       HIGH DEFINITION INDUCTION LOG            : Header Identifer
 HID1.       X-MULTIPOLE ARRAY ACOUSTILOG             : Header Identifer
 HID2.       GAMMA RAY LOG                            : Header Identifer
 CLAB.       RIG NAME                                 : County Label (Comments)
 SLAB.       COUNTRY                                  : State Label (Comments)
 STAT.       NETHERLANDS                              : State Or Province
 CMT1.       FINAL PRINT                              : Comment 1  
 CMT2.       SCALE 1:200/500                          : Comment 2  
 FL1 .       LON: 04 21'06.15"  E                     : Field Location 1
 OS1 .       ZDL/CN                                   : Other Services Line 1
 OS2 .       RCI                                      : Other Services Line 2
 OS3 .       BHP                                      : Other Services Line 3
 PDAT.       MSL                                      : Permanent Datum
 EPD .M      0                                        : Elevation Of Perm. Datum
 LMF .       DF                                       : Log Measured From
 APD .M      41.1                                     : Above Permanent Datum
 DMF .       DF                                       : Drilling Measured From
 EKB .M      41.1                                     : Elevation Of Kelly Bushing
 EDF .M      41.1                                     : Elevation Of Derrick Floor
 EGL .M      -42.0                                    : Elevation Of Ground Level
 TRIP.       5                                        : Trip Number
 SON .       13-168551                                : Service Order Number
 TDD .M      3491                                     : Total Depth - Driller
 BLI .M      3480                                     : Bottom Log Interval
 TLI .M      3296                                     : Top Log Interval
 CSIZ.IN     9.625                                    : Casing Size
 CBDR.M      3299                                     : Casing Bottom - Driller
 CBLO.M      3996.2                                   : Casing Bottom - Logger
 BS  .IN     8.375                                    : Bit Size
 DFT .       LTOBM                                    : Drilling Fluid Type
 DFD .G/C3   1.52                                     : Drilling Fluid Density
 DFV .S      25                                       : Drilling Fluid Viscosity
 DFL .M3     1.2                                      : Drilling Fluid Loss
 MSS .       FLOWLINE                                 : Mud Sample Source
 RMS .OHMM   >10                                      : Resistivity Of Mud Sample
 RMFS.OHMM   >10                                      : Resistivity Of Mud Filtrate Sample
 RMCS.OHMM   >10                                      : Resistivity Of Mud Cake Sample
 MFSS.       NA                                       : Mud Filtrate Sample Source
 MCSS.       NA                                       : Mud Cake Sample Source
 RMB .OHMM   >10                                      : Mud Resistivity At Bht
 TSC .       36 HRS                                   : Time Since Circulation
 MRT .DEGC   104                                      : Maximum Recorded Temperature
 LUN .       8934                                     : Logging Unit Number
 LUL .       DEN HELDER                               : Logging Unit Location
 ENGI.       A. WIEFKERS/H. V DIJKEN                  : Engineer's Name
 WITN.       P. GERRITSEN                             : Witness' Name
 TSTR.       HDIL/XMAC/GR                             : Title Service Mnemonic
 TSTG.       NA                                       : Title Service Mnemonic
 STUS.       FINAL                                    : Status
 LCNM.       BAKER ATLAS                              : Logging Company Name
 LCC .       150                                      : Logging Company Code
 OPMD.       OH.WIRE                                  : Operation Mode
 PANA.       A. WIEFKERS/H. V DIJKEN                  : Processing Analyst
 PCON.       BAKER ATLAS                              : Processing Contractor
 APIN.                                                : API Serial Number
~Other information
DEPTH AUDIT:                                                                    
- ALL DEPTHS ARE REFERENCED TO DRILL FLOOR.                                     
- TOOLS DEPLOYED BY DRILL PIPE USING BAKER ATLAS PCL EQUIPMENT WITH CONSTANT    
  TENSION DEVICE.                                                               
GENERAL:                                                                        
- LAST CIRCULATION ON 04-JUN-2013 AT 02:30 HRS.                                 
- MAXIMUM RECORDED TEMPERATURE FROM TTRM SUB IS 104 DEGC AT 3441 M              
- MAXIMUM RECORDED DEVIATION IS 32 DEG AT 3421 FROM ORIT SUB.                   
- TOOLSTRING RUN  A5 PCL/DSL/CN/ZDL/MREX/KNJT/ORIT/XMAC/WGI/HDIL/CENT           
- DSL AND WGI RECORDED SIMULTANEOUS BUT PRESENTED UNDER SEPARATE HEADINGS       
- ADDITIONAL MUD PROPERTIES: WHOLE MUD SALINITY = 26000 MG/L                    
                             CORRECTED SOLIDS = 28 %                            
                             YP = 22 LB/100FT2                                  
                             PV = 14 CP                                         
                             OIL/WATER RATIO 80/20                              
- RUNS A1-A2-A3-A4 WIRELINE RUN WITH DIFFERENT TOOL CONFIGURATIONS. UNABLE TO   
  REACH TD, HUD 3393 M. ONLY ON RUN A2 DATA RECORDED FROM 3393 UPTO THE CASING  
  SHOE. DATA NOT PRESENTED.                                                     
- DATA RECORDED IN DOWNWARDS DIRECTION. NO UP LOG DATA AVAILABLE DUE TO TOOL    
  FAILURE (PARTING OF 3218MB MANDREL).                                          
- TOOL DEPLOYMENT INTO OPEN HOLE WAS NOT SMOOTH, DATA RECORDED IN TWO FILES     
  DATA SPLICE AT 3360 M.                                                        
GR:                                                                             
- GAMARAY RECORDED IN SPECTRAL MODE, DSL DATA NOT PRESENTED.                    
- GAMMA RAY READING HIGH DUE TO FORMATION ACTIVATION FROM CN/ZDL TOOLS.         
CN:                                                                             
-RECORDED IN SAME PASS, DATA PRESENTED UNDER SEPERATE HEADER.                   
ZDL:                                                                            
-RECORDED IN SAME PASS, DATA PRESENTED UNDER SEPERATE HEADER.                   
MREX:                                                                           
- NO DATA RECORDED.                                                             
XMAC-F1:                                                                        
- XMAC-F1 WAS RUN CENTRALISED.                                                  
- XMAC-F1 RUN IN SUBSET 1: FULLWAVE MONOPOLE AND CROSS DIPOLE.                  
- DT24QI IS THE COMPRESSIONAL DT DERIVED FROM SURFACE PICKED FIRST ARRIVALS.    
  DTCQI IS THE WAVE AVAN PROCESSED COMPRESSIONAL DT DERIVED FROM THE FULLWAVE   
  MONOPOLE DATA.                                                                
  DTSQI IS THE WAVE AVAN PROCESSED SHEAR DT DERIVED FROM THE FULLWAVE MONOPOLE  
  DATA.                                                                         
  DTSTQI IS THE WAVE AVAN PROCESSED STONELY DT DERIVED FROM THE FULLWAVE        
  MONOPOLE DATA.                                                                
  DTXXQI AND DTYYQI ARE THE ESTIMATED DIRECTIONAL DT DERIVED FROM THE DIPOLE    
  FULLWAVE DATA USING WAVE AVAN PROCESSING.                                     
- TOTAL INTEGRATED TRAVEL TIME FROM LAST READING DT TO CASING SHOE: 50.4 MS.    
- TOOL STRING CENTRALIZATION OPTIMIZED FOR 8 3/8" HOLE.                         
WGI (6CAL):                                                                     
- CALIPER CURVE (CHADW) PRESENTED IS FROM WGI.                                  
- AT 3360 M CALIPER ARMS 2 AND 5 MOST LIKELY GOT DAMAGED                        
HDIL:                                                                           
- HDIL IS TEMPERATURE CORRECTED                                                 
- HDIL TOOL WAS RUN CENTRALISED.                                                
- PRESENTED ARE THE 1FT MATCHED RESOLUTION CURVES (M1R?)                        
- HDIL PROCESSING AND CENTRALIZATION OPTIMIZED FOR 8 3/8" HOLE .                
#  Curve Data
~A  DEPT        BIT         CHT         GR          GRSL        K           KTH         M1R1        M1R2        M1R3        M1R6        M1R9        M1RX        QHDL        RTHK        RTHU        RUK         SPD         TH          TTEN        U           WRM         WTBH      
# ...
   3293.5000      8.3750    785.4553     47.4753     46.9471      0.9359     31.8348      1.6121      1.1085      1.4948      1.4656      1.2508      1.0416      0.0000      7.3745      2.9830      2.4804     13.9212      6.8820   5540.4321      2.3103   1369.7795     95.8304
   3293.6250      8.3750    781.7717     48.6204     48.1117      1.1246     35.8305      1.5554      1.1755      1.5527      1.4868      1.2611      1.0060      0.0000      6.1941      3.8246      1.6404     13.8789      6.9534   5557.5596      1.8333   1366.8616     95.8049
   3293.7500      8.3750    782.1612     48.6323     48.3649      1.2853     39.5520      1.5377      1.2418      1.5834      1.4946      1.2691      0.9848      0.0000      5.6737      5.6244      1.0172     13.8248      7.2920   5571.1846      1.3057   1374.3198     95.8094
   3293.8750      8.3750    785.7101     47.4642     47.4613      1.4278     42.9539      1.5788      1.3307      1.6446      1.5331      1.3050      0.9940      0.0000      5.5426     12.5965      0.4769     13.7929      7.9129   5573.8892      0.6749   1373.6166     95.8399
   3294.0000      8.3750    788.9210     46.2069     46.3547      1.5609     45.9679      1.6473      1.4264      1.7085      1.5699      1.3414      1.0137      0.0000      5.6265   1975.8652      0.0381     13.8037      8.7844   5576.2637      0.0585   1360.3843     95.8594
   3294.1250      8.3750    790.1570     45.0673     45.2429      1.6501     45.2331      1.7249      1.5176      1.7709      1.6108      1.3867      1.0462      0.0000      5.8981   5859.1323      0.0010     13.8439      9.7327   5583.5791      0.0017   1344.0415     95.8444
   3294.2500      8.3750    789.3889     43.9494     44.0482      1.6407     44.0391      1.7631      1.5603      1.7719      1.5996      1.3950      1.0664      0.0000      6.2368   6159.1519      0.0010     13.8810     10.2311   5586.2935      0.0017   1334.4497     95.7916
   3294.3750      8.3750    787.7181     43.4302     43.4425      1.5617     43.4330      1.7760      1.5732      1.7337      1.5704      1.3920      1.0866      0.0000      6.5435   6150.7637      0.0011     13.9045     10.2172   5575.5825      0.0017   1329.4360     95.7549
   3294.5000      8.3750    784.9293     43.7935     43.8154      1.4406     43.8052      1.8173      1.6045      1.7225      1.5713      1.4152      1.1289      0.0000      6.8418   5932.6641      0.0012     13.9193      9.8549   5552.7104      0.0017   1325.5538     95.7766
   3294.6250      8.3750    780.8181     43.8720     43.9941      1.2926     43.9832      1.8622      1.6421      1.7237      1.5862      1.4497      1.1853      0.0000      7.2452   5634.3008      0.0013     13.9233      9.3593   5530.8857      0.0017   1321.9832     95.8352
   3294.7500      8.3750    777.5877     42.4794     42.6328      1.1359     40.0330      1.8733      1.6583      1.7101      1.5930      1.4782      1.2434      0.0000      7.6405     24.2899      0.3507     13.9234      8.6766   5517.5439      0.3934   1320.4872     95.8670
   3294.8750      8.3750    777.0934     40.5839     40.6107      1.0060     34.4738      1.8748      1.6718      1.6992      1.6020      1.5072      1.3065      0.0000      7.8988      8.3974      0.9673     13.9373      7.9450   5511.5366      0.9694   1325.2281     95.8496
   3295.0000      8.3750    778.6494     41.6262     41.5330      0.9327     33.5744      1.8827      1.6924      1.7007      1.6211      1.5444      1.3795      0.0000      8.5798      6.3884      1.3426     13.9810      7.9998   5508.6602      1.2521   1335.7782     95.8361
   3295.1250      8.3750    781.6921     46.7755     46.6629      0.9606     39.8840      1.8885      1.7119      1.7029      1.6387      1.5788      1.4521      0.0000      9.9492      9.6226      1.0553     14.0426      9.5619   5510.7158      1.0117   1345.9537     95.8358
   3295.2500      8.3750    785.7927     53.8027     53.7442      1.0628     50.2604      1.8935      1.7305      1.7039      1.6511      1.6059      1.5177      0.0000     10.9965     25.8688      0.4630     14.0958     11.6929   5518.1416      0.4875   1350.3800     95.8179
   3295.3750      8.3750    788.9378     57.9820     57.9298      1.1412     56.6143      1.9108      1.7577      1.7132      1.6670      1.6342      1.5822      0.0000     11.1784     73.8715      0.1549     14.1304     12.7560   5524.3457      0.1765   1351.3673     95.7821
   3295.5000      8.3750    789.7295     57.5609     57.4421      1.1710     56.0146      1.9343      1.7879      1.7242      1.6797      1.6565      1.6366      0.0000     10.6870     65.3240      0.1649     14.1499     12.5135   5524.7813      0.1931   1355.8252     95.7594
   3295.6250      8.3750    788.8732     53.5340     53.3716      1.2091     50.3752      1.9634      1.8176      1.7338      1.6863      1.6696      1.6756      0.0000      9.2951     27.6930      0.3536     14.1547     11.2319   5523.4219      0.4284   1366.7817     95.7672
   3295.7500      8.3750    788.6581     49.5318     49.3792      1.2607     44.3054      2.0024      1.8486      1.7441      1.6899      1.6771      1.7017      0.0000      7.5420     12.7213      0.6035     14.1549      9.5016   5527.4697      0.7618   1371.9164     95.7881
   3295.8750      8.3750    789.1791     46.9831     46.8722      1.3056     40.0296      2.0425      1.8722      1.7477      1.6844      1.6727      1.7089      0.0000      6.1769      7.6199      0.8121     14.1580      8.0641   5535.3110      1.0605   1364.0159     95.8065
   3296.0000      8.3750    790.8707     46.1705     46.1152      1.3378     38.2202      2.0733      1.8781      1.7366      1.6636      1.6511      1.6922      0.0000      5.4705      5.9192      0.9257     14.1561      7.3169   5536.8228      1.2387   1349.8590     95.8059
   3296.1250      8.3750    794.7407     46.4981     46.4778      1.3682     37.6453      2.0760      1.8545      1.7019      1.6208      1.6063      1.6464      0.0000      4.9808      4.9474      1.0077     14.1262      6.8139   5533.1563      1.3790   1343.5154     95.7714
   3296.2500      8.3750    799.6832     47.4006     47.4052      1.4054     37.4436      2.0458      1.8007      1.6441      1.5578      1.5411      1.5760      0.0000      4.4834      4.1065      1.0925     14.0607      6.3001   5530.0825      1.5355   1348.7205     95.7241
   3296.3750      8.3750    802.8823     47.8663     47.8747      1.4548     36.9003      2.0490      1.7717      1.6094      1.5169      1.4973      1.5260      0.0000      3.9681      3.4142      1.1630     13.9987      5.7700   5533.9771      1.6923   1359.5577     95.7164
   3296.5000      8.3750    804.0438     47.5801     47.5680      1.5195     35.9910      2.1244      1.7956      1.6196      1.5168      1.4933      1.5160      0.0000      3.4653      2.8960      1.1967     13.9710      5.2635   5542.0078      1.8184   1370.0918     95.7667
   3296.6250      8.3750    804.4529     47.8260     47.7700      1.6136     35.6355      2.1705      1.7982      1.6136      1.5035      1.4766      1.4924      0.0000      2.9211      2.4415      1.1963     13.9720      4.7096   5545.4399      1.9302   1376.1853     95.8420
   3296.7500      8.3750    804.6495     49.8928     49.7544      1.7550     36.9069      2.1272      1.7436      1.5630      1.4528      1.4243      1.4326      0.0000      2.3451      2.0427      1.1470     13.9717      4.1087   5539.0889      2.0120   1377.6199     95.8782
   3296.8750      8.3750    803.6322     52.7661     52.5459      1.8983     39.3413      2.1063      1.7098      1.5301      1.4189      1.3887      1.3906      0.0000      2.0015      1.8845      1.0622     13.9675      3.7993   5523.4082      2.0161   1380.9172     95.8635
   3297.0000      8.3750    802.2421     54.3307     54.1147      1.9749     41.3409      2.1409      1.7174      1.5312      1.4155      1.3829      1.3791      0.0000      2.0428      2.0803      0.9827     13.9716      4.0350   5505.7925      1.9406   1389.2012     95.8396
