~Version Information
 VERS.                2.00:   CWLS log ASCII Standard -VERSION 2.00
 WRAP.                  NO:   One line per frame      
~Well Information Block
#MNEM.UNIT                   Data                   Description
#----.----   ------------------------------------   -------------------------------
 STRT.M                                 3253.6250 : Starting Depth
 STOP.M                                 3396.1250 : Ending Depth
 STEP.M                                    0.1250 : Level Spacing
 NULL.                                  -999.2500 : Absent Value
 COMP.       GDF SUEZ                             : Company
 WELL.       L5-13                                : Well
 FLD .       L5 OIL                               : Field
 LOC .       LAT: 53 48'40.57" N                  : Location
 PROV.       NOBLE PIET V EDE                     : Province
 SRVC.       Baker Atlas                          : Service Company
 LIC .                                            : License Number
 DATE.       3-JUN-2012                           : Log Date
 UWI .                                            : Unique Well ID
~Curve Information Block
#MNEM    .UNIT        API Codes     Curve Description
#--------.--------   LG--CV-CL--M   -------------------------------
 DEPT    .M          99 995 99  1 : Depth
 BIT     .in         70 282  1  1 : Bit size
 CHT     .lbf        99 635 99  1 : Cable head tension
 GR      .gAPI       30 310  1  1 : Gamma ray
 GRSL    .gAPI       30 310  1  1 : Gamma ray from 1329 spectrum
 K       .pct        31 719 99  1 : Potassium content
 KTH     .gAPI       31 995 99  1 : Stripped potassium-thorium
 M1R1    .ohm.m       8 120 10  1 : Vertical 1-foot resolution matched resistivity, 10-inch DOI
 M1R2    .ohm.m       8 120 20  1 : Vertical 1-foot resolution matched resistivity, 20-inch DOI
 M1R3    .ohm.m       8 120 30  1 : Vertical 1-foot resolution matched resistivity, 30-inch DOI
 M1R6    .ohm.m       8 120 60  1 : Vertical 1-foot resolution matched resistivity, 60-inch DOI
 M1R9    .ohm.m       8 120 90  1 : Vertical 1-foot resolution matched resistivity, 90-inch DOI
 M1RX    .ohm.m       8 120 90  1 : Vertical 1-foot resolution matched resistivity, 120-inch DOI
 QHDL    .lbf        99 995 99  1 : Quality for differential tension pulls for HDIL
 RTHK    .ppm/pct    31 995 99  1 : Ratio of thorium to potassium
 RTHU    .1          31 995 99  1 : Ratio of thorium to uranium
 RUK     .ppm/pct    31 995 99  1 : Ratio of uranium to potassium
 SPD     .m/min      99 636 99  1 : Speed
 TH      .ppm        31 790 99  1 : Thorium concentration
 TTEN    .lbf        99 635 99  1 : Total tension
 U       .ppm        31 792 99  1 : Uranium content
 WRM     .ohm.m      99 823 99  1 : Mud resistivity
 WTBH    .degC       99 995 99  1 : Temperature of borehole
~Parameter Information Block
#MNEM.UNIT                     Value                    Description
#----.----   ----------------------------------------   -------------------------------
 HIDE.       HIGH DEFINITION INDUCTION LOG            : Header Identifer
 HID1.       X-MULTIPOLE ARRAY ACOUSTILOG             : Header Identifer
 HID2.       GAMMA RAY LOG                            : Header Identifer
 CLAB.       RIG NAME                                 : County Label (Comments)
 SLAB.       COUNTRY                                  : State Label (Comments)
 STAT.       NETHERLANDS                              : State Or Province
 CMT1.       FINAL PRINT                              : Comment 1  
 CMT2.       SCALE 1:200/500                          : Comment 2  
 FL1 .       LON: 04 21'06.15"  E                     : Field Location 1
 OS1 .       ZDL/CN                                   : Other Services Line 1
 OS2 .       RCI                                      : Other Services Line 2
 OS3 .       BHP                                      : Other Services Line 3
 PDAT.       MSL                                      : Permanent Datum
 EPD .M      0                                        : Elevation Of Perm. Datum
 LMF .       DF                                       : Log Measured From
 APD .M      41.1                                     : Above Permanent Datum
 DMF .       DF                                       : Drilling Measured From
 EKB .M      41.1                                     : Elevation Of Kelly Bushing
 EDF .M      41.1                                     : Elevation Of Derrick Floor
 EGL .M      -42.0                                    : Elevation Of Ground Level
 TRIP.       5                                        : Trip Number
 SON .       13-168551                                : Service Order Number
 TDD .M      3491                                     : Total Depth - Driller
 BLI .M      3480                                     : Bottom Log Interval
 TLI .M      3296                                     : Top Log Interval
 CSIZ.IN     9.625                                    : Casing Size
 CBDR.M      3299                                     : Casing Bottom - Driller
 CBLO.M      3996.2                                   : Casing Bottom - Logger
 BS  .IN     8.375                                    : Bit Size
 DFT .       LTOBM                                    : Drilling Fluid Type
 DFD .G/C3   1.52                                     : Drilling Fluid Density
 DFV .S      25                                       : Drilling Fluid Viscosity
 DFL .M3     1.2                                      : Drilling Fluid Loss
 MSS .       FLOWLINE                                 : Mud Sample Source
 RMS .OHMM   >10                                      : Resistivity Of Mud Sample
 RMFS.OHMM   >10                                      : Resistivity Of Mud Filtrate Sample
 RMCS.OHMM   >10                                      : Resistivity Of Mud Cake Sample
 MFSS.       NA                                       : Mud Filtrate Sample Source
 MCSS.       NA                                       : Mud Cake Sample Source
 RMB .OHMM   >10                                      : Mud Resistivity At Bht
 TSC .       36 HRS                                   : Time Since Circulation
 MRT .DEGC   104                                      : Maximum Recorded Temperature
 LUN .       8934                                     : Logging Unit Number
 LUL .       DEN HELDER                               : Logging Unit Location
 ENGI.       A. WIEFKERS/H. V DIJKEN                  : Engineer's Name
 WITN.       P. GERRITSEN                             : Witness' Name
 TSTR.       HDIL/XMAC/GR                             : Title Service Mnemonic
 TSTG.       NA                                       : Title Service Mnemonic
 STUS.       FINAL                                    : Status
 LCNM.       BAKER ATLAS                              : Logging Company Name
 LCC .       150                                      : Logging Company Code
 OPMD.       OH.WIRE                                  : Operation Mode
 PANA.       A. WIEFKERS/H. V DIJKEN                  : Processing Analyst
 PCON.       BAKER ATLAS                              : Processing Contractor
 APIN.                                                : API Serial Number
~Other information
DEPTH AUDIT:                                                                    
- ALL DEPTHS ARE REFERENCED TO DRILL FLOOR.                                     
- TOOLS DEPLOYED BY DRILL PIPE USING BAKER ATLAS PCL EQUIPMENT WITH CONSTANT    
  TENSION DEVICE.                                                               
GENERAL:                                                                        
- LAST CIRCULATION ON 04-JUN-2013 AT 02:30 HRS.                                 
- MAXIMUM RECORDED TEMPERATURE FROM TTRM SUB IS 104 DEGC AT 3441 M              
- MAXIMUM RECORDED DEVIATION IS 32 DEG AT 3421 FROM ORIT SUB.                   
- TOOLSTRING RUN  A5 PCL/DSL/CN/ZDL/MREX/KNJT/ORIT/XMAC/WGI/HDIL/CENT           
- DSL AND WGI RECORDED SIMULTANEOUS BUT PRESENTED UNDER SEPARATE HEADINGS       
- ADDITIONAL MUD PROPERTIES: WHOLE MUD SALINITY = 26000 MG/L                    
                             CORRECTED SOLIDS = 28 %                            
                             YP = 22 LB/100FT2                                  
                             PV = 14 CP                                         
                             OIL/WATER RATIO 80/20                              
- RUNS A1-A2-A3-A4 WIRELINE RUN WITH DIFFERENT TOOL CONFIGURATIONS. UNABLE TO   
  REACH TD, HUD 3393 M. ONLY ON RUN A2 DATA RECORDED FROM 3393 UPTO THE CASING  
  SHOE. DATA NOT PRESENTED.                                                     
- DATA RECORDED IN DOWNWARDS DIRECTION. NO UP LOG DATA AVAILABLE DUE TO TOOL    
  FAILURE (PARTING OF 3218MB MANDREL).                                          
- TOOL DEPLOYMENT INTO OPEN HOLE WAS NOT SMOOTH, DATA RECORDED IN TWO FILES     
  DATA SPLICE AT 3360 M.                                                        
GR:                                                                             
- GAMARAY RECORDED IN SPECTRAL MODE, DSL DATA NOT PRESENTED.                    
- GAMMA RAY READING HIGH DUE TO FORMATION ACTIVATION FROM CN/ZDL TOOLS.         
CN:                                                                             
-RECORDED IN SAME PASS, DATA PRESENTED UNDER SEPERATE HEADER.                   
ZDL:                                                                            
-RECORDED IN SAME PASS, DATA PRESENTED UNDER SEPERATE HEADER.                   
MREX:                                                                           
- NO DATA RECORDED.                                                             
XMAC-F1:                                                                        
- XMAC-F1 WAS RUN CENTRALISED.                                                  
- XMAC-F1 RUN IN SUBSET 1: FULLWAVE MONOPOLE AND CROSS DIPOLE.                  
- DT24QI IS THE COMPRESSIONAL DT DERIVED FROM SURFACE PICKED FIRST ARRIVALS.    
  DTCQI IS THE WAVE AVAN PROCESSED COMPRESSIONAL DT DERIVED FROM THE FULLWAVE   
  MONOPOLE DATA.                                                                
  DTSQI IS THE WAVE AVAN PROCESSED SHEAR DT DERIVED FROM THE FULLWAVE MONOPOLE  
  DATA.                                                                         
  DTSTQI IS THE WAVE AVAN PROCESSED STONELY DT DERIVED FROM THE FULLWAVE        
  MONOPOLE DATA.                                                                
  DTXXQI AND DTYYQI ARE THE ESTIMATED DIRECTIONAL DT DERIVED FROM THE DIPOLE    
  FULLWAVE DATA USING WAVE AVAN PROCESSING.                                     
- TOTAL INTEGRATED TRAVEL TIME FROM LAST READING DT TO CASING SHOE: 50.4 MS.    
- TOOL STRING CENTRALIZATION OPTIMIZED FOR 8 3/8" HOLE.                         
WGI (6CAL):                                                                     
- CALIPER CURVE (CHADW) PRESENTED IS FROM WGI.                                  
- AT 3360 M CALIPER ARMS 2 AND 5 MOST LIKELY GOT DAMAGED                        
HDIL:                                                                           
- HDIL IS TEMPERATURE CORRECTED                                                 
- HDIL TOOL WAS RUN CENTRALISED.                                                
- PRESENTED ARE THE 1FT MATCHED RESOLUTION CURVES (M1R?)                        
- HDIL PROCESSING AND CENTRALIZATION OPTIMIZED FOR 8 3/8" HOLE .                
#  Curve Data
~A  DEPT        BIT         CHT         GR          GRSL        K           KTH         M1R1        M1R2        M1R3        M1R6        M1R9        M1RX        QHDL        RTHK        RTHU        RUK         SPD         TH          TTEN        U           WRM         WTBH      
# ...
   3351.5000      8.3750    819.7862     87.4154     87.6827      2.2595     81.2838      1.1463      1.0193      0.9866      0.9948      1.0017      1.0080      0.0000      7.1431     17.7294      0.4029     13.7568     16.1383   5727.4639      0.9103   1342.6088     95.5343
   3351.6250      8.3750    811.7408     89.8965     90.1200      2.1338     83.5342      1.1832      1.0495      1.0143      1.0227      1.0297      1.0374      0.0000      7.9541     18.5972      0.4277     13.7204     16.9619   5720.6089      0.9126   1352.5734     95.4932
   3351.7500      8.3750    808.3212     94.5519     94.6702      2.0736     89.1301      1.2126      1.0725      1.0344      1.0426      1.0497      1.0587      0.0000      8.8998     25.0652      0.3599     13.6875     18.4562   5721.9644      0.7460   1364.3649     95.4646
   3351.8750      8.3750    808.9640     99.5844     99.5269      2.1628     95.9511      1.2729      1.1184      1.0752      1.0833      1.0907      1.1013      0.0000      9.2064     42.3638      0.2203     13.6606     19.9116   5724.6704      0.4757   1376.2903     95.4450
   3352.0000      8.3750    809.5063    103.3144    103.0274      2.3361    100.5703      1.3506      1.1778      1.1281      1.1361      1.1442      1.1567      0.0000      8.7578     62.7818      0.1402     13.6334     20.4497   5717.7720      0.3270   1385.3719     95.4238
   3352.1250      8.3750    809.5623    105.5062    105.1195      2.4725    102.7422      1.4166      1.2299      1.1746      1.1821      1.1909      1.2051      0.0000      8.2256     64.3097      0.1279     13.6039     20.3361   5705.8955      0.3163   1384.8905     95.4195
   3352.2500      8.3750    811.0054    105.7873    105.5031      2.5486    102.8318      1.4582      1.2660      1.2072      1.2139      1.2233      1.2386      0.0000      7.8531     56.2295      0.1399     13.5741     20.0128   5702.3105      0.3567   1370.3605     95.4487
   3352.3750      8.3750    816.2761    104.1503    103.9739      2.5986     99.8720      1.4653      1.2772      1.2177      1.2234      1.2329      1.2486      0.0000      7.3605     35.5385      0.2137     13.5556     19.1251   5709.4365      0.5556   1354.2877     95.4607
   3352.5000      8.3750    822.8865    100.8959    100.6957      2.5896     93.7264      1.4373      1.2603      1.2031      1.2074      1.2167      1.2320      0.0000      6.7974     18.4356      0.3711     13.5550     17.6035   5715.3901      0.9605   1348.1864     95.4252
   3352.6250      8.3750    826.5799     96.6314     96.3621      2.4620     85.7577      1.4372      1.2617      1.2051      1.2084      1.2176      1.2327      0.0000      6.4776     10.9092      0.6032     13.5651     15.9499   5707.9883      1.4819   1349.6526     95.3843
   3352.7500      8.3750    827.8813     92.4125     92.1773      2.2659     78.2471      1.4599      1.2780      1.2206      1.2229      1.2322      1.2473      0.0000      6.4634      7.5079      0.8673     13.5777     14.6443   5694.2490      1.9608   1347.7269     95.4120
   3352.8750      8.3750    828.3111     88.5463     88.4522      2.0935     71.9234      1.4317      1.2536      1.1988      1.2001      1.2090      1.2231      0.0000      6.5019      5.8043      1.1202     13.5927     13.6119   5688.2993      2.3452   1342.4047     95.4953
   3353.0000      8.3750    828.4357     85.7635     85.7702      2.0282     68.2272      1.3630      1.1975      1.1476      1.1483      1.1564      1.1686      0.0000      6.3673      5.1350      1.2404     13.6014     12.9147   5698.3105      2.5156   1339.6646     95.5597
   3353.1250      8.3750    828.2306     84.1025     84.1148      2.0396     66.8500      1.2703      1.1229      1.0791      1.0793      1.0864      1.0967      0.0000      6.1705      5.0320      1.2264     13.5974     12.5848   5715.3828      2.5012   1337.4010     95.5778
   3353.2500      8.3750    825.8232     83.9025     83.7454      2.0923     67.4379      1.1693      1.0416      1.0039      1.0039      1.0102      1.0185      0.0000      6.0086      5.3022      1.1335     13.5946     12.5718   5728.2817      2.3714   1332.0751     95.5553
   3353.3750      8.3750    822.5166     85.1387     84.7121      2.2076     70.3741      1.1468      1.0227      0.9863      0.9863      0.9925      1.0001      0.0000      5.8284      6.2185      0.9427     13.6175     12.8638   5730.2051      2.0773   1331.4594     95.5040
   3353.5000      8.3750    821.8927     87.8327     87.2508      2.4165     76.4433      1.1812      1.0487      1.0104      1.0104      1.0171      1.0248      0.0000      5.6264      8.8634      0.6441     13.6612     13.5936   5730.5435      1.5520   1343.2477     95.4418
   3353.6250      8.3750    825.5769     92.1603     91.6300      2.6615     84.4569      1.1870      1.0507      1.0118      1.0121      1.0191      1.0265      0.0000      5.4620     14.5121      0.3816     13.7097     14.5351   5739.9009      1.0129   1367.6014     95.3783
   3353.7500      8.3750    831.9057     96.4552     96.0368      2.8182     90.2191      1.1346      1.0049      0.9684      0.9689      0.9757      0.9823      0.0000      5.3393     18.6808      0.2859     13.7499     15.0460   5757.9038      0.8055   1400.4310     95.3215
   3353.8750      8.3750    840.4665     98.6265     98.2499      2.8809     91.6670      1.0762      0.9525      0.9184      0.9193      0.9258      0.9316      0.0000      5.1869     16.5439      0.3142     13.7761     14.9425   5775.0122      0.9051   1430.5787     95.2888
   3354.0000      8.3750    850.2692     98.0998     97.7420      2.9123     89.4525      1.0589      0.9318      0.8979      0.8994      0.9059      0.9113      0.0000      4.9353     12.5106      0.3966     13.7899     14.3724   5783.1206      1.1552   1443.7354     95.2998
   3354.1250      8.3750    855.7270     96.9050     96.6308      2.9388     85.7810      1.0627      0.9291      0.8941      0.8962      0.9030      0.9081      0.0000      4.5767      8.8108      0.5241     13.8105     13.4493   5778.5859      1.5405   1437.7615     95.3245
   3354.2500      8.3750    852.5483     96.5374     96.3270      2.9527     82.4756      1.0737      0.9351      0.8987      0.9014      0.9084      0.9132      0.0000      4.2133      6.2673      0.6726     13.8517     12.4404   5762.0762      1.9859   1426.9784     95.3210
   3354.3750      8.3750    842.1687     96.9800     96.7819      2.9667     80.4683      1.1636      1.0057      0.9630      0.9664      0.9743      0.9792      0.0000      3.9501      5.0000      0.7916     13.8939     11.7184   5739.4839      2.3486   1423.0830     95.3021
   3354.5000      8.3750    832.2670     97.8007     97.6159      2.9860     79.6940      1.4685      1.2352      1.1709      1.1753      1.1866      1.1926      0.0000      3.8303      4.4151      0.8679     13.8979     11.4372   5719.4219      2.5915   1414.3875     95.3332
   3354.6250      8.3750    824.5121     99.1691     99.0330      2.9896     80.0506      1.9664      1.5870      1.4822      1.4866      1.5034      1.5106      0.0000      3.8961      4.2300      0.9211     13.8593     11.6478   5706.8711      2.7537   1391.5225     95.4131
   3354.7500      8.3750    816.3040    101.1199    101.0070      2.9501     81.9183      2.0986      1.6802      1.5616      1.5612      1.5778      1.5828      0.0000      4.2531      4.5412      0.9367     13.8081     12.5450   5702.9214      2.7632   1366.0908     95.4522
   3354.8750      8.3750    808.5478    102.8320    102.6664      2.8987     84.7208      1.8695      1.5262      1.4252      1.4187      1.4310      1.4322      0.0000      4.7688      5.3489      0.8929     13.7749     13.8218   5704.8447      2.5885   1355.2360     95.4147
   3355.0000      8.3750    803.9311    103.5839    103.3445      2.8645     87.8135      1.6418      1.3595      1.2752      1.2640      1.2720      1.2704      0.0000      5.3022      6.7970      0.7814     13.7568     15.1880   5712.9487      2.2385   1362.8585     95.3453
