~Version Information
 VERS.                2.00:   CWLS log ASCII Standard -VERSION 2.00
 WRAP.                  NO:   One line per frame      
~Well Information Block
#MNEM.UNIT                   Data                   Description
#----.----   ------------------------------------   -------------------------------
 STRT.M                                 3253.6250 : Starting Depth
 STOP.M                                 3396.1250 : Ending Depth
 STEP.M                                    0.1250 : Level Spacing
 NULL.                                  -999.2500 : Absent Value
 COMP.       GDF SUEZ                             : Company
 WELL.       L5-13                                : Well
 FLD .       L5 OIL                               : Field
 LOC .       LAT: 53 48'40.57" N                  : Location
 PROV.       NOBLE PIET V EDE                     : Province
 SRVC.       Baker Atlas                          : Service Company
 LIC .                                            : License Number
 DATE.       3-JUN-2012                           : Log Date
 UWI .                                            : Unique Well ID
~Curve Information Block
#MNEM    .UNIT        API Codes     Curve Description
#--------.--------   LG--CV-CL--M   -------------------------------
 DEPT    .M          99 995 99  1 : Depth
 BIT     .in         70 282  1  1 : Bit size
 CHT     .lbf        99 635 99  1 : Cable head tension
 GR      .gAPI       30 310  1  1 : Gamma ray
 GRSL    .gAPI       30 310  1  1 : Gamma ray from 1329 spectrum
 K       .pct        31 719 99  1 : Potassium content
 KTH     .gAPI       31 995 99  1 : Stripped potassium-thorium
 M1R1    .ohm.m       8 120 10  1 : Vertical 1-foot resolution matched resistivity, 10-inch DOI
 M1R2    .ohm.m       8 120 20  1 : Vertical 1-foot resolution matched resistivity, 20-inch DOI
 M1R3    .ohm.m       8 120 30  1 : Vertical 1-foot resolution matched resistivity, 30-inch DOI
 M1R6    .ohm.m       8 120 60  1 : Vertical 1-foot resolution matched resistivity, 60-inch DOI
 M1R9    .ohm.m       8 120 90  1 : Vertical 1-foot resolution matched resistivity, 90-inch DOI
 M1RX    .ohm.m       8 120 90  1 : Vertical 1-foot resolution matched resistivity, 120-inch DOI
 QHDL    .lbf        99 995 99  1 : Quality for differential tension pulls for HDIL
 RTHK    .ppm/pct    31 995 99  1 : Ratio of thorium to potassium
 RTHU    .1          31 995 99  1 : Ratio of thorium to uranium
 RUK     .ppm/pct    31 995 99  1 : Ratio of uranium to potassium
 SPD     .m/min      99 636 99  1 : Speed
 TH      .ppm        31 790 99  1 : Thorium concentration
 TTEN    .lbf        99 635 99  1 : Total tension
 U       .ppm        31 792 99  1 : Uranium content
 WRM     .ohm.m      99 823 99  1 : Mud resistivity
 WTBH    .degC       99 995 99  1 : Temperature of borehole
~Parameter Information Block
#MNEM.UNIT                     Value                    Description
#----.----   ----------------------------------------   -------------------------------
 HIDE.       HIGH DEFINITION INDUCTION LOG            : Header Identifer
 HID1.       X-MULTIPOLE ARRAY ACOUSTILOG             : Header Identifer
 HID2.       GAMMA RAY LOG                            : Header Identifer
 CLAB.       RIG NAME                                 : County Label (Comments)
 SLAB.       COUNTRY                                  : State Label (Comments)
 STAT.       NETHERLANDS                              : State Or Province
 CMT1.       FINAL PRINT                              : Comment 1  
 CMT2.       SCALE 1:200/500                          : Comment 2  
 FL1 .       LON: 04 21'06.15"  E                     : Field Location 1
 OS1 .       ZDL/CN                                   : Other Services Line 1
 OS2 .       RCI                                      : Other Services Line 2
 OS3 .       BHP                                      : Other Services Line 3
 PDAT.       MSL                                      : Permanent Datum
 EPD .M      0                                        : Elevation Of Perm. Datum
 LMF .       DF                                       : Log Measured From
 APD .M      41.1                                     : Above Permanent Datum
 DMF .       DF                                       : Drilling Measured From
 EKB .M      41.1                                     : Elevation Of Kelly Bushing
 EDF .M      41.1                                     : Elevation Of Derrick Floor
 EGL .M      -42.0                                    : Elevation Of Ground Level
 TRIP.       5                                        : Trip Number
 SON .       13-168551                                : Service Order Number
 TDD .M      3491                                     : Total Depth - Driller
 BLI .M      3480                                     : Bottom Log Interval
 TLI .M      3296                                     : Top Log Interval
 CSIZ.IN     9.625                                    : Casing Size
 CBDR.M      3299                                     : Casing Bottom - Driller
 CBLO.M      3996.2                                   : Casing Bottom - Logger
 BS  .IN     8.375                                    : Bit Size
 DFT .       LTOBM                                    : Drilling Fluid Type
 DFD .G/C3   1.52                                     : Drilling Fluid Density
 DFV .S      25                                       : Drilling Fluid Viscosity
 DFL .M3     1.2                                      : Drilling Fluid Loss
 MSS .       FLOWLINE                                 : Mud Sample Source
 RMS .OHMM   >10                                      : Resistivity Of Mud Sample
 RMFS.OHMM   >10                                      : Resistivity Of Mud Filtrate Sample
 RMCS.OHMM   >10                                      : Resistivity Of Mud Cake Sample
 MFSS.       NA                                       : Mud Filtrate Sample Source
 MCSS.       NA                                       : Mud Cake Sample Source
 RMB .OHMM   >10                                      : Mud Resistivity At Bht
 TSC .       36 HRS                                   : Time Since Circulation
 MRT .DEGC   104                                      : Maximum Recorded Temperature
 LUN .       8934                                     : Logging Unit Number
 LUL .       DEN HELDER                               : Logging Unit Location
 ENGI.       A. WIEFKERS/H. V DIJKEN                  : Engineer's Name
 WITN.       P. GERRITSEN                             : Witness' Name
 TSTR.       HDIL/XMAC/GR                             : Title Service Mnemonic
 TSTG.       NA                                       : Title Service Mnemonic
 STUS.       FINAL                                    : Status
 LCNM.       BAKER ATLAS                              : Logging Company Name
 LCC .       150                                      : Logging Company Code
 OPMD.       OH.WIRE                                  : Operation Mode
 PANA.       A. WIEFKERS/H. V DIJKEN                  : Processing Analyst
 PCON.       BAKER ATLAS                              : Processing Contractor
 APIN.                                                : API Serial Number
~Other information
DEPTH AUDIT:                                                                    
- ALL DEPTHS ARE REFERENCED TO DRILL FLOOR.                                     
- TOOLS DEPLOYED BY DRILL PIPE USING BAKER ATLAS PCL EQUIPMENT WITH CONSTANT    
  TENSION DEVICE.                                                               
GENERAL:                                                                        
- LAST CIRCULATION ON 04-JUN-2013 AT 02:30 HRS.                                 
- MAXIMUM RECORDED TEMPERATURE FROM TTRM SUB IS 104 DEGC AT 3441 M              
- MAXIMUM RECORDED DEVIATION IS 32 DEG AT 3421 FROM ORIT SUB.                   
- TOOLSTRING RUN  A5 PCL/DSL/CN/ZDL/MREX/KNJT/ORIT/XMAC/WGI/HDIL/CENT           
- DSL AND WGI RECORDED SIMULTANEOUS BUT PRESENTED UNDER SEPARATE HEADINGS       
- ADDITIONAL MUD PROPERTIES: WHOLE MUD SALINITY = 26000 MG/L                    
                             CORRECTED SOLIDS = 28 %                            
                             YP = 22 LB/100FT2                                  
                             PV = 14 CP                                         
                             OIL/WATER RATIO 80/20                              
- RUNS A1-A2-A3-A4 WIRELINE RUN WITH DIFFERENT TOOL CONFIGURATIONS. UNABLE TO   
  REACH TD, HUD 3393 M. ONLY ON RUN A2 DATA RECORDED FROM 3393 UPTO THE CASING  
  SHOE. DATA NOT PRESENTED.                                                     
- DATA RECORDED IN DOWNWARDS DIRECTION. NO UP LOG DATA AVAILABLE DUE TO TOOL    
  FAILURE (PARTING OF 3218MB MANDREL).                                          
- TOOL DEPLOYMENT INTO OPEN HOLE WAS NOT SMOOTH, DATA RECORDED IN TWO FILES     
  DATA SPLICE AT 3360 M.                                                        
GR:                                                                             
- GAMARAY RECORDED IN SPECTRAL MODE, DSL DATA NOT PRESENTED.                    
- GAMMA RAY READING HIGH DUE TO FORMATION ACTIVATION FROM CN/ZDL TOOLS.         
CN:                                                                             
-RECORDED IN SAME PASS, DATA PRESENTED UNDER SEPERATE HEADER.                   
ZDL:                                                                            
-RECORDED IN SAME PASS, DATA PRESENTED UNDER SEPERATE HEADER.                   
MREX:                                                                           
- NO DATA RECORDED.                                                             
XMAC-F1:                                                                        
- XMAC-F1 WAS RUN CENTRALISED.                                                  
- XMAC-F1 RUN IN SUBSET 1: FULLWAVE MONOPOLE AND CROSS DIPOLE.                  
- DT24QI IS THE COMPRESSIONAL DT DERIVED FROM SURFACE PICKED FIRST ARRIVALS.    
  DTCQI IS THE WAVE AVAN PROCESSED COMPRESSIONAL DT DERIVED FROM THE FULLWAVE   
  MONOPOLE DATA.                                                                
  DTSQI IS THE WAVE AVAN PROCESSED SHEAR DT DERIVED FROM THE FULLWAVE MONOPOLE  
  DATA.                                                                         
  DTSTQI IS THE WAVE AVAN PROCESSED STONELY DT DERIVED FROM THE FULLWAVE        
  MONOPOLE DATA.                                                                
  DTXXQI AND DTYYQI ARE THE ESTIMATED DIRECTIONAL DT DERIVED FROM THE DIPOLE    
  FULLWAVE DATA USING WAVE AVAN PROCESSING.                                     
- TOTAL INTEGRATED TRAVEL TIME FROM LAST READING DT TO CASING SHOE: 50.4 MS.    
- TOOL STRING CENTRALIZATION OPTIMIZED FOR 8 3/8" HOLE.                         
WGI (6CAL):                                                                     
- CALIPER CURVE (CHADW) PRESENTED IS FROM WGI.                                  
- AT 3360 M CALIPER ARMS 2 AND 5 MOST LIKELY GOT DAMAGED                        
HDIL:                                                                           
- HDIL IS TEMPERATURE CORRECTED                                                 
- HDIL TOOL WAS RUN CENTRALISED.                                                
- PRESENTED ARE THE 1FT MATCHED RESOLUTION CURVES (M1R?)                        
- HDIL PROCESSING AND CENTRALIZATION OPTIMIZED FOR 8 3/8" HOLE .                
#  Curve Data
~A  DEPT        BIT         CHT         GR          GRSL        K           KTH         M1R1        M1R2        M1R3        M1R6        M1R9        M1RX        QHDL        RTHK        RTHU        RUK         SPD         TH          TTEN        U           WRM         WTBH      
# ...
   3318.8750      8.3750    833.4998     75.9596     75.9460      1.5559     60.9712      1.3185      1.1441      1.0845      1.0730      1.0678      1.0683      0.0000      8.4559      6.1297      1.3795     13.9418     13.1559   5694.5068      2.1463   1353.5043     96.2215
   3319.0000      8.3750    847.4755     77.9385     77.9613      1.5933     62.1499      1.3820      1.1971      1.1333      1.1206      1.1145      1.1144      0.0000      8.1325      5.8214      1.3973     13.9597     12.9559   5719.5762      2.2266   1362.3291     96.2101
   3319.1250      8.3750    859.4872     79.7650     79.7947      1.6365     62.6660      1.4234      1.2348      1.1686      1.1550      1.1480      1.1472      0.0000      7.6907      5.2837      1.4557     13.9850     12.5855   5742.0571      2.3824   1366.1534     96.2323
   3319.2500      8.3750    863.7114     80.7990     80.8034      1.6873     62.4827      1.4315      1.2480      1.1823      1.1682      1.1605      1.1587      0.0000      7.2122      4.7831      1.5081     13.9937     12.1671   5757.7231      2.5448   1367.3767     96.2652
   3319.3750      8.3750    863.5430     82.0263     81.9826      1.7571     62.7637      1.4405      1.2617      1.1964      1.1816      1.1731      1.1703      0.0000      6.6961      4.4196      1.5150     13.9840     11.7616   5755.1572      2.6618   1370.4883     96.2949
   3319.5000      8.3750    863.6727     83.9137     83.8475      1.8490     63.7554      1.4267      1.2569      1.1938      1.1786      1.1694      1.1656      0.0000      6.1204      4.1064      1.4905     13.9777     11.3165   5728.8477      2.7558   1371.9055     96.3172
   3319.6250      8.3750    866.1766     86.2153     86.2142      1.9235     64.6224      1.4245      1.2591      1.1972      1.1812      1.1713      1.1663      0.0000      5.6015      3.7015      1.5138     13.9981     10.7721   5691.5342      2.9122   1365.8989     96.3101
   3319.7500      8.3750    861.1857     87.4991     87.5395      1.9614     63.8832      1.4249      1.2614      1.2002      1.1833      1.1726      1.1666      0.0000      5.1546      3.1947      1.6155     14.0319     10.1096   5664.7246      3.1687   1354.6866     96.2895
   3319.8750      8.3750    840.5396     86.6284     86.5162      1.9729     60.7945      1.4166      1.2550      1.1949      1.1772      1.1659      1.1588      0.0000      4.7424      2.6663      1.7796     14.0506      9.3563   5649.0410      3.5111   1343.6774     96.2907
   3320.0000      8.3750    812.1751     84.7335     84.2427      1.9950     57.1797      1.4036      1.2433      1.1842      1.1658      1.1542      1.1463      0.0000      4.3296      2.2608      1.9167     14.0377      8.6365   5630.7231      3.8241   1339.6577     96.3196
   3320.1250      8.3750    792.1192     84.6870     83.8933      2.0233     55.3174      1.3816      1.2240      1.1661      1.1473      1.1356      1.1270      0.0000      3.9362      1.9551      2.0140     14.0173      7.9635   5608.8354      4.0751   1344.4249     96.3474
   3320.2500      8.3750    788.2520     87.7478     86.9998      2.0476     55.7817      1.3946      1.2316      1.1722      1.1522      1.1400      1.1305      0.0000      3.5424      1.6889      2.0981     13.9987      7.2529   5595.5938      4.2961   1352.4742     96.3568
   3320.3750      8.3750    796.3143     90.0628     89.6833      2.0672     56.2963      1.4194      1.2483      1.1862      1.1650      1.1523      1.1418      0.0000      3.2069      1.4929      2.1481     13.9568      6.6286   5597.2441      4.4406   1353.7343     96.3571
   3320.5000      8.3750    805.7654     88.3453     88.3485      2.1177     55.7541      1.3933      1.2261      1.1650      1.1439      1.1315      1.1208      0.0000      2.9310      1.4253      2.0565     13.8991      6.2062   5603.1362      4.3544   1346.3921     96.3571
   3320.6250      8.3750    809.5361     83.7273     83.9055      2.2155     54.8027      1.3556      1.1958      1.1368      1.1164      1.1046      1.0938      0.0000      2.6518      1.4641      1.8119     13.8639      5.8729   5608.0347      4.0123   1338.3109     96.3571
   3320.7500      8.3750    809.1511     80.2176     80.4149      2.3052     54.0364      1.3558      1.1961      1.1364      1.1160      1.1044      1.0931      0.0000      2.3803      1.4735      1.6151     13.8646      5.4857   5615.4873      3.7225   1336.1010     96.3571
   3320.8750      8.3750    813.5878     79.0435     79.1595      2.3439     53.2707      1.3913      1.2251      1.1623      1.1413      1.1295      1.1172      0.0000      2.1650      1.3808      1.5680     13.8698      5.0745   5623.8306      3.6753   1337.8883     96.3571
   3321.0000      8.3750    826.2750     79.7102     79.5994      2.3383     52.4226      1.4576      1.2795      1.2117      1.1893      1.1769      1.1631      0.0000      2.0115      1.2255      1.6424     13.8431      4.7035   5633.0195      3.8403   1338.9803     96.3571
   3321.1250      8.3750    836.6354     81.2263     80.8314      2.3075     51.5043      1.5235      1.3354      1.2631      1.2395      1.2266      1.2110      0.0000      1.9088      1.0722      1.7820     13.7955      4.4048   5644.7007      4.1111   1338.8234     96.3571
   3321.2500      8.3750    838.1098     83.1279     82.5370      2.2369     50.6246      1.5867      1.3914      1.3156      1.2908      1.2774      1.2599      0.0000      1.9541      0.9853      1.9834     13.7493      4.3708   5653.8770      4.4364   1338.4730     96.3571
   3321.3750      8.3750    832.7219     84.2414     83.6556      2.1176     49.6720      1.6587      1.4568      1.3775      1.3508      1.3367      1.3169      0.0000      2.2645      1.0128      2.2343     13.7289      4.7902   5655.4624      4.7281   1339.2089     96.3571
   3321.5000      8.3750    826.1212     84.8200     84.3687      1.9609     48.6887      1.7151      1.5112      1.4300      1.4015      1.3868      1.3649      0.0000      2.8119      1.1036      2.5455     13.7388      5.5058   5654.8853      4.9874   1340.9939     96.3571
   3321.6250      8.3750    820.6227     85.1793     84.8738      1.7933     48.1291      1.6964      1.5055      1.4287      1.3998      1.3855      1.3629      0.0000      3.5975      1.2487      2.8791     13.7667      6.4458   5659.8560      5.1612   1342.8877     96.3571
   3321.7500      8.3750    816.1082     85.1250     84.9191      1.6588     48.8574      1.5929      1.4273      1.3602      1.3332      1.3204      1.2992      0.0000      4.6367      1.5082      3.0731     13.7911      7.6807   5671.3906      5.0971   1343.5190     96.3571
   3321.8750      8.3750    813.2305     85.1071     84.9523      1.5963     51.5928      1.4897      1.3432      1.2842      1.2589      1.2475      1.2280      0.0000      5.7246      1.9368      2.9608     13.8120      9.1383   5681.3574      4.7265   1342.2842     96.3571
   3322.0000      8.3750    814.9847     85.5163     85.3127      1.6219     56.2338      1.4121      1.2752      1.2209      1.1966      1.1864      1.1683      0.0000      6.5339      2.5932      2.5284     13.8350     10.5996   5684.7051      4.0992   1339.6324     96.3571
   3322.1250      8.3750    823.2228     85.6369     85.3131      1.7664     62.3038      1.3798      1.2418      1.1881      1.1637      1.1542      1.1366      0.0000      6.7200      3.7131      1.8391     13.8465     11.8668   5680.6069      3.2333   1336.4763     96.3571
   3322.2500      8.3750    831.6070     84.9848     84.6055      2.0398     69.2519      1.3764      1.2305      1.1750      1.1499      1.1409      1.1232      0.0000      6.2939      5.9888      1.0661     13.8434     12.8307   5671.0459      2.1677   1327.4160     96.3571
   3322.3750      8.3750    831.6515     83.9688     83.7369      2.4119     76.3581      1.3384      1.1916      1.1367      1.1124      1.1044      1.0875      0.0000      5.5408     13.5716      0.4416     13.8581     13.3415   5662.9395      1.0496   1286.2731     96.3571
