~Version Information
 VERS.                2.00:   CWLS log ASCII Standard -VERSION 2.00
 WRAP.                  NO:   One line per frame      
~Well Information Block
#MNEM.UNIT                   Data                   Description
#----.----   ------------------------------------   -------------------------------
 STRT.M                                 3253.6250 : Starting Depth
 STOP.M                                 3396.1250 : Ending Depth
 STEP.M                                    0.1250 : Level Spacing
 NULL.                                  -999.2500 : Absent Value
 COMP.       GDF SUEZ                             : Company
 WELL.       L5-13                                : Well
 FLD .       L5 OIL                               : Field
 LOC .       LAT: 53 48'40.57" N                  : Location
 PROV.       NOBLE PIET V EDE                     : Province
 SRVC.       Baker Atlas                          : Service Company
 LIC .                                            : License Number
 DATE.       3-JUN-2012                           : Log Date
 UWI .                                            : Unique Well ID
~Curve Information Block
#MNEM    .UNIT        API Codes     Curve Description
#--------.--------   LG--CV-CL--M   -------------------------------
 DEPT    .M          99 995 99  1 : Depth
 BIT     .in         70 282  1  1 : Bit size
 CHT     .lbf        99 635 99  1 : Cable head tension
 GR      .gAPI       30 310  1  1 : Gamma ray
 GRSL    .gAPI       30 310  1  1 : Gamma ray from 1329 spectrum
 K       .pct        31 719 99  1 : Potassium content
 KTH     .gAPI       31 995 99  1 : Stripped potassium-thorium
 M1R1    .ohm.m       8 120 10  1 : Vertical 1-foot resolution matched resistivity, 10-inch DOI
 M1R2    .ohm.m       8 120 20  1 : Vertical 1-foot resolution matched resistivity, 20-inch DOI
 M1R3    .ohm.m       8 120 30  1 : Vertical 1-foot resolution matched resistivity, 30-inch DOI
 M1R6    .ohm.m       8 120 60  1 : Vertical 1-foot resolution matched resistivity, 60-inch DOI
 M1R9    .ohm.m       8 120 90  1 : Vertical 1-foot resolution matched resistivity, 90-inch DOI
 M1RX    .ohm.m       8 120 90  1 : Vertical 1-foot resolution matched resistivity, 120-inch DOI
 QHDL    .lbf        99 995 99  1 : Quality for differential tension pulls for HDIL
 RTHK    .ppm/pct    31 995 99  1 : Ratio of thorium to potassium
 RTHU    .1          31 995 99  1 : Ratio of thorium to uranium
 RUK     .ppm/pct    31 995 99  1 : Ratio of uranium to potassium
 SPD     .m/min      99 636 99  1 : Speed
 TH      .ppm        31 790 99  1 : Thorium concentration
 TTEN    .lbf        99 635 99  1 : Total tension
 U       .ppm        31 792 99  1 : Uranium content
 WRM     .ohm.m      99 823 99  1 : Mud resistivity
 WTBH    .degC       99 995 99  1 : Temperature of borehole
~Parameter Information Block
#MNEM.UNIT                     Value                    Description
#----.----   ----------------------------------------   -------------------------------
 HIDE.       HIGH DEFINITION INDUCTION LOG            : Header Identifer
 HID1.       X-MULTIPOLE ARRAY ACOUSTILOG             : Header Identifer
 HID2.       GAMMA RAY LOG                            : Header Identifer
 CLAB.       RIG NAME                                 : County Label (Comments)
 SLAB.       COUNTRY                                  : State Label (Comments)
 STAT.       NETHERLANDS                              : State Or Province
 CMT1.       FINAL PRINT                              : Comment 1  
 CMT2.       SCALE 1:200/500                          : Comment 2  
 FL1 .       LON: 04 21'06.15"  E                     : Field Location 1
 OS1 .       ZDL/CN                                   : Other Services Line 1
 OS2 .       RCI                                      : Other Services Line 2
 OS3 .       BHP                                      : Other Services Line 3
 PDAT.       MSL                                      : Permanent Datum
 EPD .M      0                                        : Elevation Of Perm. Datum
 LMF .       DF                                       : Log Measured From
 APD .M      41.1                                     : Above Permanent Datum
 DMF .       DF                                       : Drilling Measured From
 EKB .M      41.1                                     : Elevation Of Kelly Bushing
 EDF .M      41.1                                     : Elevation Of Derrick Floor
 EGL .M      -42.0                                    : Elevation Of Ground Level
 TRIP.       5                                        : Trip Number
 SON .       13-168551                                : Service Order Number
 TDD .M      3491                                     : Total Depth - Driller
 BLI .M      3480                                     : Bottom Log Interval
 TLI .M      3296                                     : Top Log Interval
 CSIZ.IN     9.625                                    : Casing Size
 CBDR.M      3299                                     : Casing Bottom - Driller
 CBLO.M      3996.2                                   : Casing Bottom - Logger
 BS  .IN     8.375                                    : Bit Size
 DFT .       LTOBM                                    : Drilling Fluid Type
 DFD .G/C3   1.52                                     : Drilling Fluid Density
 DFV .S      25                                       : Drilling Fluid Viscosity
 DFL .M3     1.2                                      : Drilling Fluid Loss
 MSS .       FLOWLINE                                 : Mud Sample Source
 RMS .OHMM   >10                                      : Resistivity Of Mud Sample
 RMFS.OHMM   >10                                      : Resistivity Of Mud Filtrate Sample
 RMCS.OHMM   >10                                      : Resistivity Of Mud Cake Sample
 MFSS.       NA                                       : Mud Filtrate Sample Source
 MCSS.       NA                                       : Mud Cake Sample Source
 RMB .OHMM   >10                                      : Mud Resistivity At Bht
 TSC .       36 HRS                                   : Time Since Circulation
 MRT .DEGC   104                                      : Maximum Recorded Temperature
 LUN .       8934                                     : Logging Unit Number
 LUL .       DEN HELDER                               : Logging Unit Location
 ENGI.       A. WIEFKERS/H. V DIJKEN                  : Engineer's Name
 WITN.       P. GERRITSEN                             : Witness' Name
 TSTR.       HDIL/XMAC/GR                             : Title Service Mnemonic
 TSTG.       NA                                       : Title Service Mnemonic
 STUS.       FINAL                                    : Status
 LCNM.       BAKER ATLAS                              : Logging Company Name
 LCC .       150                                      : Logging Company Code
 OPMD.       OH.WIRE                                  : Operation Mode
 PANA.       A. WIEFKERS/H. V DIJKEN                  : Processing Analyst
 PCON.       BAKER ATLAS                              : Processing Contractor
 APIN.                                                : API Serial Number
~Other information
DEPTH AUDIT:                                                                    
- ALL DEPTHS ARE REFERENCED TO DRILL FLOOR.                                     
- TOOLS DEPLOYED BY DRILL PIPE USING BAKER ATLAS PCL EQUIPMENT WITH CONSTANT    
  TENSION DEVICE.                                                               
GENERAL:                                                                        
- LAST CIRCULATION ON 04-JUN-2013 AT 02:30 HRS.                                 
- MAXIMUM RECORDED TEMPERATURE FROM TTRM SUB IS 104 DEGC AT 3441 M              
- MAXIMUM RECORDED DEVIATION IS 32 DEG AT 3421 FROM ORIT SUB.                   
- TOOLSTRING RUN  A5 PCL/DSL/CN/ZDL/MREX/KNJT/ORIT/XMAC/WGI/HDIL/CENT           
- DSL AND WGI RECORDED SIMULTANEOUS BUT PRESENTED UNDER SEPARATE HEADINGS       
- ADDITIONAL MUD PROPERTIES: WHOLE MUD SALINITY = 26000 MG/L                    
                             CORRECTED SOLIDS = 28 %                            
                             YP = 22 LB/100FT2                                  
                             PV = 14 CP                                         
                             OIL/WATER RATIO 80/20                              
- RUNS A1-A2-A3-A4 WIRELINE RUN WITH DIFFERENT TOOL CONFIGURATIONS. UNABLE TO   
  REACH TD, HUD 3393 M. ONLY ON RUN A2 DATA RECORDED FROM 3393 UPTO THE CASING  
  SHOE. DATA NOT PRESENTED.                                                     
- DATA RECORDED IN DOWNWARDS DIRECTION. NO UP LOG DATA AVAILABLE DUE TO TOOL    
  FAILURE (PARTING OF 3218MB MANDREL).                                          
- TOOL DEPLOYMENT INTO OPEN HOLE WAS NOT SMOOTH, DATA RECORDED IN TWO FILES     
  DATA SPLICE AT 3360 M.                                                        
GR:                                                                             
- GAMARAY RECORDED IN SPECTRAL MODE, DSL DATA NOT PRESENTED.                    
- GAMMA RAY READING HIGH DUE TO FORMATION ACTIVATION FROM CN/ZDL TOOLS.         
CN:                                                                             
-RECORDED IN SAME PASS, DATA PRESENTED UNDER SEPERATE HEADER.                   
ZDL:                                                                            
-RECORDED IN SAME PASS, DATA PRESENTED UNDER SEPERATE HEADER.                   
MREX:                                                                           
- NO DATA RECORDED.                                                             
XMAC-F1:                                                                        
- XMAC-F1 WAS RUN CENTRALISED.                                                  
- XMAC-F1 RUN IN SUBSET 1: FULLWAVE MONOPOLE AND CROSS DIPOLE.                  
- DT24QI IS THE COMPRESSIONAL DT DERIVED FROM SURFACE PICKED FIRST ARRIVALS.    
  DTCQI IS THE WAVE AVAN PROCESSED COMPRESSIONAL DT DERIVED FROM THE FULLWAVE   
  MONOPOLE DATA.                                                                
  DTSQI IS THE WAVE AVAN PROCESSED SHEAR DT DERIVED FROM THE FULLWAVE MONOPOLE  
  DATA.                                                                         
  DTSTQI IS THE WAVE AVAN PROCESSED STONELY DT DERIVED FROM THE FULLWAVE        
  MONOPOLE DATA.                                                                
  DTXXQI AND DTYYQI ARE THE ESTIMATED DIRECTIONAL DT DERIVED FROM THE DIPOLE    
  FULLWAVE DATA USING WAVE AVAN PROCESSING.                                     
- TOTAL INTEGRATED TRAVEL TIME FROM LAST READING DT TO CASING SHOE: 50.4 MS.    
- TOOL STRING CENTRALIZATION OPTIMIZED FOR 8 3/8" HOLE.                         
WGI (6CAL):                                                                     
- CALIPER CURVE (CHADW) PRESENTED IS FROM WGI.                                  
- AT 3360 M CALIPER ARMS 2 AND 5 MOST LIKELY GOT DAMAGED                        
HDIL:                                                                           
- HDIL IS TEMPERATURE CORRECTED                                                 
- HDIL TOOL WAS RUN CENTRALISED.                                                
- PRESENTED ARE THE 1FT MATCHED RESOLUTION CURVES (M1R?)                        
- HDIL PROCESSING AND CENTRALIZATION OPTIMIZED FOR 8 3/8" HOLE .                
#  Curve Data
~A  DEPT        BIT         CHT         GR          GRSL        K           KTH         M1R1        M1R2        M1R3        M1R6        M1R9        M1RX        QHDL        RTHK        RTHU        RUK         SPD         TH          TTEN        U           WRM         WTBH      
# ...
   3366.0000      8.3750    804.6171     73.8330     73.6985      1.9638     49.3216      1.4286      1.1895      1.0810      1.0246      0.9877      0.9728      0.0000      3.4757      1.8918      1.8412      9.6215      6.8227   5630.4995      3.6121   1231.0575     95.2707
   3366.1250      8.3750    803.3985     69.2424     69.1596      2.0805     48.8099      1.8284      1.4941      1.3352      1.2559      1.2022      1.1845      0.0000      3.2321      2.1358      1.5144      9.6187      6.7237   5608.9063      3.1497   1293.9828     95.3540
   3366.2500      8.3750    797.9305     71.0347     70.8927      2.1796     51.6970      2.2954      1.8701      1.6480      1.5407      1.4667      1.4481      0.0000      3.1895      2.3770      1.3444      9.5995      6.9517   5611.1475      2.9278   1348.4083     95.4407
   3366.3750      8.3750    791.0230     76.7626     76.4627      2.3340     58.2485      2.1504      1.8495      1.6551      1.5601      1.4931      1.4825      0.0000      3.2199      2.8407      1.1352      9.5643      7.5159   5665.5986      2.6483   1365.0735     95.4804
   3366.5000      8.3750    797.0738     82.3783     81.9345      2.4574     64.6240      1.8144      1.6505      1.5143      1.4459      1.3984      1.3979      0.0000      3.3405      3.3972      0.9845      9.5184      8.2097   5769.9512      2.4185   1355.6418     95.4521
   3366.6250      8.3750    826.4890     84.9923     84.5810      2.4680     67.3222      1.7290      1.6145      1.5006      1.4437      1.4082      1.4172      0.0000      3.5305      3.6767      0.9602      9.4690      8.7126   5862.2354      2.3696   1340.3887     95.4063
   3366.7500      8.3750    868.0331     84.2279     84.0405      2.4240     66.9297      1.7545      1.6502      1.5428      1.4911      1.4665      1.4867      0.0000      3.7528      3.8327      0.9791      9.4204      9.0966   5889.6016      2.3734   1330.5479     95.3899
   3366.8750      8.3750    899.9254     81.2065     81.2711      2.3622     64.6468      1.7448      1.6213      1.5210      1.4761      1.4651      1.4952      0.0000      4.0286      3.9809      1.0119      9.3849      9.5152   5835.9883      2.3902   1332.2734     95.3903
   3367.0000      8.3750    906.3152     79.0093     79.1582      2.3064     62.8300      1.6498      1.4934      1.4048      1.3689      1.3701      1.4051      0.0000      4.2857      4.0895      1.0479      9.3763      9.8837   5754.0908      2.4169   1350.1411     95.3677
   3367.1250      8.3750    885.3019     79.7726     79.8511      2.3002     64.0614      1.4358      1.2665      1.1951      1.1697      1.1779      1.2104      0.0000      4.5301      4.4554      1.0168      9.3868     10.4202   5684.7920      2.3388   1380.8484     95.3262
   3367.2500      8.3750    846.8549     85.4197     85.4250      2.3993     70.9201      1.2544      1.0818      1.0210      1.0021      1.0125      1.0416      0.0000      4.9137      5.6363      0.8746      9.3819     11.7941   5653.8696      2.0970   1403.7789     95.2912
   3367.3750      8.3750    811.5982     93.4408     93.4707      2.4878     78.6206      1.1944      0.9992      0.9381      0.9219      0.9341      0.9635      0.0000      5.4125      6.4270      0.8423      9.3433     13.4666   5650.6963      2.0957   1402.6670     95.2606
   3367.5000      8.3750    793.5070    100.1199    100.2150      2.4878     82.6305      1.2311      0.9899      0.9203      0.9046      0.9190      0.9517      0.0000      5.8299      5.9354      0.9829      9.2921     14.5033   5659.0732      2.4452   1380.2351     95.2300
   3367.6250      8.3750    792.0341    102.7987    102.9039      2.4271     82.5165      1.3342      1.0225      0.9386      0.9227      0.9399      0.9781      0.0000      6.0401      5.2076      1.1613      9.2741     14.6590   5662.2300      2.8177   1358.4143     95.2250
   3367.7500      8.3750    792.6537    102.0810    102.1239      2.3648     80.2921      1.4116      1.0399      0.9451      0.9298      0.9493      0.9914      0.0000      6.1673      4.7791      1.2913      9.3000     14.5835   5658.5234      3.0529   1350.4872     95.2503
   3367.8750      8.3750    789.2986     99.6703     99.6100      2.2745     76.4127      1.4145      1.0220      0.9247      0.9114      0.9315      0.9744      0.0000      6.3357      4.3388      1.4612      9.3567     14.4092   5650.3911      3.3225   1351.5667     95.2810
   3368.0000      8.3750    783.8839     97.5379     97.3835      2.1710     73.0348      1.4171      1.0127      0.9144      0.9031      0.9242      0.9677      0.0000      6.5564      4.0179      1.6326      9.4159     14.2317   5642.8857      3.5429   1352.8678     95.3132
   3368.1250      8.3750    779.0681     95.4059     95.1905      2.0833     70.8735      1.4248      1.0141      0.9153      0.9060      0.9283      0.9729      0.0000      6.7688      3.9659      1.7071      9.4669     14.1009   5639.5273      3.5566   1352.7329     95.3417
   3368.2500      8.3750    777.2673     91.6645     91.4662      2.0486     70.1386      1.4251      1.0189      0.9210      0.9137      0.9373      0.9829      0.0000      6.9136      4.5296      1.5295      9.5146     14.1628   5645.1230      3.1336   1350.8304     95.3423
   3368.3750      8.3750    784.2805     85.7641     85.6378      2.0658     69.1690      1.4297      1.0304      0.9335      0.9281      0.9532      0.9998      0.0000      6.9401      5.8261      1.1997      9.5664     14.3366   5658.5757      2.4773   1344.9675     95.3168
   3368.5000      8.3750    801.3238     80.4947     80.4414      2.1104     67.9872      1.4417      1.0481      0.9516      0.9478      0.9747      1.0224      0.0000      6.8705      7.4822      0.9186      9.6095     14.4994   5672.2197      1.9385   1336.6780     95.2983
   3368.6250      8.3750    817.3525     80.6431     80.5881      2.1854     69.9725      1.4181      1.0470      0.9541      0.9515      0.9791      1.0259      0.0000      6.7210      8.9558      0.7530      9.6247     14.6864   5677.7861      1.6442   1331.7615     95.3163
   3368.7500      8.3750    818.2723     85.2772     85.1187      2.3278     76.4355      1.3313      1.0077      0.9240      0.9221      0.9481      0.9904      0.0000      6.4892     11.8133      0.5550      9.6234     15.1024   5675.6582      1.2893   1334.6530     95.3261
   3368.8750      8.3750    805.3412     90.7511     90.4444      2.4872     83.7950      1.2440      0.9626      0.8876      0.8856      0.9093      0.9465      0.0000      6.2538     16.5105      0.3795      9.6261     15.5541   5665.9795      0.9435   1347.3701     95.2931
   3369.0000      8.3750    791.5574     93.1764     92.7758      2.5688     86.9829      1.2206      0.9504      0.8775      0.8743      0.8966      0.9310      0.0000      6.1239     19.4392      0.3151      9.6355     15.7308   5648.0513      0.8093   1370.1083     95.2403
   3369.1250      8.3750    785.3906     91.7466     91.3660      2.5658     84.9814      1.2004      0.9364      0.8647      0.8594      0.8797      0.9108      0.0000      6.0525     17.2069      0.3538      9.6340     15.5299   5629.6113      0.9074   1398.0702     95.2115
   3369.2500      8.3750    785.4832     87.5674     87.3164      2.4929     78.8396      1.1458      0.8979      0.8297      0.8222      0.8389      0.8652      0.0000      5.9333     11.9127      0.5015      9.6139     14.7916   5621.7070      1.2495   1418.3030     95.2243
   3369.3750      8.3750    789.6454     82.8414     82.7529      2.3787     71.0973      1.1039      0.8648      0.7984      0.7883      0.8014      0.8233      0.0000      5.6619      7.6649      0.7488      9.5872     13.4712   5642.0244      1.7784   1415.7102     95.2625
   3369.5000      8.3750    801.5803     79.2768     79.3092      2.2932     65.0213      1.0699      0.8359      0.7700      0.7575      0.7671      0.7850      0.0000      5.2951      5.4625      0.9706      9.5578     12.1434   5703.7817      2.2256   1397.0103     95.3008
