~Version Information
 VERS.                2.00:   CWLS log ASCII Standard -VERSION 2.00
 WRAP.                  NO:   One line per frame      
~Well Information Block
#MNEM.UNIT                   Data                   Description
#----.----   ------------------------------------   -------------------------------
 STRT.M                                 3253.6250 : Starting Depth
 STOP.M                                 3396.1250 : Ending Depth
 STEP.M                                    0.1250 : Level Spacing
 NULL.                                  -999.2500 : Absent Value
 COMP.       GDF SUEZ                             : Company
 WELL.       L5-13                                : Well
 FLD .       L5 OIL                               : Field
 LOC .       LAT: 53 48'40.57" N                  : Location
 PROV.       NOBLE PIET V EDE                     : Province
 SRVC.       Baker Atlas                          : Service Company
 LIC .                                            : License Number
 DATE.       3-JUN-2012                           : Log Date
 UWI .                                            : Unique Well ID
~Curve Information Block
#MNEM    .UNIT        API Codes     Curve Description
#--------.--------   LG--CV-CL--M   -------------------------------
 DEPT    .M          99 995 99  1 : Depth
 BIT     .in         70 282  1  1 : Bit size
 CHT     .lbf        99 635 99  1 : Cable head tension
 GR      .gAPI       30 310  1  1 : Gamma ray
 GRSL    .gAPI       30 310  1  1 : Gamma ray from 1329 spectrum
 K       .pct        31 719 99  1 : Potassium content
 KTH     .gAPI       31 995 99  1 : Stripped potassium-thorium
 M1R1    .ohm.m       8 120 10  1 : Vertical 1-foot resolution matched resistivity, 10-inch DOI
 M1R2    .ohm.m       8 120 20  1 : Vertical 1-foot resolution matched resistivity, 20-inch DOI
 M1R3    .ohm.m       8 120 30  1 : Vertical 1-foot resolution matched resistivity, 30-inch DOI
 M1R6    .ohm.m       8 120 60  1 : Vertical 1-foot resolution matched resistivity, 60-inch DOI
 M1R9    .ohm.m       8 120 90  1 : Vertical 1-foot resolution matched resistivity, 90-inch DOI
 M1RX    .ohm.m       8 120 90  1 : Vertical 1-foot resolution matched resistivity, 120-inch DOI
 QHDL    .lbf        99 995 99  1 : Quality for differential tension pulls for HDIL
 RTHK    .ppm/pct    31 995 99  1 : Ratio of thorium to potassium
 RTHU    .1          31 995 99  1 : Ratio of thorium to uranium
 RUK     .ppm/pct    31 995 99  1 : Ratio of uranium to potassium
 SPD     .m/min      99 636 99  1 : Speed
 TH      .ppm        31 790 99  1 : Thorium concentration
 TTEN    .lbf        99 635 99  1 : Total tension
 U       .ppm        31 792 99  1 : Uranium content
 WRM     .ohm.m      99 823 99  1 : Mud resistivity
 WTBH    .degC       99 995 99  1 : Temperature of borehole
~Parameter Information Block
#MNEM.UNIT                     Value                    Description
#----.----   ----------------------------------------   -------------------------------
 HIDE.       HIGH DEFINITION INDUCTION LOG            : Header Identifer
 HID1.       X-MULTIPOLE ARRAY ACOUSTILOG             : Header Identifer
 HID2.       GAMMA RAY LOG                            : Header Identifer
 CLAB.       RIG NAME                                 : County Label (Comments)
 SLAB.       COUNTRY                                  : State Label (Comments)
 STAT.       NETHERLANDS                              : State Or Province
 CMT1.       FINAL PRINT                              : Comment 1  
 CMT2.       SCALE 1:200/500                          : Comment 2  
 FL1 .       LON: 04 21'06.15"  E                     : Field Location 1
 OS1 .       ZDL/CN                                   : Other Services Line 1
 OS2 .       RCI                                      : Other Services Line 2
 OS3 .       BHP                                      : Other Services Line 3
 PDAT.       MSL                                      : Permanent Datum
 EPD .M      0                                        : Elevation Of Perm. Datum
 LMF .       DF                                       : Log Measured From
 APD .M      41.1                                     : Above Permanent Datum
 DMF .       DF                                       : Drilling Measured From
 EKB .M      41.1                                     : Elevation Of Kelly Bushing
 EDF .M      41.1                                     : Elevation Of Derrick Floor
 EGL .M      -42.0                                    : Elevation Of Ground Level
 TRIP.       5                                        : Trip Number
 SON .       13-168551                                : Service Order Number
 TDD .M      3491                                     : Total Depth - Driller
 BLI .M      3480                                     : Bottom Log Interval
 TLI .M      3296                                     : Top Log Interval
 CSIZ.IN     9.625                                    : Casing Size
 CBDR.M      3299                                     : Casing Bottom - Driller
 CBLO.M      3996.2                                   : Casing Bottom - Logger
 BS  .IN     8.375                                    : Bit Size
 DFT .       LTOBM                                    : Drilling Fluid Type
 DFD .G/C3   1.52                                     : Drilling Fluid Density
 DFV .S      25                                       : Drilling Fluid Viscosity
 DFL .M3     1.2                                      : Drilling Fluid Loss
 MSS .       FLOWLINE                                 : Mud Sample Source
 RMS .OHMM   >10                                      : Resistivity Of Mud Sample
 RMFS.OHMM   >10                                      : Resistivity Of Mud Filtrate Sample
 RMCS.OHMM   >10                                      : Resistivity Of Mud Cake Sample
 MFSS.       NA                                       : Mud Filtrate Sample Source
 MCSS.       NA                                       : Mud Cake Sample Source
 RMB .OHMM   >10                                      : Mud Resistivity At Bht
 TSC .       36 HRS                                   : Time Since Circulation
 MRT .DEGC   104                                      : Maximum Recorded Temperature
 LUN .       8934                                     : Logging Unit Number
 LUL .       DEN HELDER                               : Logging Unit Location
 ENGI.       A. WIEFKERS/H. V DIJKEN                  : Engineer's Name
 WITN.       P. GERRITSEN                             : Witness' Name
 TSTR.       HDIL/XMAC/GR                             : Title Service Mnemonic
 TSTG.       NA                                       : Title Service Mnemonic
 STUS.       FINAL                                    : Status
 LCNM.       BAKER ATLAS                              : Logging Company Name
 LCC .       150                                      : Logging Company Code
 OPMD.       OH.WIRE                                  : Operation Mode
 PANA.       A. WIEFKERS/H. V DIJKEN                  : Processing Analyst
 PCON.       BAKER ATLAS                              : Processing Contractor
 APIN.                                                : API Serial Number
~Other information
DEPTH AUDIT:                                                                    
- ALL DEPTHS ARE REFERENCED TO DRILL FLOOR.                                     
- TOOLS DEPLOYED BY DRILL PIPE USING BAKER ATLAS PCL EQUIPMENT WITH CONSTANT    
  TENSION DEVICE.                                                               
GENERAL:                                                                        
- LAST CIRCULATION ON 04-JUN-2013 AT 02:30 HRS.                                 
- MAXIMUM RECORDED TEMPERATURE FROM TTRM SUB IS 104 DEGC AT 3441 M              
- MAXIMUM RECORDED DEVIATION IS 32 DEG AT 3421 FROM ORIT SUB.                   
- TOOLSTRING RUN  A5 PCL/DSL/CN/ZDL/MREX/KNJT/ORIT/XMAC/WGI/HDIL/CENT           
- DSL AND WGI RECORDED SIMULTANEOUS BUT PRESENTED UNDER SEPARATE HEADINGS       
- ADDITIONAL MUD PROPERTIES: WHOLE MUD SALINITY = 26000 MG/L                    
                             CORRECTED SOLIDS = 28 %                            
                             YP = 22 LB/100FT2                                  
                             PV = 14 CP                                         
                             OIL/WATER RATIO 80/20                              
- RUNS A1-A2-A3-A4 WIRELINE RUN WITH DIFFERENT TOOL CONFIGURATIONS. UNABLE TO   
  REACH TD, HUD 3393 M. ONLY ON RUN A2 DATA RECORDED FROM 3393 UPTO THE CASING  
  SHOE. DATA NOT PRESENTED.                                                     
- DATA RECORDED IN DOWNWARDS DIRECTION. NO UP LOG DATA AVAILABLE DUE TO TOOL    
  FAILURE (PARTING OF 3218MB MANDREL).                                          
- TOOL DEPLOYMENT INTO OPEN HOLE WAS NOT SMOOTH, DATA RECORDED IN TWO FILES     
  DATA SPLICE AT 3360 M.                                                        
GR:                                                                             
- GAMARAY RECORDED IN SPECTRAL MODE, DSL DATA NOT PRESENTED.                    
- GAMMA RAY READING HIGH DUE TO FORMATION ACTIVATION FROM CN/ZDL TOOLS.         
CN:                                                                             
-RECORDED IN SAME PASS, DATA PRESENTED UNDER SEPERATE HEADER.                   
ZDL:                                                                            
-RECORDED IN SAME PASS, DATA PRESENTED UNDER SEPERATE HEADER.                   
MREX:                                                                           
- NO DATA RECORDED.                                                             
XMAC-F1:                                                                        
- XMAC-F1 WAS RUN CENTRALISED.                                                  
- XMAC-F1 RUN IN SUBSET 1: FULLWAVE MONOPOLE AND CROSS DIPOLE.                  
- DT24QI IS THE COMPRESSIONAL DT DERIVED FROM SURFACE PICKED FIRST ARRIVALS.    
  DTCQI IS THE WAVE AVAN PROCESSED COMPRESSIONAL DT DERIVED FROM THE FULLWAVE   
  MONOPOLE DATA.                                                                
  DTSQI IS THE WAVE AVAN PROCESSED SHEAR DT DERIVED FROM THE FULLWAVE MONOPOLE  
  DATA.                                                                         
  DTSTQI IS THE WAVE AVAN PROCESSED STONELY DT DERIVED FROM THE FULLWAVE        
  MONOPOLE DATA.                                                                
  DTXXQI AND DTYYQI ARE THE ESTIMATED DIRECTIONAL DT DERIVED FROM THE DIPOLE    
  FULLWAVE DATA USING WAVE AVAN PROCESSING.                                     
- TOTAL INTEGRATED TRAVEL TIME FROM LAST READING DT TO CASING SHOE: 50.4 MS.    
- TOOL STRING CENTRALIZATION OPTIMIZED FOR 8 3/8" HOLE.                         
WGI (6CAL):                                                                     
- CALIPER CURVE (CHADW) PRESENTED IS FROM WGI.                                  
- AT 3360 M CALIPER ARMS 2 AND 5 MOST LIKELY GOT DAMAGED                        
HDIL:                                                                           
- HDIL IS TEMPERATURE CORRECTED                                                 
- HDIL TOOL WAS RUN CENTRALISED.                                                
- PRESENTED ARE THE 1FT MATCHED RESOLUTION CURVES (M1R?)                        
- HDIL PROCESSING AND CENTRALIZATION OPTIMIZED FOR 8 3/8" HOLE .                
#  Curve Data
~A  DEPT        BIT         CHT         GR          GRSL        K           KTH         M1R1        M1R2        M1R3        M1R6        M1R9        M1RX        QHDL        RTHK        RTHU        RUK         SPD         TH          TTEN        U           WRM         WTBH      
# ...
   3279.0000      8.3750    810.8636     45.2744     45.3322      0.8680     32.4115      0.0491      0.1872      3.7879   1987.8062   1983.0160   1991.6003      0.0000      7.1236      3.5101      2.0379     14.0033      6.1830   5588.6685      1.7688   1347.2637     95.8842
   3279.1250      8.3750    812.8442     44.4478     44.5138      0.8847     34.1122      0.0507      0.1955      4.8471   1992.3811   1993.8375   1995.8103      0.0000      7.6200      4.7387      1.6164     13.9667      6.7421   5594.3989      1.4292   1359.1429     95.8057
   3279.2500      8.3750    809.8138     42.7499     42.8690      0.9365     35.3773      0.0522      0.2029      6.5116   1994.5146   1996.2371   1998.0304      0.0000      7.7255      6.8934      1.1319     13.9560      7.2346   5583.7114      1.0581   1379.5018     95.7259
   3279.3750      8.3750    804.7462     41.9400     42.0770      1.0112     36.7989      0.0536      0.2085      7.9643   1994.4298   1996.2178   1998.0388      0.0000      7.4206      9.9943      0.7510     14.0008      7.5006   5560.8306      0.7574   1384.8507     95.7260
   3279.5000      8.3750    802.3017     42.2184     42.2773      1.0949     38.2576      0.0549      0.2137      8.9018   1993.6609   1995.5000   1997.3676      0.0000      6.8461     13.0248      0.5261     14.0606      7.4943   5541.4966      0.5757   1369.2734     95.7746
   3279.6250      8.3750    806.0938     42.4964     42.4369      1.1911     38.9915      0.0566      0.2196      8.8845   1993.5282   1995.4197   1997.3367      0.0000      6.0995     14.6210      0.4175     14.0880      7.2589   5536.3057      0.4967   1353.8793     95.7782
   3279.7500      8.3750    812.5564     42.7881     42.7433      1.2954     39.2376      0.0585      0.2261      8.1351   1994.0688   1996.0144   1997.9828      0.0000      5.2890     13.4376      0.3940     14.0929      6.8438   5538.2871      0.5105   1361.2998     95.7262
   3279.8750      8.3750    816.1832     43.9150     43.9773      1.4025     39.7865      0.0605      0.2328      7.4086   1994.6951   1996.6958   1998.7178      0.0000      4.4887     10.3746      0.4328     14.0950      6.2945   5539.9331      0.6070   1383.2178     95.6781
   3280.0000      8.3750    812.7048     45.7799     45.8529      1.4941     40.7237      0.0623      0.2384      6.6880   1994.4819   1996.5376   1998.6140      0.0000      3.8466      7.9246      0.4864     14.0888      5.7433   5539.7495      0.7270   1391.4724     95.6842
   3280.1250      8.3750    806.0337     46.9635     46.9539      1.5556     41.3230      0.0639      0.2432      6.2022   1993.6338   1995.7433   1997.8754      0.0000      3.4694      6.8400      0.5072     14.0708      5.3964   5546.5015      0.7890   1378.1683     95.7201
   3280.2500      8.3750    801.0851     46.6684     46.6400      1.5881     41.1930      0.0655      0.2479      5.9221   1992.6763   1994.8401   1997.0288      0.0000      3.3322      6.8669      0.4853     14.0537      5.2919   5563.0381      0.7707   1356.3014     95.7706
   3280.3750      8.3750    801.1313     45.3084     45.3745      1.5940     40.7985      0.0672      0.2533      5.8308   1992.2849   1994.5045   1996.7538      0.0000      3.4118      8.2710      0.4148     14.0456      5.4382   5580.2734      0.6612   1343.5535     95.8156
   3280.5000      8.3750    804.2354     43.5182     43.6702      1.5650     40.3972      0.0692      0.2597      5.9476   1992.6238   1994.9025   1997.2169      0.0000      3.6988     12.1236      0.3083     14.0428      5.7870   5587.5278      0.4828   1342.3103     95.8257
   3280.6250      8.3750    807.9244     41.4409     41.5735      1.4832     39.3160      0.0714      0.2664      6.2340   1993.4344   1995.7775   1998.1615      0.0000      4.1801     18.3292      0.2290     14.0438      6.1971   5581.3174      0.3399   1350.7795     95.7962
   3280.7500      8.3750    810.4827     39.3319     39.4104      1.3562     36.8374      0.0736      0.2722      6.7601   1994.0776   1996.4905   1998.9489      0.0000      4.7295     16.3271      0.2951     14.0353      6.4071   5569.9463      0.3983   1362.6230     95.7852
   3280.8750      8.3750    810.1573     37.6769     37.7281      1.2242     33.9144      0.0754      0.2765      7.5300   1993.9900   1996.4791   1999.0143      0.0000      5.2571     10.6656      0.4958     14.0005      6.4343   5560.2988      0.6061   1368.5063     95.8251
   3281.0000      8.3750    803.4253     36.9002     36.9663      1.1224     31.7504      0.0766      0.2793      8.5644   1992.8264   1995.4003   1998.0109      0.0000      5.6872      7.6255      0.7514     13.9503      6.3804   5545.8042      0.8417   1360.5316     95.8877
   3281.1250      8.3750    792.6768     37.0892     37.1632      1.0308     30.4016      0.0776      0.2824      9.6228   1991.3253   1993.4054   1996.1844      0.0000      6.1732      5.8792      1.0589     13.9314      6.3575   5524.1641      1.0880   1349.5918     95.9110
   3281.2500      8.3750    783.8661     38.4622     38.5101      0.9188     29.4708      0.0791      0.2884      9.9285   1988.5641   1986.3419   1991.1843      0.0000      6.9804      4.5035      1.5512     13.9537      6.4123   5505.8174      1.4245   1347.4861     95.8999
   3281.3750      8.3750    781.7914     41.4026     41.4126      0.8092     29.5321      0.0819      0.2987      8.6880   1981.8499   1993.9843   1997.2201      0.0000      8.1502      3.6942      2.2155     13.9693      6.5858   5503.9937      1.7875   1354.2675     95.8714
   3281.5000      8.3750    787.0840     44.4934     44.4805      0.7512     30.2832      0.0858      0.3097      6.6823   1454.4415   1591.2621   1784.3406      0.0000      8.9364      3.2891      2.7187     13.9428      6.7126   5516.5767      2.0418   1364.8597     95.8392
   3281.6250      8.3750    801.3440     46.0523     46.0419      0.7484     30.5716      0.0895      0.3146      4.8402     88.5028    148.6892    264.3582      0.0000      8.8712      3.0362      2.9221     13.8963      6.6388   5537.4199      2.1868   1375.2166     95.8211
   3281.7500      8.3750    822.7654     45.5416     45.5699      0.7671     29.3785      0.0904      0.3052      3.5553     21.3228     25.8493     34.9979      0.0000      8.2288      2.7009      3.0480     13.8732      6.3104   5555.6665      2.3383   1377.4994     95.8374
   3281.8750      8.3750    843.3722     44.8227     44.9091      0.7985     27.9977      0.0876      0.2847      2.6969     10.0410     10.2352     11.5225      0.0000      7.3100      2.3365      3.1290     13.8679      5.8342   5568.4800      2.4985   1371.2422     95.8643
   3282.0000      8.3750    857.6950     44.9940     45.1536      0.8431     27.3215      0.0823      0.2617      2.1983      6.6169      6.4122      6.6073      0.0000      6.2690      2.0072      3.1230     13.8587      5.2835   5577.8525      2.6331   1364.7587     95.8636
   3282.1250      8.3750    867.3358     45.4277     45.5796      0.8965     27.1880      0.0771      0.2464      1.9977      5.4792      5.2657      5.3540      0.0000      5.3639      1.7844      3.0046     13.8500      4.8047   5588.0283      2.6928   1367.7485     95.8429
   3282.2500      8.3750    874.0609     45.1010     45.1334      0.9573     27.1482      0.0735      0.2419      2.0371      5.5027      5.3316      5.5358      0.0000      4.6782      1.6887      2.7708     13.8575      4.4768   5600.3818      2.6513   1369.8156     95.8532
   3282.3750      8.3750    873.1008     44.2065     44.1082      1.0301     27.8887      0.0721      0.2486      2.3379      6.7002      6.6666      7.5155      0.0000      4.3265      1.8397      2.3558     13.8745      4.4557   5610.5723      2.4245   1355.2529     95.9030
   3282.5000      8.3750    864.1829     43.3446     43.2289      1.1117     30.0664      0.0723      0.2624      2.9357      9.7433     10.4815     13.6101      0.0000      4.3906      2.4899      1.7870     13.8743      4.8833   5612.0146      1.9820   1331.8644     95.9472
