~Version Information
 VERS.                2.00:   CWLS log ASCII Standard -VERSION 2.00
 WRAP.                  NO:   One line per frame      
~Well Information Block
#MNEM.UNIT                   Data                   Description
#----.----   ------------------------------------   -------------------------------
 STRT.M                                 3253.6250 : Starting Depth
 STOP.M                                 3396.1250 : Ending Depth
 STEP.M                                    0.1250 : Level Spacing
 NULL.                                  -999.2500 : Absent Value
 COMP.       GDF SUEZ                             : Company
 WELL.       L5-13                                : Well
 FLD .       L5 OIL                               : Field
 LOC .       LAT: 53 48'40.57" N                  : Location
 PROV.       NOBLE PIET V EDE                     : Province
 SRVC.       Baker Atlas                          : Service Company
 LIC .                                            : License Number
 DATE.       3-JUN-2012                           : Log Date
 UWI .                                            : Unique Well ID
~Curve Information Block
#MNEM    .UNIT        API Codes     Curve Description
#--------.--------   LG--CV-CL--M   -------------------------------
 DEPT    .M          99 995 99  1 : Depth
 BIT     .in         70 282  1  1 : Bit size
 CHT     .lbf        99 635 99  1 : Cable head tension
 GR      .gAPI       30 310  1  1 : Gamma ray
 GRSL    .gAPI       30 310  1  1 : Gamma ray from 1329 spectrum
 K       .pct        31 719 99  1 : Potassium content
 KTH     .gAPI       31 995 99  1 : Stripped potassium-thorium
 M1R1    .ohm.m       8 120 10  1 : Vertical 1-foot resolution matched resistivity, 10-inch DOI
 M1R2    .ohm.m       8 120 20  1 : Vertical 1-foot resolution matched resistivity, 20-inch DOI
 M1R3    .ohm.m       8 120 30  1 : Vertical 1-foot resolution matched resistivity, 30-inch DOI
 M1R6    .ohm.m       8 120 60  1 : Vertical 1-foot resolution matched resistivity, 60-inch DOI
 M1R9    .ohm.m       8 120 90  1 : Vertical 1-foot resolution matched resistivity, 90-inch DOI
 M1RX    .ohm.m       8 120 90  1 : Vertical 1-foot resolution matched resistivity, 120-inch DOI
 QHDL    .lbf        99 995 99  1 : Quality for differential tension pulls for HDIL
 RTHK    .ppm/pct    31 995 99  1 : Ratio of thorium to potassium
 RTHU    .1          31 995 99  1 : Ratio of thorium to uranium
 RUK     .ppm/pct    31 995 99  1 : Ratio of uranium to potassium
 SPD     .m/min      99 636 99  1 : Speed
 TH      .ppm        31 790 99  1 : Thorium concentration
 TTEN    .lbf        99 635 99  1 : Total tension
 U       .ppm        31 792 99  1 : Uranium content
 WRM     .ohm.m      99 823 99  1 : Mud resistivity
 WTBH    .degC       99 995 99  1 : Temperature of borehole
~Parameter Information Block
#MNEM.UNIT                     Value                    Description
#----.----   ----------------------------------------   -------------------------------
 HIDE.       HIGH DEFINITION INDUCTION LOG            : Header Identifer
 HID1.       X-MULTIPOLE ARRAY ACOUSTILOG             : Header Identifer
 HID2.       GAMMA RAY LOG                            : Header Identifer
 CLAB.       RIG NAME                                 : County Label (Comments)
 SLAB.       COUNTRY                                  : State Label (Comments)
 STAT.       NETHERLANDS                              : State Or Province
 CMT1.       FINAL PRINT                              : Comment 1  
 CMT2.       SCALE 1:200/500                          : Comment 2  
 FL1 .       LON: 04 21'06.15"  E                     : Field Location 1
 OS1 .       ZDL/CN                                   : Other Services Line 1
 OS2 .       RCI                                      : Other Services Line 2
 OS3 .       BHP                                      : Other Services Line 3
 PDAT.       MSL                                      : Permanent Datum
 EPD .M      0                                        : Elevation Of Perm. Datum
 LMF .       DF                                       : Log Measured From
 APD .M      41.1                                     : Above Permanent Datum
 DMF .       DF                                       : Drilling Measured From
 EKB .M      41.1                                     : Elevation Of Kelly Bushing
 EDF .M      41.1                                     : Elevation Of Derrick Floor
 EGL .M      -42.0                                    : Elevation Of Ground Level
 TRIP.       5                                        : Trip Number
 SON .       13-168551                                : Service Order Number
 TDD .M      3491                                     : Total Depth - Driller
 BLI .M      3480                                     : Bottom Log Interval
 TLI .M      3296                                     : Top Log Interval
 CSIZ.IN     9.625                                    : Casing Size
 CBDR.M      3299                                     : Casing Bottom - Driller
 CBLO.M      3996.2                                   : Casing Bottom - Logger
 BS  .IN     8.375                                    : Bit Size
 DFT .       LTOBM                                    : Drilling Fluid Type
 DFD .G/C3   1.52                                     : Drilling Fluid Density
 DFV .S      25                                       : Drilling Fluid Viscosity
 DFL .M3     1.2                                      : Drilling Fluid Loss
 MSS .       FLOWLINE                                 : Mud Sample Source
 RMS .OHMM   >10                                      : Resistivity Of Mud Sample
 RMFS.OHMM   >10                                      : Resistivity Of Mud Filtrate Sample
 RMCS.OHMM   >10                                      : Resistivity Of Mud Cake Sample
 MFSS.       NA                                       : Mud Filtrate Sample Source
 MCSS.       NA                                       : Mud Cake Sample Source
 RMB .OHMM   >10                                      : Mud Resistivity At Bht
 TSC .       36 HRS                                   : Time Since Circulation
 MRT .DEGC   104                                      : Maximum Recorded Temperature
 LUN .       8934                                     : Logging Unit Number
 LUL .       DEN HELDER                               : Logging Unit Location
 ENGI.       A. WIEFKERS/H. V DIJKEN                  : Engineer's Name
 WITN.       P. GERRITSEN                             : Witness' Name
 TSTR.       HDIL/XMAC/GR                             : Title Service Mnemonic
 TSTG.       NA                                       : Title Service Mnemonic
 STUS.       FINAL                                    : Status
 LCNM.       BAKER ATLAS                              : Logging Company Name
 LCC .       150                                      : Logging Company Code
 OPMD.       OH.WIRE                                  : Operation Mode
 PANA.       A. WIEFKERS/H. V DIJKEN                  : Processing Analyst
 PCON.       BAKER ATLAS                              : Processing Contractor
 APIN.                                                : API Serial Number
~Other information
DEPTH AUDIT:                                                                    
- ALL DEPTHS ARE REFERENCED TO DRILL FLOOR.                                     
- TOOLS DEPLOYED BY DRILL PIPE USING BAKER ATLAS PCL EQUIPMENT WITH CONSTANT    
  TENSION DEVICE.                                                               
GENERAL:                                                                        
- LAST CIRCULATION ON 04-JUN-2013 AT 02:30 HRS.                                 
- MAXIMUM RECORDED TEMPERATURE FROM TTRM SUB IS 104 DEGC AT 3441 M              
- MAXIMUM RECORDED DEVIATION IS 32 DEG AT 3421 FROM ORIT SUB.                   
- TOOLSTRING RUN  A5 PCL/DSL/CN/ZDL/MREX/KNJT/ORIT/XMAC/WGI/HDIL/CENT           
- DSL AND WGI RECORDED SIMULTANEOUS BUT PRESENTED UNDER SEPARATE HEADINGS       
- ADDITIONAL MUD PROPERTIES: WHOLE MUD SALINITY = 26000 MG/L                    
                             CORRECTED SOLIDS = 28 %                            
                             YP = 22 LB/100FT2                                  
                             PV = 14 CP                                         
                             OIL/WATER RATIO 80/20                              
- RUNS A1-A2-A3-A4 WIRELINE RUN WITH DIFFERENT TOOL CONFIGURATIONS. UNABLE TO   
  REACH TD, HUD 3393 M. ONLY ON RUN A2 DATA RECORDED FROM 3393 UPTO THE CASING  
  SHOE. DATA NOT PRESENTED.                                                     
- DATA RECORDED IN DOWNWARDS DIRECTION. NO UP LOG DATA AVAILABLE DUE TO TOOL    
  FAILURE (PARTING OF 3218MB MANDREL).                                          
- TOOL DEPLOYMENT INTO OPEN HOLE WAS NOT SMOOTH, DATA RECORDED IN TWO FILES     
  DATA SPLICE AT 3360 M.                                                        
GR:                                                                             
- GAMARAY RECORDED IN SPECTRAL MODE, DSL DATA NOT PRESENTED.                    
- GAMMA RAY READING HIGH DUE TO FORMATION ACTIVATION FROM CN/ZDL TOOLS.         
CN:                                                                             
-RECORDED IN SAME PASS, DATA PRESENTED UNDER SEPERATE HEADER.                   
ZDL:                                                                            
-RECORDED IN SAME PASS, DATA PRESENTED UNDER SEPERATE HEADER.                   
MREX:                                                                           
- NO DATA RECORDED.                                                             
XMAC-F1:                                                                        
- XMAC-F1 WAS RUN CENTRALISED.                                                  
- XMAC-F1 RUN IN SUBSET 1: FULLWAVE MONOPOLE AND CROSS DIPOLE.                  
- DT24QI IS THE COMPRESSIONAL DT DERIVED FROM SURFACE PICKED FIRST ARRIVALS.    
  DTCQI IS THE WAVE AVAN PROCESSED COMPRESSIONAL DT DERIVED FROM THE FULLWAVE   
  MONOPOLE DATA.                                                                
  DTSQI IS THE WAVE AVAN PROCESSED SHEAR DT DERIVED FROM THE FULLWAVE MONOPOLE  
  DATA.                                                                         
  DTSTQI IS THE WAVE AVAN PROCESSED STONELY DT DERIVED FROM THE FULLWAVE        
  MONOPOLE DATA.                                                                
  DTXXQI AND DTYYQI ARE THE ESTIMATED DIRECTIONAL DT DERIVED FROM THE DIPOLE    
  FULLWAVE DATA USING WAVE AVAN PROCESSING.                                     
- TOTAL INTEGRATED TRAVEL TIME FROM LAST READING DT TO CASING SHOE: 50.4 MS.    
- TOOL STRING CENTRALIZATION OPTIMIZED FOR 8 3/8" HOLE.                         
WGI (6CAL):                                                                     
- CALIPER CURVE (CHADW) PRESENTED IS FROM WGI.                                  
- AT 3360 M CALIPER ARMS 2 AND 5 MOST LIKELY GOT DAMAGED                        
HDIL:                                                                           
- HDIL IS TEMPERATURE CORRECTED                                                 
- HDIL TOOL WAS RUN CENTRALISED.                                                
- PRESENTED ARE THE 1FT MATCHED RESOLUTION CURVES (M1R?)                        
- HDIL PROCESSING AND CENTRALIZATION OPTIMIZED FOR 8 3/8" HOLE .                
#  Curve Data
~A  DEPT        BIT         CHT         GR          GRSL        K           KTH         M1R1        M1R2        M1R3        M1R6        M1R9        M1RX        QHDL        RTHK        RTHU        RUK         SPD         TH          TTEN        U           WRM         WTBH      
# ...
   3300.7500      8.3750    787.2020     62.3591     62.4630      2.0831     52.3180      2.0412      1.4991      1.3195      1.2428      1.2224      1.1967      0.0000      3.3835      4.7314      0.7154     13.9882      7.0481   5530.6572      1.4903   1407.4083     95.9072
   3300.8750      8.3750    793.4426     62.4649     62.7471      2.0619     53.6771      1.8707      1.4105      1.2542      1.1862      1.1676      1.1439      0.0000      3.8640      5.9209      0.6541     14.0106      7.9662   5533.4150      1.3487   1392.1537     95.9334
   3301.0000      8.3750    798.8163     62.7218     63.0201      2.0415     55.2634      1.7140      1.3240      1.1886      1.1288      1.1120      1.0905      0.0000      4.4033      7.7280      0.5721     14.0085      8.9887   5531.9941      1.1680   1375.1797     95.9611
   3301.1250      8.3750    799.9116     63.5274     63.7406      2.0332     57.6968      1.6377      1.2813      1.1567      1.1013      1.0855      1.0653      0.0000      4.9941     11.1426      0.4505     13.9922     10.1539   5518.9033      0.9160   1368.5653     95.9703
   3301.2500      8.3750    794.7897     65.0432     65.1658      2.0427     60.8939      1.5915      1.2552      1.1373      1.0851      1.0700      1.0509      0.0000      5.5095     17.7638      0.3157     13.9818     11.2546   5499.5239      0.6447   1362.7965     95.9775
   3301.3750      8.3750    786.5046     66.8779     66.9272      2.0512     63.9612      1.5311      1.2188      1.1086      1.0603      1.0464      1.0288      0.0000      5.8942     27.4440      0.2153     13.9609     12.0898   5490.8154      0.4417   1350.4017     96.0017
   3301.5000      8.3750    779.0399     68.2442     68.2123      2.0245     65.4331      1.4729      1.1818      1.0788      1.0346      1.0218      1.0059      0.0000      6.1892     30.6563      0.2020     13.9013     12.5292   5502.1826      0.4089   1336.3325     96.0326
   3301.6250      8.3750    773.4872     68.2015     68.1160      1.9566     64.3664      1.4360      1.1578      1.0595      1.0186      1.0069      0.9925      0.0000      6.4669     23.1338      0.2838     13.8227     12.6510   5519.1865      0.5543   1328.9380     96.0404
   3301.7500      8.3750    768.8691     67.0318     66.9442      1.8636     61.4423      1.4424      1.1626      1.0648      1.0255      1.0143      1.0009      0.0000      6.7242     15.1864      0.4444     13.7690     12.5307   5525.5674      0.8276   1330.7736     96.0185
   3301.8750      8.3750    765.2198     66.3868     66.3193      1.7435     58.2352      1.4797      1.1910      1.0907      1.0520      1.0411      1.0283      0.0000      7.0026     10.0830      0.7047     13.7728     12.2058   5518.9106      1.2256   1345.2822     95.9874
   3302.0000      8.3750    763.3140     67.3337     67.2337      1.5988     55.6380      1.5643      1.2548      1.1477      1.1078      1.0967      1.0841      0.0000      7.3503      6.8442      1.0853     13.8060     11.7470   5511.9355      1.7299   1363.5551     95.9729
   3302.1250      8.3750    762.8738     68.8152     68.6094      1.4744     53.7077      1.6935      1.3529      1.2349      1.1922      1.1805      1.1678      0.0000      7.6894      5.2063      1.4778     13.8370     11.3366   5509.2622      2.1784   1376.7833     95.9819
   3302.2500      8.3750    762.8711     68.6816     68.3334      1.4561     52.5580      1.6574      1.3479      1.2373      1.1978      1.1870      1.1760      0.0000      7.6382      4.7957      1.5927     13.8589     11.1210   5506.9907      2.3190   1384.9354     96.0116
   3302.3750      8.3750    762.8711     67.0997     66.6448      1.5283     52.1608      1.5622      1.3000      1.2031      1.1685      1.1592      1.1504      0.0000      7.2536      5.0684      1.4334     13.8905     11.0822   5505.1924      2.1888   1395.3695     96.0434
   3302.5000      8.3750    762.8711     65.8796     65.3612      1.6324     52.9331      1.5371      1.2939      1.2033      1.1710      1.1624      1.1552      0.0000      6.8794      5.8441      1.1785     13.9406     11.2288   5506.8081      1.9229   1406.4329     96.0744
   3302.6250      8.3750    763.1922     66.5962     65.9949      1.7357     55.8346      1.4675      1.2499      1.1685      1.1397      1.1322      1.1267      0.0000      6.7266      7.5108      0.9046     13.9922     11.6745   5513.0054      1.5671   1404.4700     96.1144
   3302.7500      8.3750    764.2942     68.3861     67.6892      1.8446     60.5787      1.3771      1.1857      1.1138      1.0887      1.0823      1.0784      0.0000      6.7737     11.8017      0.5854     14.0208     12.4960   5521.3428      1.0783   1385.0533     96.1654
   3302.8750      8.3750    765.6606     69.8457     69.1397      1.9291     65.1534      1.3409      1.1583      1.0897      1.0663      1.0605      1.0578      0.0000      6.9896     23.1727      0.3102     14.0266     13.4845   5525.1040      0.5974   1360.1481     96.1981
   3303.0000      8.3750    765.9598     70.3335     69.7354      1.9499     67.4148      1.3425      1.1577      1.0884      1.0654      1.0599      1.0580      0.0000      7.2987     41.3870      0.1782     14.0326     14.2317   5518.4038      0.3475   1346.1581     96.1693
   3303.1250      8.3750    764.9484     70.6078     70.1720      1.9247     68.1487      1.3620      1.1696      1.0976      1.0745      1.0692      1.0679      0.0000      7.6051     48.3924      0.1572     14.0372     14.6368   5505.8789      0.3025   1344.4330     96.0977
   3303.2500      8.3750    763.1765     71.2168     70.8892      1.8984     68.8603      1.3801      1.1801      1.1054      1.0821      1.0771      1.0764      0.0000      7.7981     49.3206      0.1581     14.0279     14.8042   5496.9517      0.3002   1341.2167     96.0450
   3303.3750      8.3750    761.3652     71.4431     71.1542      1.9220     69.5495      1.3758      1.1738      1.0988      1.0760      1.0714      1.0711      0.0000      7.6589     63.8270      0.1228     14.0185     14.7185   5498.2012      0.2357   1316.9230     96.0363
   3303.5000      8.3750    760.5764     70.8008     70.5633      2.0001     69.7865      1.3752      1.1706      1.0953      1.0730      1.0689      1.0688      0.0000      7.1908    126.5371      0.0572     14.0323     14.3818   5505.8130      0.1144   1282.8027     96.0549
   3303.6250      8.3750    763.5234     69.9465     69.8029      2.1111     69.4751      1.3929      1.1813      1.1046      1.0825      1.0786      1.0786      0.0000      6.4981    293.9874      0.0231     14.0679     13.7115   5513.5151      0.0485   1273.6135     96.0688
   3303.7500      8.3750    770.6720     69.2452     69.1956      2.2220     68.8397      1.3725      1.1653      1.0910      1.0700      1.0666      1.0666      0.0000      5.8274    255.1457      0.0238     14.0877     12.9434   5520.1460      0.0531   1297.1887     96.0791
   3303.8750      8.3750    779.4625     68.4960     68.5182      2.3250     67.8280      1.3505      1.1490      1.0772      1.0574      1.0545      1.0543      0.0000      5.2607    118.5742      0.0448     14.0810     12.2303   5526.1475      0.1042   1332.0289     96.0984
   3304.0000      8.3750    785.9362     68.7640     68.8386      2.4144     67.1894      1.3562      1.1534      1.0818      1.0625      1.0599      1.0594      0.0000      4.8279     50.6058      0.1038     14.0650     11.6538   5534.0156      0.2512   1348.7268     96.1177
   3304.1250      8.3750    790.9106     71.4231     71.5306      2.4676     67.5885      1.3468      1.1476      1.0775      1.0590      1.0565      1.0556      0.0000      4.5253     19.4553      0.2401     14.0474     11.1666   5544.4224      0.5927   1355.2080     96.1096
   3304.2500      8.3750    798.0667     75.1962     75.2241      2.4744     68.0948      1.3282      1.1357      1.0678      1.0501      1.0478      1.0465      0.0000      4.3745     10.3970      0.4256     14.0266     10.8243   5555.5762      1.0530   1367.2177     96.0690
