~Version Information
 VERS.                2.00:   CWLS log ASCII Standard -VERSION 2.00
 WRAP.                  NO:   One line per frame      
~Well Information Block
#MNEM.UNIT                   Data                   Description
#----.----   ------------------------------------   -------------------------------
 STRT.M                                 3253.6250 : Starting Depth
 STOP.M                                 3396.1250 : Ending Depth
 STEP.M                                    0.1250 : Level Spacing
 NULL.                                  -999.2500 : Absent Value
 COMP.       GDF SUEZ                             : Company
 WELL.       L5-13                                : Well
 FLD .       L5 OIL                               : Field
 LOC .       LAT: 53 48'40.57" N                  : Location
 PROV.       NOBLE PIET V EDE                     : Province
 SRVC.       Baker Atlas                          : Service Company
 LIC .                                            : License Number
 DATE.       3-JUN-2012                           : Log Date
 UWI .                                            : Unique Well ID
~Curve Information Block
#MNEM    .UNIT        API Codes     Curve Description
#--------.--------   LG--CV-CL--M   -------------------------------
 DEPT    .M          99 995 99  1 : Depth
 BIT     .in         70 282  1  1 : Bit size
 CHT     .lbf        99 635 99  1 : Cable head tension
 GR      .gAPI       30 310  1  1 : Gamma ray
 GRSL    .gAPI       30 310  1  1 : Gamma ray from 1329 spectrum
 K       .pct        31 719 99  1 : Potassium content
 KTH     .gAPI       31 995 99  1 : Stripped potassium-thorium
 M1R1    .ohm.m       8 120 10  1 : Vertical 1-foot resolution matched resistivity, 10-inch DOI
 M1R2    .ohm.m       8 120 20  1 : Vertical 1-foot resolution matched resistivity, 20-inch DOI
 M1R3    .ohm.m       8 120 30  1 : Vertical 1-foot resolution matched resistivity, 30-inch DOI
 M1R6    .ohm.m       8 120 60  1 : Vertical 1-foot resolution matched resistivity, 60-inch DOI
 M1R9    .ohm.m       8 120 90  1 : Vertical 1-foot resolution matched resistivity, 90-inch DOI
 M1RX    .ohm.m       8 120 90  1 : Vertical 1-foot resolution matched resistivity, 120-inch DOI
 QHDL    .lbf        99 995 99  1 : Quality for differential tension pulls for HDIL
 RTHK    .ppm/pct    31 995 99  1 : Ratio of thorium to potassium
 RTHU    .1          31 995 99  1 : Ratio of thorium to uranium
 RUK     .ppm/pct    31 995 99  1 : Ratio of uranium to potassium
 SPD     .m/min      99 636 99  1 : Speed
 TH      .ppm        31 790 99  1 : Thorium concentration
 TTEN    .lbf        99 635 99  1 : Total tension
 U       .ppm        31 792 99  1 : Uranium content
 WRM     .ohm.m      99 823 99  1 : Mud resistivity
 WTBH    .degC       99 995 99  1 : Temperature of borehole
~Parameter Information Block
#MNEM.UNIT                     Value                    Description
#----.----   ----------------------------------------   -------------------------------
 HIDE.       HIGH DEFINITION INDUCTION LOG            : Header Identifer
 HID1.       X-MULTIPOLE ARRAY ACOUSTILOG             : Header Identifer
 HID2.       GAMMA RAY LOG                            : Header Identifer
 CLAB.       RIG NAME                                 : County Label (Comments)
 SLAB.       COUNTRY                                  : State Label (Comments)
 STAT.       NETHERLANDS                              : State Or Province
 CMT1.       FINAL PRINT                              : Comment 1  
 CMT2.       SCALE 1:200/500                          : Comment 2  
 FL1 .       LON: 04 21'06.15"  E                     : Field Location 1
 OS1 .       ZDL/CN                                   : Other Services Line 1
 OS2 .       RCI                                      : Other Services Line 2
 OS3 .       BHP                                      : Other Services Line 3
 PDAT.       MSL                                      : Permanent Datum
 EPD .M      0                                        : Elevation Of Perm. Datum
 LMF .       DF                                       : Log Measured From
 APD .M      41.1                                     : Above Permanent Datum
 DMF .       DF                                       : Drilling Measured From
 EKB .M      41.1                                     : Elevation Of Kelly Bushing
 EDF .M      41.1                                     : Elevation Of Derrick Floor
 EGL .M      -42.0                                    : Elevation Of Ground Level
 TRIP.       5                                        : Trip Number
 SON .       13-168551                                : Service Order Number
 TDD .M      3491                                     : Total Depth - Driller
 BLI .M      3480                                     : Bottom Log Interval
 TLI .M      3296                                     : Top Log Interval
 CSIZ.IN     9.625                                    : Casing Size
 CBDR.M      3299                                     : Casing Bottom - Driller
 CBLO.M      3996.2                                   : Casing Bottom - Logger
 BS  .IN     8.375                                    : Bit Size
 DFT .       LTOBM                                    : Drilling Fluid Type
 DFD .G/C3   1.52                                     : Drilling Fluid Density
 DFV .S      25                                       : Drilling Fluid Viscosity
 DFL .M3     1.2                                      : Drilling Fluid Loss
 MSS .       FLOWLINE                                 : Mud Sample Source
 RMS .OHMM   >10                                      : Resistivity Of Mud Sample
 RMFS.OHMM   >10                                      : Resistivity Of Mud Filtrate Sample
 RMCS.OHMM   >10                                      : Resistivity Of Mud Cake Sample
 MFSS.       NA                                       : Mud Filtrate Sample Source
 MCSS.       NA                                       : Mud Cake Sample Source
 RMB .OHMM   >10                                      : Mud Resistivity At Bht
 TSC .       36 HRS                                   : Time Since Circulation
 MRT .DEGC   104                                      : Maximum Recorded Temperature
 LUN .       8934                                     : Logging Unit Number
 LUL .       DEN HELDER                               : Logging Unit Location
 ENGI.       A. WIEFKERS/H. V DIJKEN                  : Engineer's Name
 WITN.       P. GERRITSEN                             : Witness' Name
 TSTR.       HDIL/XMAC/GR                             : Title Service Mnemonic
 TSTG.       NA                                       : Title Service Mnemonic
 STUS.       FINAL                                    : Status
 LCNM.       BAKER ATLAS                              : Logging Company Name
 LCC .       150                                      : Logging Company Code
 OPMD.       OH.WIRE                                  : Operation Mode
 PANA.       A. WIEFKERS/H. V DIJKEN                  : Processing Analyst
 PCON.       BAKER ATLAS                              : Processing Contractor
 APIN.                                                : API Serial Number
~Other information
DEPTH AUDIT:                                                                    
- ALL DEPTHS ARE REFERENCED TO DRILL FLOOR.                                     
- TOOLS DEPLOYED BY DRILL PIPE USING BAKER ATLAS PCL EQUIPMENT WITH CONSTANT    
  TENSION DEVICE.                                                               
GENERAL:                                                                        
- LAST CIRCULATION ON 04-JUN-2013 AT 02:30 HRS.                                 
- MAXIMUM RECORDED TEMPERATURE FROM TTRM SUB IS 104 DEGC AT 3441 M              
- MAXIMUM RECORDED DEVIATION IS 32 DEG AT 3421 FROM ORIT SUB.                   
- TOOLSTRING RUN  A5 PCL/DSL/CN/ZDL/MREX/KNJT/ORIT/XMAC/WGI/HDIL/CENT           
- DSL AND WGI RECORDED SIMULTANEOUS BUT PRESENTED UNDER SEPARATE HEADINGS       
- ADDITIONAL MUD PROPERTIES: WHOLE MUD SALINITY = 26000 MG/L                    
                             CORRECTED SOLIDS = 28 %                            
                             YP = 22 LB/100FT2                                  
                             PV = 14 CP                                         
                             OIL/WATER RATIO 80/20                              
- RUNS A1-A2-A3-A4 WIRELINE RUN WITH DIFFERENT TOOL CONFIGURATIONS. UNABLE TO   
  REACH TD, HUD 3393 M. ONLY ON RUN A2 DATA RECORDED FROM 3393 UPTO THE CASING  
  SHOE. DATA NOT PRESENTED.                                                     
- DATA RECORDED IN DOWNWARDS DIRECTION. NO UP LOG DATA AVAILABLE DUE TO TOOL    
  FAILURE (PARTING OF 3218MB MANDREL).                                          
- TOOL DEPLOYMENT INTO OPEN HOLE WAS NOT SMOOTH, DATA RECORDED IN TWO FILES     
  DATA SPLICE AT 3360 M.                                                        
GR:                                                                             
- GAMARAY RECORDED IN SPECTRAL MODE, DSL DATA NOT PRESENTED.                    
- GAMMA RAY READING HIGH DUE TO FORMATION ACTIVATION FROM CN/ZDL TOOLS.         
CN:                                                                             
-RECORDED IN SAME PASS, DATA PRESENTED UNDER SEPERATE HEADER.                   
ZDL:                                                                            
-RECORDED IN SAME PASS, DATA PRESENTED UNDER SEPERATE HEADER.                   
MREX:                                                                           
- NO DATA RECORDED.                                                             
XMAC-F1:                                                                        
- XMAC-F1 WAS RUN CENTRALISED.                                                  
- XMAC-F1 RUN IN SUBSET 1: FULLWAVE MONOPOLE AND CROSS DIPOLE.                  
- DT24QI IS THE COMPRESSIONAL DT DERIVED FROM SURFACE PICKED FIRST ARRIVALS.    
  DTCQI IS THE WAVE AVAN PROCESSED COMPRESSIONAL DT DERIVED FROM THE FULLWAVE   
  MONOPOLE DATA.                                                                
  DTSQI IS THE WAVE AVAN PROCESSED SHEAR DT DERIVED FROM THE FULLWAVE MONOPOLE  
  DATA.                                                                         
  DTSTQI IS THE WAVE AVAN PROCESSED STONELY DT DERIVED FROM THE FULLWAVE        
  MONOPOLE DATA.                                                                
  DTXXQI AND DTYYQI ARE THE ESTIMATED DIRECTIONAL DT DERIVED FROM THE DIPOLE    
  FULLWAVE DATA USING WAVE AVAN PROCESSING.                                     
- TOTAL INTEGRATED TRAVEL TIME FROM LAST READING DT TO CASING SHOE: 50.4 MS.    
- TOOL STRING CENTRALIZATION OPTIMIZED FOR 8 3/8" HOLE.                         
WGI (6CAL):                                                                     
- CALIPER CURVE (CHADW) PRESENTED IS FROM WGI.                                  
- AT 3360 M CALIPER ARMS 2 AND 5 MOST LIKELY GOT DAMAGED                        
HDIL:                                                                           
- HDIL IS TEMPERATURE CORRECTED                                                 
- HDIL TOOL WAS RUN CENTRALISED.                                                
- PRESENTED ARE THE 1FT MATCHED RESOLUTION CURVES (M1R?)                        
- HDIL PROCESSING AND CENTRALIZATION OPTIMIZED FOR 8 3/8" HOLE .                
#  Curve Data
~A  DEPT        BIT         CHT         GR          GRSL        K           KTH         M1R1        M1R2        M1R3        M1R6        M1R9        M1RX        QHDL        RTHK        RTHU        RUK         SPD         TH          TTEN        U           WRM         WTBH      
# ...
   3311.6250      8.3750    765.9051     82.2841     82.3776      2.7782     80.2230      1.2219      1.1088      1.0715      1.0658      1.0692      1.0649      0.0000      5.2782     46.5369      0.1181     14.0808     14.6619   5648.2256      0.3285   1332.0234     96.1226
   3311.7500      8.3750    766.3763     81.5442     81.6379      2.7497     80.7849      1.2240      1.1121      1.0752      1.0695      1.0720      1.0672      0.0000      5.5924    139.6923      0.0478     14.0623     15.3774   5641.1445      0.1316   1344.3643     96.0904
   3311.8750      8.3750    774.4687     83.2009     83.2914      2.7496     83.2508      1.2256      1.1136      1.0761      1.0700      1.0714      1.0661      0.0000      5.7253   8804.1719      0.0022     14.0113     15.7425   5623.6387      0.0062   1359.1812     96.0520
   3312.0000      8.3750    780.5883     85.5208     85.6897      2.7746     85.6781      1.2258      1.1120      1.0732      1.0663      1.0664      1.0606      0.0000      5.6679   9466.8418      0.0006     13.9594     15.7256   5602.4624      0.0017   1360.7806     96.0313
   3312.1250      8.3750    778.2798     86.8187     87.0421      2.8203     87.0306      1.2203      1.1036      1.0631      1.0552      1.0540      1.0480      0.0000      5.4931   9326.0703      0.0006     13.9466     15.4918   5582.8306      0.0017   1347.0259     96.0524
   3312.2500      8.3750    769.9723     86.8134     86.9582      2.8766     86.9469      1.2030      1.0836      1.0417      1.0328      1.0303      1.0244      0.0000      5.2707   9126.9307      0.0006     13.9685     15.1610   5570.5684      0.0017   1329.3331     96.1261
   3312.3750      8.3750    764.3270     86.0339     86.0601      2.9208     86.0490      1.1910      1.0666      1.0229      1.0131      1.0096      1.0038      0.0000      5.0745   8922.2900      0.0006     13.9850     14.8210   5574.0381      0.0017   1321.2570     96.2127
   3312.5000      8.3750    765.3530     84.8344     84.7878      2.9236     84.7768      1.1922      1.0600      1.0139      1.0031      0.9987      0.9931      0.0000      5.0095   8816.6299      0.0006     13.9850     14.6455   5592.6938      0.0017   1323.0320     96.2501
   3312.6250      8.3750    774.6326     83.9507     83.8608      2.8575     83.8498      1.2091      1.0668      1.0174      1.0057      1.0006      0.9951      0.0000      5.1913   8929.1611      0.0006     13.9705     14.8324   5618.2056      0.0017   1328.4532     96.1994
   3312.7500      8.3750    790.3571     84.1847     84.0680      2.7322     84.0566      1.2611      1.1027      1.0480      1.0349      1.0290      1.0234      0.0000      5.5766   9168.7041      0.0006     13.9459     15.2304   5640.5532      0.0017   1331.4941     96.1003
   3312.8750      8.3750    808.0765     85.1648     85.0545      2.5621     85.0426      1.3363      1.1584      1.0970      1.0823      1.0755      1.0698      0.0000      6.0394   9314.3291      0.0006     13.9233     15.4723   5662.8838      0.0017   1332.2622     96.0266
   3313.0000      8.3750    821.3828     85.9399     85.8254      2.3771     84.4427      1.4068      1.2133      1.1460      1.1301      1.1228      1.1171      0.0000      6.4535   2921.6675      0.0804     13.9152     15.3353   5682.3877      0.1884   1332.5975     96.0524
   3313.1250      8.3750    828.1251     85.6103     85.4582      2.2122     80.4199      1.4356      1.2394      1.1705      1.1542      1.1469      1.1417      0.0000      6.7081     22.4984      0.3116     13.9109     14.8387   5678.2925      0.6867   1328.3252     96.1516
   3313.2500      8.3750    828.1207     84.1897     84.0161      2.1123     75.6948      1.4220      1.2353      1.1688      1.1532      1.1463      1.1419      0.0000      6.6545     12.2988      0.5424     13.8932     14.0566   5634.5200      1.1455   1315.5166     96.2619
   3313.3750      8.3750    821.1708     82.8205     82.6742      2.1214     73.0047      1.3971      1.2223      1.1596      1.1449      1.1387      1.1351      0.0000      6.2887      9.9066      0.6349     13.8554     13.3387   5554.3037      1.3468   1302.5844     96.3025
   3313.5000      8.3750    813.3770     82.1394     81.9772      2.2165     73.5297      1.3710      1.2074      1.1484      1.1348      1.1292      1.1265      0.0000      5.9293     11.1870      0.5358     13.8199     13.1404   5464.6943      1.1856   1305.9919     96.2687
   3313.6250      8.3750    813.7708     82.1967     81.9879      2.3623     77.1715      1.3695      1.2105      1.1533      1.1402      1.1350      1.1332      0.0000      5.7683     20.5382      0.2875     13.8106     13.6261   5386.6655      0.6775   1328.0514     96.2213
   3313.7500      8.3750    825.0397     82.6341     82.4609      2.5435     81.8816      1.3689      1.2139      1.1580      1.1453      1.1405      1.1393      0.0000      5.7642   4850.4565      0.0328     13.8367     14.6619   5357.4326      0.0814   1348.3549     96.2313
   3313.8750      8.3750    836.1412     82.8899     82.8626      2.7275     82.8516      1.3852      1.2303      1.1741      1.1613      1.1565      1.1561      0.0000      5.8610   9624.2373      0.0006     13.8740     15.9870   5414.9292      0.0017   1351.5853     96.2863
   3314.0000      8.3750    839.9470     83.2645     83.4052      2.8603     83.3948      1.4270      1.2658      1.2071      1.1936      1.1886      1.1890      0.0000      6.0345  10391.7236      0.0006     13.8740     17.2619   5597.9839      0.0017   1341.7277     96.3385
   3314.1250      8.3750    850.6511     83.7913     84.0284      2.9064     84.0182      1.4132      1.2557      1.1982      1.1846      1.1796      1.1807      0.0000      6.2298  10899.8662      0.0006     13.7789     18.1060   5888.5884      0.0017   1333.3866     96.3559
   3314.2500      8.3750    897.0980     84.1328     84.3887      2.8843     84.3786      1.3465      1.2016      1.1488      1.1358      1.1311      1.1327      0.0000      6.3495  11025.1611      0.0006     13.6065     18.3142   6196.8892      0.0017   1331.4417     96.3538
   3314.3750      8.3750    999.6793     84.0013     84.1314      2.8161     84.1211      1.2773      1.1437      1.0953      1.0831      1.0787      1.0806      0.0000      6.3243  10721.8320      0.0006     13.4393     17.8103   6406.1538      0.0017   1334.0699     96.3225
   3314.5000      8.3750   1118.8209     83.3598     83.1787      2.7374     83.1683      1.2378      1.1097      1.0634      1.0515      1.0472      1.0495      0.0000      6.1410  10120.8281      0.0006     13.3734     16.8119   6470.8296      0.0017   1341.4542     96.2479
   3314.6250      8.3750   1202.4974     82.7451     82.2237      2.6680     82.2127      1.2350      1.1059      1.0592      1.0471      1.0427      1.0455      0.0000      5.8717   9430.6846      0.0006     13.4167     15.6655   6431.1816      0.0017   1352.4368     96.1676
   3314.7500      8.3750   1213.8951     82.7411     82.1711      2.6171     81.4121      1.2223      1.0955      1.0490      1.0369      1.0328      1.0360      0.0000      5.5330   3150.0981      0.0419     13.5170     14.4815   6353.1821      0.1093   1359.7467     96.1331
   3314.8750      8.3750   1182.1458     83.1657     82.8461      2.5703     78.7040      1.2000      1.0785      1.0328      1.0212      1.0174      1.0208      0.0000      5.2075     23.8666      0.2308     13.6107     13.3861   6273.3843      0.5925   1357.8369     96.1366
   3315.0000      8.3750   1138.1914     83.4979     83.4813      2.5213     75.8483      1.2123      1.0896      1.0426      1.0312      1.0275      1.0315      0.0000      4.9489     11.5513      0.4312     13.6887     12.4778   6187.3579      1.0870   1349.1288     96.1478
   3315.1250      8.3750   1096.5435     83.8678     83.8872      2.4641     73.1931      1.2610      1.1298      1.0793      1.0675      1.0640      1.0686      0.0000      4.8250      7.8611      0.6196     13.7522     11.8897   6091.5884      1.5256   1341.4215     96.1652
