~Version Information
 VERS.                2.00:   CWLS log ASCII Standard -VERSION 2.00
 WRAP.                  NO:   One line per frame      
~Well Information Block
#MNEM.UNIT                   Data                   Description
#----.----   ------------------------------------   -------------------------------
 STRT.M                                 3253.6250 : Starting Depth
 STOP.M                                 3396.1250 : Ending Depth
 STEP.M                                    0.1250 : Level Spacing
 NULL.                                  -999.2500 : Absent Value
 COMP.       GDF SUEZ                             : Company
 WELL.       L5-13                                : Well
 FLD .       L5 OIL                               : Field
 LOC .       LAT: 53 48'40.57" N                  : Location
 PROV.       NOBLE PIET V EDE                     : Province
 SRVC.       Baker Atlas                          : Service Company
 LIC .                                            : License Number
 DATE.       3-JUN-2012                           : Log Date
 UWI .                                            : Unique Well ID
~Curve Information Block
#MNEM    .UNIT        API Codes     Curve Description
#--------.--------   LG--CV-CL--M   -------------------------------
 DEPT    .M          99 995 99  1 : Depth
 BIT     .in         70 282  1  1 : Bit size
 CHT     .lbf        99 635 99  1 : Cable head tension
 GR      .gAPI       30 310  1  1 : Gamma ray
 GRSL    .gAPI       30 310  1  1 : Gamma ray from 1329 spectrum
 K       .pct        31 719 99  1 : Potassium content
 KTH     .gAPI       31 995 99  1 : Stripped potassium-thorium
 M1R1    .ohm.m       8 120 10  1 : Vertical 1-foot resolution matched resistivity, 10-inch DOI
 M1R2    .ohm.m       8 120 20  1 : Vertical 1-foot resolution matched resistivity, 20-inch DOI
 M1R3    .ohm.m       8 120 30  1 : Vertical 1-foot resolution matched resistivity, 30-inch DOI
 M1R6    .ohm.m       8 120 60  1 : Vertical 1-foot resolution matched resistivity, 60-inch DOI
 M1R9    .ohm.m       8 120 90  1 : Vertical 1-foot resolution matched resistivity, 90-inch DOI
 M1RX    .ohm.m       8 120 90  1 : Vertical 1-foot resolution matched resistivity, 120-inch DOI
 QHDL    .lbf        99 995 99  1 : Quality for differential tension pulls for HDIL
 RTHK    .ppm/pct    31 995 99  1 : Ratio of thorium to potassium
 RTHU    .1          31 995 99  1 : Ratio of thorium to uranium
 RUK     .ppm/pct    31 995 99  1 : Ratio of uranium to potassium
 SPD     .m/min      99 636 99  1 : Speed
 TH      .ppm        31 790 99  1 : Thorium concentration
 TTEN    .lbf        99 635 99  1 : Total tension
 U       .ppm        31 792 99  1 : Uranium content
 WRM     .ohm.m      99 823 99  1 : Mud resistivity
 WTBH    .degC       99 995 99  1 : Temperature of borehole
~Parameter Information Block
#MNEM.UNIT                     Value                    Description
#----.----   ----------------------------------------   -------------------------------
 HIDE.       HIGH DEFINITION INDUCTION LOG            : Header Identifer
 HID1.       X-MULTIPOLE ARRAY ACOUSTILOG             : Header Identifer
 HID2.       GAMMA RAY LOG                            : Header Identifer
 CLAB.       RIG NAME                                 : County Label (Comments)
 SLAB.       COUNTRY                                  : State Label (Comments)
 STAT.       NETHERLANDS                              : State Or Province
 CMT1.       FINAL PRINT                              : Comment 1  
 CMT2.       SCALE 1:200/500                          : Comment 2  
 FL1 .       LON: 04 21'06.15"  E                     : Field Location 1
 OS1 .       ZDL/CN                                   : Other Services Line 1
 OS2 .       RCI                                      : Other Services Line 2
 OS3 .       BHP                                      : Other Services Line 3
 PDAT.       MSL                                      : Permanent Datum
 EPD .M      0                                        : Elevation Of Perm. Datum
 LMF .       DF                                       : Log Measured From
 APD .M      41.1                                     : Above Permanent Datum
 DMF .       DF                                       : Drilling Measured From
 EKB .M      41.1                                     : Elevation Of Kelly Bushing
 EDF .M      41.1                                     : Elevation Of Derrick Floor
 EGL .M      -42.0                                    : Elevation Of Ground Level
 TRIP.       5                                        : Trip Number
 SON .       13-168551                                : Service Order Number
 TDD .M      3491                                     : Total Depth - Driller
 BLI .M      3480                                     : Bottom Log Interval
 TLI .M      3296                                     : Top Log Interval
 CSIZ.IN     9.625                                    : Casing Size
 CBDR.M      3299                                     : Casing Bottom - Driller
 CBLO.M      3996.2                                   : Casing Bottom - Logger
 BS  .IN     8.375                                    : Bit Size
 DFT .       LTOBM                                    : Drilling Fluid Type
 DFD .G/C3   1.52                                     : Drilling Fluid Density
 DFV .S      25                                       : Drilling Fluid Viscosity
 DFL .M3     1.2                                      : Drilling Fluid Loss
 MSS .       FLOWLINE                                 : Mud Sample Source
 RMS .OHMM   >10                                      : Resistivity Of Mud Sample
 RMFS.OHMM   >10                                      : Resistivity Of Mud Filtrate Sample
 RMCS.OHMM   >10                                      : Resistivity Of Mud Cake Sample
 MFSS.       NA                                       : Mud Filtrate Sample Source
 MCSS.       NA                                       : Mud Cake Sample Source
 RMB .OHMM   >10                                      : Mud Resistivity At Bht
 TSC .       36 HRS                                   : Time Since Circulation
 MRT .DEGC   104                                      : Maximum Recorded Temperature
 LUN .       8934                                     : Logging Unit Number
 LUL .       DEN HELDER                               : Logging Unit Location
 ENGI.       A. WIEFKERS/H. V DIJKEN                  : Engineer's Name
 WITN.       P. GERRITSEN                             : Witness' Name
 TSTR.       HDIL/XMAC/GR                             : Title Service Mnemonic
 TSTG.       NA                                       : Title Service Mnemonic
 STUS.       FINAL                                    : Status
 LCNM.       BAKER ATLAS                              : Logging Company Name
 LCC .       150                                      : Logging Company Code
 OPMD.       OH.WIRE                                  : Operation Mode
 PANA.       A. WIEFKERS/H. V DIJKEN                  : Processing Analyst
 PCON.       BAKER ATLAS                              : Processing Contractor
 APIN.                                                : API Serial Number
~Other information
DEPTH AUDIT:                                                                    
- ALL DEPTHS ARE REFERENCED TO DRILL FLOOR.                                     
- TOOLS DEPLOYED BY DRILL PIPE USING BAKER ATLAS PCL EQUIPMENT WITH CONSTANT    
  TENSION DEVICE.                                                               
GENERAL:                                                                        
- LAST CIRCULATION ON 04-JUN-2013 AT 02:30 HRS.                                 
- MAXIMUM RECORDED TEMPERATURE FROM TTRM SUB IS 104 DEGC AT 3441 M              
- MAXIMUM RECORDED DEVIATION IS 32 DEG AT 3421 FROM ORIT SUB.                   
- TOOLSTRING RUN  A5 PCL/DSL/CN/ZDL/MREX/KNJT/ORIT/XMAC/WGI/HDIL/CENT           
- DSL AND WGI RECORDED SIMULTANEOUS BUT PRESENTED UNDER SEPARATE HEADINGS       
- ADDITIONAL MUD PROPERTIES: WHOLE MUD SALINITY = 26000 MG/L                    
                             CORRECTED SOLIDS = 28 %                            
                             YP = 22 LB/100FT2                                  
                             PV = 14 CP                                         
                             OIL/WATER RATIO 80/20                              
- RUNS A1-A2-A3-A4 WIRELINE RUN WITH DIFFERENT TOOL CONFIGURATIONS. UNABLE TO   
  REACH TD, HUD 3393 M. ONLY ON RUN A2 DATA RECORDED FROM 3393 UPTO THE CASING  
  SHOE. DATA NOT PRESENTED.                                                     
- DATA RECORDED IN DOWNWARDS DIRECTION. NO UP LOG DATA AVAILABLE DUE TO TOOL    
  FAILURE (PARTING OF 3218MB MANDREL).                                          
- TOOL DEPLOYMENT INTO OPEN HOLE WAS NOT SMOOTH, DATA RECORDED IN TWO FILES     
  DATA SPLICE AT 3360 M.                                                        
GR:                                                                             
- GAMARAY RECORDED IN SPECTRAL MODE, DSL DATA NOT PRESENTED.                    
- GAMMA RAY READING HIGH DUE TO FORMATION ACTIVATION FROM CN/ZDL TOOLS.         
CN:                                                                             
-RECORDED IN SAME PASS, DATA PRESENTED UNDER SEPERATE HEADER.                   
ZDL:                                                                            
-RECORDED IN SAME PASS, DATA PRESENTED UNDER SEPERATE HEADER.                   
MREX:                                                                           
- NO DATA RECORDED.                                                             
XMAC-F1:                                                                        
- XMAC-F1 WAS RUN CENTRALISED.                                                  
- XMAC-F1 RUN IN SUBSET 1: FULLWAVE MONOPOLE AND CROSS DIPOLE.                  
- DT24QI IS THE COMPRESSIONAL DT DERIVED FROM SURFACE PICKED FIRST ARRIVALS.    
  DTCQI IS THE WAVE AVAN PROCESSED COMPRESSIONAL DT DERIVED FROM THE FULLWAVE   
  MONOPOLE DATA.                                                                
  DTSQI IS THE WAVE AVAN PROCESSED SHEAR DT DERIVED FROM THE FULLWAVE MONOPOLE  
  DATA.                                                                         
  DTSTQI IS THE WAVE AVAN PROCESSED STONELY DT DERIVED FROM THE FULLWAVE        
  MONOPOLE DATA.                                                                
  DTXXQI AND DTYYQI ARE THE ESTIMATED DIRECTIONAL DT DERIVED FROM THE DIPOLE    
  FULLWAVE DATA USING WAVE AVAN PROCESSING.                                     
- TOTAL INTEGRATED TRAVEL TIME FROM LAST READING DT TO CASING SHOE: 50.4 MS.    
- TOOL STRING CENTRALIZATION OPTIMIZED FOR 8 3/8" HOLE.                         
WGI (6CAL):                                                                     
- CALIPER CURVE (CHADW) PRESENTED IS FROM WGI.                                  
- AT 3360 M CALIPER ARMS 2 AND 5 MOST LIKELY GOT DAMAGED                        
HDIL:                                                                           
- HDIL IS TEMPERATURE CORRECTED                                                 
- HDIL TOOL WAS RUN CENTRALISED.                                                
- PRESENTED ARE THE 1FT MATCHED RESOLUTION CURVES (M1R?)                        
- HDIL PROCESSING AND CENTRALIZATION OPTIMIZED FOR 8 3/8" HOLE .                
#  Curve Data
~A  DEPT        BIT         CHT         GR          GRSL        K           KTH         M1R1        M1R2        M1R3        M1R6        M1R9        M1RX        QHDL        RTHK        RTHU        RUK         SPD         TH          TTEN        U           WRM         WTBH      
# ...
   3376.8750      8.3750    816.2955    110.8501    110.7127      3.4328     99.6362      1.1653      0.9441      0.8760      0.8485      0.8459      0.8290      0.0000      4.2546      9.5239      0.4470      9.2994     14.6054   5708.6938      1.5344   1359.0961     95.3868
   3377.0000      8.3750    823.4896    107.7947    107.6940      3.4652    100.2420      1.1182      0.9077      0.8437      0.8188      0.8168      0.8015      0.0000      4.2952     14.8244      0.3000      9.2753     14.8837   5716.9238      1.0391   1361.3738     95.3712
   3377.1250      8.3750    828.7773    101.0671    100.9894      3.3750     98.1000      1.0921      0.8875      0.8256      0.8021      0.8004      0.7862      0.0000      4.4782     40.3051      0.1203      9.2648     15.1082   5725.4346      0.4079   1368.8446     95.3743
   3377.2500      8.3750    832.3362     91.9777     91.8733      3.0585     90.2261      1.0804      0.8781      0.8167      0.7939      0.7924      0.7790      0.0000      4.8682     62.6238      0.0778      9.2741     14.8826   5725.1587      0.2377   1368.1602     95.4347
   3377.3750      8.3750    831.2844     84.5429     84.3332      2.7264     80.5396      1.0644      0.8661      0.8055      0.7833      0.7820      0.7693      0.0000      5.2695     26.8220      0.2097      9.3140     14.3594   5717.1123      0.5674   1355.2113     95.5178
   3377.5000      8.3750    824.7579     81.7649     81.4907      2.5767     75.4633      1.0418      0.8497      0.7901      0.7688      0.7675      0.7557      0.0000      5.4060     15.2732      0.3561      9.3776     13.9299   5709.4263      0.9173   1341.2628     95.5541
   3377.6250      8.3750    813.8600     84.5995     84.4219      2.5471     75.1322      1.0149      0.8304      0.7722      0.7518      0.7505      0.7397      0.0000      5.2545      9.8256      0.5437      9.4455     13.3839   5704.7163      1.3845   1334.6315     95.5048
   3377.7500      8.3750    803.6831     90.5689     90.5827      2.5905     75.4327      0.9790      0.8055      0.7495      0.7302      0.7289      0.7192      0.0000      4.7758      5.7332      0.8453      9.4957     12.3664   5699.7515      2.1924   1333.4764     95.4159
   3377.8750      8.3750    796.7203     96.5261     96.6917      2.7185     76.1884      0.9475      0.7837      0.7296      0.7115      0.7101      0.7014      0.0000      4.1712      3.8878      1.0732      9.5326     11.3378   5695.0732      2.9178   1333.4930     95.3484
   3378.0000      8.3750    792.3560    100.1245    100.3132      2.8569     77.8411      0.9433      0.7807      0.7263      0.7085      0.7069      0.6988      0.0000      3.7904      3.4155      1.1097      9.5751     10.8262   5696.8872      3.1701   1333.5325     95.3421
   3378.1250      8.3750    791.0944    100.7952    100.8791      2.9382     78.8596      0.9666      0.7960      0.7391      0.7209      0.7190      0.7112      0.0000      3.6597      3.4557      1.0596      9.6228     10.7529   5707.2700      3.1128   1333.6124     95.3637
   3378.2500      8.3750    793.7612     99.3243     99.2100      3.0111     79.5465      1.0148      0.8275      0.7658      0.7466      0.7443      0.7366      0.0000      3.6652      3.9055      0.9385      9.6543     11.0364   5720.3159      2.8259   1333.6987     95.3716
   3378.3750      8.3750    799.3103     97.6693     97.3877      3.1000     81.3023      1.0691      0.8618      0.7950      0.7746      0.7717      0.7643      0.0000      3.7401      4.9669      0.7571      9.6499     11.5948   5724.0737      2.3455   1333.7969     95.3712
   3378.5000      8.3750    802.7889     97.0413     96.7136      3.1797     83.8863      1.0900      0.8740      0.8054      0.7847      0.7813      0.7746      0.0000      3.7991      6.4854      0.5887      9.6301     12.0802   5716.2007      1.8710   1337.1207     95.3713
   3378.6250      8.3750    801.6935     97.3241     97.0247      3.2446     86.7315      1.0758      0.8643      0.7973      0.7772      0.7732      0.7677      0.0000      3.8117      8.3511      0.4573      9.6160     12.3674   5702.3843      1.4835   1354.0922     95.3493
   3378.7500      8.3750    800.4205     97.2784     97.0066      3.3159     89.2826      1.0399      0.8415      0.7781      0.7588      0.7545      0.7503      0.0000      3.8136     11.5877      0.3336      9.6057     12.6458   5696.8906      1.1053   1382.6327     95.2941
   3378.8750      8.3750    802.6888     96.2298     96.0090      3.3985     90.8432      0.9977      0.8150      0.7555      0.7373      0.7326      0.7297      0.0000      3.8097     17.5471      0.2191      9.5794     12.9470   5705.6880      0.7441   1402.6071     95.2478
   3379.0000      8.3750    805.7511     95.1951     95.0561      3.4604     91.2936      0.9693      0.7979      0.7408      0.7230      0.7180      0.7163      0.0000      3.7815     23.9616      0.1583      9.5389     13.0852   5723.3623      0.5477   1399.1940     95.2592
   3379.1250      8.3750    802.8164     95.7862     95.6556      3.4507     91.4023      0.9469      0.7842      0.7288      0.7113      0.7060      0.7054      0.0000      3.7737     21.3629      0.1786      9.5099     13.0215   5734.2666      0.6159   1378.3329     95.3242
   3379.2500      8.3750    795.8083     97.5563     97.3454      3.3638     91.2025      0.9341      0.7763      0.7214      0.7040      0.6985      0.6990      0.0000      3.8446     14.8352      0.2604      9.4985     12.9317   5732.2412      0.8754   1357.1360     95.3827
   3379.3750      8.3750    793.2748     98.7679     98.4602      3.2267     89.9788      0.9342      0.7759      0.7203      0.7027      0.6970      0.6986      0.0000      4.0206     10.9077      0.3709      9.4855     12.9713   5722.5601      1.1956   1344.3453     95.4047
   3379.5000      8.3750    797.7120     98.3110     98.0060      3.0867     87.8504      0.9330      0.7737      0.7174      0.6998      0.6940      0.6967      0.0000      4.2823      9.1945      0.4663      9.4566     13.2148   5714.2085      1.4384   1336.9072     95.4227
   3379.6250      8.3750    804.7811     97.2926     97.1040      2.9644     86.3467      0.9411      0.7777      0.7198      0.7021      0.6963      0.6999      0.0000      4.6243      8.9207      0.5184      9.4210     13.7077   5706.4614      1.5367   1334.7628     95.4684
   3379.7500      8.3750    810.4504     97.3957     97.3455      2.8750     87.3097      0.9768      0.8015      0.7393      0.7207      0.7147      0.7195      0.0000      5.0614     10.1954      0.4973      9.3952     14.5487   5696.8789      1.4299   1334.9657     95.5220
   3379.8750      8.3750    813.5479     98.5770     98.5476      2.8331     90.1794      1.0652      0.8615      0.7895      0.7685      0.7620      0.7683      0.0000      5.4882     13.2421      0.4166      9.3747     15.5487   5693.0146      1.1804   1336.6821     95.5223
   3380.0000      8.3750    814.0139    100.0674     99.9070      2.8480     93.1650      1.2132      0.9601      0.8716      0.8463      0.8389      0.8471      0.0000      5.7274     17.2954      0.3315      9.3495     16.3116   5708.0996      0.9440   1343.3203     95.4688
   3380.1250      8.3750    813.9844    101.2082    100.8978      2.8933     94.6775      1.3159      1.0289      0.9285      0.9001      0.8924      0.9020      0.0000      5.7191     19.0191      0.3007      9.3188     16.5468   5740.2939      0.8700   1354.7236     95.4151
   3380.2500      8.3750    816.1604    102.1838    101.8493      2.9301     95.2673      1.3094      1.0294      0.9300      0.9016      0.8946      0.9040      0.0000      5.6178     17.9286      0.3135      9.3004     16.4605   5763.1279      0.9187   1365.6436     95.3721
   3380.3750      8.3750    820.9918    103.0378    102.8125      2.9556     95.3369      1.2376      0.9869      0.8963      0.8699      0.8640      0.8722      0.0000      5.4567     15.5597      0.3510      9.3116     16.1275   5756.7686      1.0376   1368.8530     95.3295
