~Version Information
 VERS.                2.00:   CWLS log ASCII Standard -VERSION 2.00
 WRAP.                  NO:   One line per frame      
~Well Information Block
#MNEM.UNIT                   Data                   Description
#----.----   ------------------------------------   -------------------------------
 STRT.M                                 3253.6250 : Starting Depth
 STOP.M                                 3396.1250 : Ending Depth
 STEP.M                                    0.1250 : Level Spacing
 NULL.                                  -999.2500 : Absent Value
 COMP.       GDF SUEZ                             : Company
 WELL.       L5-13                                : Well
 FLD .       L5 OIL                               : Field
 LOC .       LAT: 53 48'40.57" N                  : Location
 PROV.       NOBLE PIET V EDE                     : Province
 SRVC.       Baker Atlas                          : Service Company
 LIC .                                            : License Number
 DATE.       3-JUN-2012                           : Log Date
 UWI .                                            : Unique Well ID
~Curve Information Block
#MNEM    .UNIT        API Codes     Curve Description
#--------.--------   LG--CV-CL--M   -------------------------------
 DEPT    .M          99 995 99  1 : Depth
 BIT     .in         70 282  1  1 : Bit size
 CHT     .lbf        99 635 99  1 : Cable head tension
 GR      .gAPI       30 310  1  1 : Gamma ray
 GRSL    .gAPI       30 310  1  1 : Gamma ray from 1329 spectrum
 K       .pct        31 719 99  1 : Potassium content
 KTH     .gAPI       31 995 99  1 : Stripped potassium-thorium
 M1R1    .ohm.m       8 120 10  1 : Vertical 1-foot resolution matched resistivity, 10-inch DOI
 M1R2    .ohm.m       8 120 20  1 : Vertical 1-foot resolution matched resistivity, 20-inch DOI
 M1R3    .ohm.m       8 120 30  1 : Vertical 1-foot resolution matched resistivity, 30-inch DOI
 M1R6    .ohm.m       8 120 60  1 : Vertical 1-foot resolution matched resistivity, 60-inch DOI
 M1R9    .ohm.m       8 120 90  1 : Vertical 1-foot resolution matched resistivity, 90-inch DOI
 M1RX    .ohm.m       8 120 90  1 : Vertical 1-foot resolution matched resistivity, 120-inch DOI
 QHDL    .lbf        99 995 99  1 : Quality for differential tension pulls for HDIL
 RTHK    .ppm/pct    31 995 99  1 : Ratio of thorium to potassium
 RTHU    .1          31 995 99  1 : Ratio of thorium to uranium
 RUK     .ppm/pct    31 995 99  1 : Ratio of uranium to potassium
 SPD     .m/min      99 636 99  1 : Speed
 TH      .ppm        31 790 99  1 : Thorium concentration
 TTEN    .lbf        99 635 99  1 : Total tension
 U       .ppm        31 792 99  1 : Uranium content
 WRM     .ohm.m      99 823 99  1 : Mud resistivity
 WTBH    .degC       99 995 99  1 : Temperature of borehole
~Parameter Information Block
#MNEM.UNIT                     Value                    Description
#----.----   ----------------------------------------   -------------------------------
 HIDE.       HIGH DEFINITION INDUCTION LOG            : Header Identifer
 HID1.       X-MULTIPOLE ARRAY ACOUSTILOG             : Header Identifer
 HID2.       GAMMA RAY LOG                            : Header Identifer
 CLAB.       RIG NAME                                 : County Label (Comments)
 SLAB.       COUNTRY                                  : State Label (Comments)
 STAT.       NETHERLANDS                              : State Or Province
 CMT1.       FINAL PRINT                              : Comment 1  
 CMT2.       SCALE 1:200/500                          : Comment 2  
 FL1 .       LON: 04 21'06.15"  E                     : Field Location 1
 OS1 .       ZDL/CN                                   : Other Services Line 1
 OS2 .       RCI                                      : Other Services Line 2
 OS3 .       BHP                                      : Other Services Line 3
 PDAT.       MSL                                      : Permanent Datum
 EPD .M      0                                        : Elevation Of Perm. Datum
 LMF .       DF                                       : Log Measured From
 APD .M      41.1                                     : Above Permanent Datum
 DMF .       DF                                       : Drilling Measured From
 EKB .M      41.1                                     : Elevation Of Kelly Bushing
 EDF .M      41.1                                     : Elevation Of Derrick Floor
 EGL .M      -42.0                                    : Elevation Of Ground Level
 TRIP.       5                                        : Trip Number
 SON .       13-168551                                : Service Order Number
 TDD .M      3491                                     : Total Depth - Driller
 BLI .M      3480                                     : Bottom Log Interval
 TLI .M      3296                                     : Top Log Interval
 CSIZ.IN     9.625                                    : Casing Size
 CBDR.M      3299                                     : Casing Bottom - Driller
 CBLO.M      3996.2                                   : Casing Bottom - Logger
 BS  .IN     8.375                                    : Bit Size
 DFT .       LTOBM                                    : Drilling Fluid Type
 DFD .G/C3   1.52                                     : Drilling Fluid Density
 DFV .S      25                                       : Drilling Fluid Viscosity
 DFL .M3     1.2                                      : Drilling Fluid Loss
 MSS .       FLOWLINE                                 : Mud Sample Source
 RMS .OHMM   >10                                      : Resistivity Of Mud Sample
 RMFS.OHMM   >10                                      : Resistivity Of Mud Filtrate Sample
 RMCS.OHMM   >10                                      : Resistivity Of Mud Cake Sample
 MFSS.       NA                                       : Mud Filtrate Sample Source
 MCSS.       NA                                       : Mud Cake Sample Source
 RMB .OHMM   >10                                      : Mud Resistivity At Bht
 TSC .       36 HRS                                   : Time Since Circulation
 MRT .DEGC   104                                      : Maximum Recorded Temperature
 LUN .       8934                                     : Logging Unit Number
 LUL .       DEN HELDER                               : Logging Unit Location
 ENGI.       A. WIEFKERS/H. V DIJKEN                  : Engineer's Name
 WITN.       P. GERRITSEN                             : Witness' Name
 TSTR.       HDIL/XMAC/GR                             : Title Service Mnemonic
 TSTG.       NA                                       : Title Service Mnemonic
 STUS.       FINAL                                    : Status
 LCNM.       BAKER ATLAS                              : Logging Company Name
 LCC .       150                                      : Logging Company Code
 OPMD.       OH.WIRE                                  : Operation Mode
 PANA.       A. WIEFKERS/H. V DIJKEN                  : Processing Analyst
 PCON.       BAKER ATLAS                              : Processing Contractor
 APIN.                                                : API Serial Number
~Other information
DEPTH AUDIT:                                                                    
- ALL DEPTHS ARE REFERENCED TO DRILL FLOOR.                                     
- TOOLS DEPLOYED BY DRILL PIPE USING BAKER ATLAS PCL EQUIPMENT WITH CONSTANT    
  TENSION DEVICE.                                                               
GENERAL:                                                                        
- LAST CIRCULATION ON 04-JUN-2013 AT 02:30 HRS.                                 
- MAXIMUM RECORDED TEMPERATURE FROM TTRM SUB IS 104 DEGC AT 3441 M              
- MAXIMUM RECORDED DEVIATION IS 32 DEG AT 3421 FROM ORIT SUB.                   
- TOOLSTRING RUN  A5 PCL/DSL/CN/ZDL/MREX/KNJT/ORIT/XMAC/WGI/HDIL/CENT           
- DSL AND WGI RECORDED SIMULTANEOUS BUT PRESENTED UNDER SEPARATE HEADINGS       
- ADDITIONAL MUD PROPERTIES: WHOLE MUD SALINITY = 26000 MG/L                    
                             CORRECTED SOLIDS = 28 %                            
                             YP = 22 LB/100FT2                                  
                             PV = 14 CP                                         
                             OIL/WATER RATIO 80/20                              
- RUNS A1-A2-A3-A4 WIRELINE RUN WITH DIFFERENT TOOL CONFIGURATIONS. UNABLE TO   
  REACH TD, HUD 3393 M. ONLY ON RUN A2 DATA RECORDED FROM 3393 UPTO THE CASING  
  SHOE. DATA NOT PRESENTED.                                                     
- DATA RECORDED IN DOWNWARDS DIRECTION. NO UP LOG DATA AVAILABLE DUE TO TOOL    
  FAILURE (PARTING OF 3218MB MANDREL).                                          
- TOOL DEPLOYMENT INTO OPEN HOLE WAS NOT SMOOTH, DATA RECORDED IN TWO FILES     
  DATA SPLICE AT 3360 M.                                                        
GR:                                                                             
- GAMARAY RECORDED IN SPECTRAL MODE, DSL DATA NOT PRESENTED.                    
- GAMMA RAY READING HIGH DUE TO FORMATION ACTIVATION FROM CN/ZDL TOOLS.         
CN:                                                                             
-RECORDED IN SAME PASS, DATA PRESENTED UNDER SEPERATE HEADER.                   
ZDL:                                                                            
-RECORDED IN SAME PASS, DATA PRESENTED UNDER SEPERATE HEADER.                   
MREX:                                                                           
- NO DATA RECORDED.                                                             
XMAC-F1:                                                                        
- XMAC-F1 WAS RUN CENTRALISED.                                                  
- XMAC-F1 RUN IN SUBSET 1: FULLWAVE MONOPOLE AND CROSS DIPOLE.                  
- DT24QI IS THE COMPRESSIONAL DT DERIVED FROM SURFACE PICKED FIRST ARRIVALS.    
  DTCQI IS THE WAVE AVAN PROCESSED COMPRESSIONAL DT DERIVED FROM THE FULLWAVE   
  MONOPOLE DATA.                                                                
  DTSQI IS THE WAVE AVAN PROCESSED SHEAR DT DERIVED FROM THE FULLWAVE MONOPOLE  
  DATA.                                                                         
  DTSTQI IS THE WAVE AVAN PROCESSED STONELY DT DERIVED FROM THE FULLWAVE        
  MONOPOLE DATA.                                                                
  DTXXQI AND DTYYQI ARE THE ESTIMATED DIRECTIONAL DT DERIVED FROM THE DIPOLE    
  FULLWAVE DATA USING WAVE AVAN PROCESSING.                                     
- TOTAL INTEGRATED TRAVEL TIME FROM LAST READING DT TO CASING SHOE: 50.4 MS.    
- TOOL STRING CENTRALIZATION OPTIMIZED FOR 8 3/8" HOLE.                         
WGI (6CAL):                                                                     
- CALIPER CURVE (CHADW) PRESENTED IS FROM WGI.                                  
- AT 3360 M CALIPER ARMS 2 AND 5 MOST LIKELY GOT DAMAGED                        
HDIL:                                                                           
- HDIL IS TEMPERATURE CORRECTED                                                 
- HDIL TOOL WAS RUN CENTRALISED.                                                
- PRESENTED ARE THE 1FT MATCHED RESOLUTION CURVES (M1R?)                        
- HDIL PROCESSING AND CENTRALIZATION OPTIMIZED FOR 8 3/8" HOLE .                
#  Curve Data
~A  DEPT        BIT         CHT         GR          GRSL        K           KTH         M1R1        M1R2        M1R3        M1R6        M1R9        M1RX        QHDL        RTHK        RTHU        RUK         SPD         TH          TTEN        U           WRM         WTBH      
# ...
   3358.7500      8.3750    790.0791    103.2399    103.2219      3.0905     98.6413      1.2862      1.1285      1.0786      1.0765      1.0869      1.1067      0.0000      5.0670     25.3318      0.2012     13.7936     15.6586   5682.5938      0.6214   1351.5258     95.4743
   3358.8750      8.3750    787.3446    102.0194    101.9768      2.9415     95.0497      1.2526      1.0987      1.0505      1.0492      1.0604      1.0798      0.0000      5.3629     16.7648      0.3244     13.7687     15.7713   5688.0977      0.9526   1354.7048     95.5145
   3359.0000      8.3750    789.9183    100.1356    100.1131      2.7628     90.1920      1.2170      1.0650      1.0183      1.0179      1.0295      1.0482      0.0000      5.6786     11.4327      0.5031     13.7377     15.6844   5712.6304      1.3867   1353.6798     95.5075
   3359.1250      8.3750    798.6261     98.8227     98.7812      2.5924     85.4692      1.1777      1.0275      0.9826      0.9831      0.9949      1.0126      0.0000      5.8914      8.1478      0.7231     13.7200     15.2727   5750.6997      1.8745   1351.7926     95.4533
   3359.2500      8.3750    811.9172     97.8882     97.8330      2.4812     81.5173      1.1557      1.0036      0.9597      0.9613      0.9731      0.9905      0.0000      5.8562      6.3443      0.9272     13.7114     14.5315   5783.7666      2.2990   1357.3894     95.3735
   3359.3750      8.3750    826.2582     96.3852     96.4063      2.4069     77.3963      1.1346      0.9817      0.9391      0.9418      0.9537      0.9708      0.0000      5.6491      5.0636      1.1182     13.6974     13.5978   5804.4141      2.6906   1366.7982     95.3187
   3359.5000      8.3750    839.1866     94.2143     94.2660      2.3579     73.2087      1.1059      0.9556      0.9148      0.9186      0.9303      0.9469      0.0000      5.3844      4.2086      1.2801     13.6845     12.6964   5812.4058      3.0182   1371.4310     95.2984
   3359.6250      8.3750    847.0694     92.6168     92.5365      2.3391     70.2803      1.1163      0.9597      0.9185      0.9237      0.9357      0.9530      0.0000      5.1517      3.7310      1.3812     13.6916     12.0503   5804.2666      3.2308   1368.6969     95.2937
   3359.7500      8.3750    847.2936     92.5358     92.3224      2.3591     69.8208      1.1485      0.9809      0.9379      0.9448      0.9575      0.9760      0.0000      4.9982      3.6043      1.3868     13.7082     11.7908   5783.0132      3.2715   1368.8114     95.2945
   3359.8750      8.3750    841.0283     93.7293     93.5390      2.4233     71.8986      1.1575      0.9862      0.9431      0.9515      0.9645      0.9839      0.0000      4.9377      3.8340      1.2885     13.7028     11.9656   5756.8828      3.1219   1381.7090     95.2944
   3360.0000      8.3750    831.9246     95.4084     95.3920      2.5348     75.9757      1.1552      0.9853      0.9431      0.9529      0.9661      0.9859      0.0000      4.9596      4.5368      1.0970     13.6554     12.5718   5735.7510      2.7783   1400.1329     95.2937
   3360.1250      8.3750    822.2167     97.1892     97.2425      2.6604     80.4452      1.1486      0.9834      0.9426      0.9539      0.9671      0.9874      0.0000      5.0067      5.5747      0.8994     13.5920     13.3197   5720.7002      2.3921   1407.3469     95.2954
   3360.2500      8.3750    814.2219     98.5560     98.4548      2.7587     83.6679      1.1406      0.9828      0.9439      0.9567      0.9700      0.9907      0.0000      5.0489      6.6164      0.7641     13.5494     13.9285   5708.1602      2.1073   1400.9150     95.2935
   3360.3750      8.3750    808.1513     99.2028     98.9468      2.8107     85.3422      1.1491      0.9961      0.9584      0.9729      0.9867      1.0082      0.0000      5.1105      7.3818      0.6928     13.5360     14.3646   5700.0400      1.9471   1393.3680     95.2948
   3360.5000      8.3750    803.6059     99.0489     98.8115      2.8238     86.1749      1.1613      1.0128      0.9765      0.9928      1.0070      1.0293      0.0000      5.2457      8.1366      0.6448     13.5296     14.8125   5702.9009      1.8207   1389.0278     95.2942
   3360.6250      8.3750    803.3709     98.5160     98.4737      2.7847     86.7507      1.1586      1.0174      0.9833      1.0010      1.0151      1.0373      0.0000      5.5446      9.1025      0.6095     13.5103     15.4386   5716.9780      1.6973   1387.4381     95.2939
   3360.7500      8.3750    807.6365     98.1350     98.2083      2.7031     87.4177      1.1429      1.0104      0.9789      0.9972      1.0107      1.0318      0.0000      6.0155     10.4008      0.5787     13.4900     16.2558   5730.9692      1.5645   1388.6295     95.2951
   3360.8750      8.3750    813.0391     97.4466     97.4286      2.6058     87.6405      1.1314      1.0050      0.9755      0.9939      1.0066      1.0264      0.0000      6.5892     12.0234      0.5481     13.4906     17.1693   5737.1367      1.4282   1395.4655     95.2955
   3361.0000      8.3750    818.3641     96.4631     96.3015      2.5410     87.5334      1.1616      1.0312      1.0010      1.0200      1.0322      1.0514      0.0000      7.0615     13.8733      0.5094     13.5237     17.9419   5733.9536      1.2946   1401.2957     95.3169
   3361.1250      8.3750    825.6414     96.0666     95.8935      2.5217     87.7611      1.2445      1.0974      1.0628      1.0830      1.0951      1.1147      0.0000      7.3003     15.2164      0.4798     13.5633     18.4089   5725.4897      1.2099   1396.6666     95.3426
   3361.2500      8.3750    833.6371     97.5251     97.4437      2.5558     88.9893      1.3320      1.1637      1.1229      1.1430      1.1542      1.1736      0.0000      7.1864     14.7367      0.4877     13.5860     18.3666   5710.6221      1.2466   1384.0485     95.3393
   3361.3750      8.3750    834.2407    100.7912    100.7359      2.6428     90.2833      1.3451      1.1684      1.1236      1.1401      1.1485      1.1652      0.0000      6.6402     11.7116      0.5696     13.5971     17.5421   5693.4785      1.5064   1376.5039     95.2925
   3361.5000      8.3750    825.0471    103.4826    103.3882      2.7507     90.4162      1.3075      1.1315      1.0847      1.0959      1.1006      1.1133      0.0000      5.9400      8.8987      0.6684     13.6154     16.3358   5684.0952      1.8391   1377.5266     95.2331
   3361.6250      8.3750    810.8936    103.9858    103.9193      2.8512     89.2835      1.2271      1.0615      1.0153      1.0210      1.0222      1.0307      0.0000      5.3481      7.3592      0.7270     13.6371     15.2452   5686.8184      2.0731   1383.5035     95.2021
   3361.7500      8.3750    799.4927    103.0869    103.1380      2.9514     88.1290      1.1834      1.0205      0.9730      0.9742      0.9725      0.9779      0.0000      4.8890      6.7353      0.7258     13.6415     14.4254   5698.4072      2.1418   1384.3418     95.2052
   3361.8750      8.3750    794.6348    101.9484    102.0463      3.0512     87.3509      1.2409      1.0556      0.9999      0.9974      0.9926      0.9958      0.0000      4.5163      6.5159      0.6931     13.6331     13.7795   5710.0503      2.1148   1377.3992     95.2411
   3362.0000      8.3750    798.2681    101.4767    101.4120      3.1215     87.4576      1.3129      1.1007      1.0357      1.0299      1.0216      1.0228      0.0000      4.3139      6.6883      0.6451     13.6354     13.4652   5711.2959      2.0136   1368.7133     95.3025
   3362.1250      8.3750    805.6465    102.1627    101.8636      3.1533     88.7160      1.3510      1.1216      1.0505      1.0420      1.0307      1.0299      0.0000      4.2628      7.1524      0.5964     13.6528     13.4420   5702.3970      1.8805   1373.8511     95.3418
   3362.2500      8.3750    810.9044    103.9118    103.4457      3.1587     91.0231      1.4357      1.1749      1.0946      1.0838      1.0686      1.0659      0.0000      4.2907      7.7931      0.5506     13.6721     13.5529   5694.3828      1.7391   1393.5676     95.3409
