~Version Information
 VERS.                2.00:   CWLS log ASCII Standard -VERSION 2.00
 WRAP.                  NO:   One line per frame      
~Well Information Block
#MNEM.UNIT                   Data                   Description
#----.----   ------------------------------------   -------------------------------
 STRT.M                                 3253.6250 : Starting Depth
 STOP.M                                 3396.1250 : Ending Depth
 STEP.M                                    0.1250 : Level Spacing
 NULL.                                  -999.2500 : Absent Value
 COMP.       GDF SUEZ                             : Company
 WELL.       L5-13                                : Well
 FLD .       L5 OIL                               : Field
 LOC .       LAT: 53 48'40.57" N                  : Location
 PROV.       NOBLE PIET V EDE                     : Province
 SRVC.       Baker Atlas                          : Service Company
 LIC .                                            : License Number
 DATE.       3-JUN-2012                           : Log Date
 UWI .                                            : Unique Well ID
~Curve Information Block
#MNEM    .UNIT        API Codes     Curve Description
#--------.--------   LG--CV-CL--M   -------------------------------
 DEPT    .M          99 995 99  1 : Depth
 BIT     .in         70 282  1  1 : Bit size
 CHT     .lbf        99 635 99  1 : Cable head tension
 GR      .gAPI       30 310  1  1 : Gamma ray
 GRSL    .gAPI       30 310  1  1 : Gamma ray from 1329 spectrum
 K       .pct        31 719 99  1 : Potassium content
 KTH     .gAPI       31 995 99  1 : Stripped potassium-thorium
 M1R1    .ohm.m       8 120 10  1 : Vertical 1-foot resolution matched resistivity, 10-inch DOI
 M1R2    .ohm.m       8 120 20  1 : Vertical 1-foot resolution matched resistivity, 20-inch DOI
 M1R3    .ohm.m       8 120 30  1 : Vertical 1-foot resolution matched resistivity, 30-inch DOI
 M1R6    .ohm.m       8 120 60  1 : Vertical 1-foot resolution matched resistivity, 60-inch DOI
 M1R9    .ohm.m       8 120 90  1 : Vertical 1-foot resolution matched resistivity, 90-inch DOI
 M1RX    .ohm.m       8 120 90  1 : Vertical 1-foot resolution matched resistivity, 120-inch DOI
 QHDL    .lbf        99 995 99  1 : Quality for differential tension pulls for HDIL
 RTHK    .ppm/pct    31 995 99  1 : Ratio of thorium to potassium
 RTHU    .1          31 995 99  1 : Ratio of thorium to uranium
 RUK     .ppm/pct    31 995 99  1 : Ratio of uranium to potassium
 SPD     .m/min      99 636 99  1 : Speed
 TH      .ppm        31 790 99  1 : Thorium concentration
 TTEN    .lbf        99 635 99  1 : Total tension
 U       .ppm        31 792 99  1 : Uranium content
 WRM     .ohm.m      99 823 99  1 : Mud resistivity
 WTBH    .degC       99 995 99  1 : Temperature of borehole
~Parameter Information Block
#MNEM.UNIT                     Value                    Description
#----.----   ----------------------------------------   -------------------------------
 HIDE.       HIGH DEFINITION INDUCTION LOG            : Header Identifer
 HID1.       X-MULTIPOLE ARRAY ACOUSTILOG             : Header Identifer
 HID2.       GAMMA RAY LOG                            : Header Identifer
 CLAB.       RIG NAME                                 : County Label (Comments)
 SLAB.       COUNTRY                                  : State Label (Comments)
 STAT.       NETHERLANDS                              : State Or Province
 CMT1.       FINAL PRINT                              : Comment 1  
 CMT2.       SCALE 1:200/500                          : Comment 2  
 FL1 .       LON: 04 21'06.15"  E                     : Field Location 1
 OS1 .       ZDL/CN                                   : Other Services Line 1
 OS2 .       RCI                                      : Other Services Line 2
 OS3 .       BHP                                      : Other Services Line 3
 PDAT.       MSL                                      : Permanent Datum
 EPD .M      0                                        : Elevation Of Perm. Datum
 LMF .       DF                                       : Log Measured From
 APD .M      41.1                                     : Above Permanent Datum
 DMF .       DF                                       : Drilling Measured From
 EKB .M      41.1                                     : Elevation Of Kelly Bushing
 EDF .M      41.1                                     : Elevation Of Derrick Floor
 EGL .M      -42.0                                    : Elevation Of Ground Level
 TRIP.       5                                        : Trip Number
 SON .       13-168551                                : Service Order Number
 TDD .M      3491                                     : Total Depth - Driller
 BLI .M      3480                                     : Bottom Log Interval
 TLI .M      3296                                     : Top Log Interval
 CSIZ.IN     9.625                                    : Casing Size
 CBDR.M      3299                                     : Casing Bottom - Driller
 CBLO.M      3996.2                                   : Casing Bottom - Logger
 BS  .IN     8.375                                    : Bit Size
 DFT .       LTOBM                                    : Drilling Fluid Type
 DFD .G/C3   1.52                                     : Drilling Fluid Density
 DFV .S      25                                       : Drilling Fluid Viscosity
 DFL .M3     1.2                                      : Drilling Fluid Loss
 MSS .       FLOWLINE                                 : Mud Sample Source
 RMS .OHMM   >10                                      : Resistivity Of Mud Sample
 RMFS.OHMM   >10                                      : Resistivity Of Mud Filtrate Sample
 RMCS.OHMM   >10                                      : Resistivity Of Mud Cake Sample
 MFSS.       NA                                       : Mud Filtrate Sample Source
 MCSS.       NA                                       : Mud Cake Sample Source
 RMB .OHMM   >10                                      : Mud Resistivity At Bht
 TSC .       36 HRS                                   : Time Since Circulation
 MRT .DEGC   104                                      : Maximum Recorded Temperature
 LUN .       8934                                     : Logging Unit Number
 LUL .       DEN HELDER                               : Logging Unit Location
 ENGI.       A. WIEFKERS/H. V DIJKEN                  : Engineer's Name
 WITN.       P. GERRITSEN                             : Witness' Name
 TSTR.       HDIL/XMAC/GR                             : Title Service Mnemonic
 TSTG.       NA                                       : Title Service Mnemonic
 STUS.       FINAL                                    : Status
 LCNM.       BAKER ATLAS                              : Logging Company Name
 LCC .       150                                      : Logging Company Code
 OPMD.       OH.WIRE                                  : Operation Mode
 PANA.       A. WIEFKERS/H. V DIJKEN                  : Processing Analyst
 PCON.       BAKER ATLAS                              : Processing Contractor
 APIN.                                                : API Serial Number
~Other information
DEPTH AUDIT:                                                                    
- ALL DEPTHS ARE REFERENCED TO DRILL FLOOR.                                     
- TOOLS DEPLOYED BY DRILL PIPE USING BAKER ATLAS PCL EQUIPMENT WITH CONSTANT    
  TENSION DEVICE.                                                               
GENERAL:                                                                        
- LAST CIRCULATION ON 04-JUN-2013 AT 02:30 HRS.                                 
- MAXIMUM RECORDED TEMPERATURE FROM TTRM SUB IS 104 DEGC AT 3441 M              
- MAXIMUM RECORDED DEVIATION IS 32 DEG AT 3421 FROM ORIT SUB.                   
- TOOLSTRING RUN  A5 PCL/DSL/CN/ZDL/MREX/KNJT/ORIT/XMAC/WGI/HDIL/CENT           
- DSL AND WGI RECORDED SIMULTANEOUS BUT PRESENTED UNDER SEPARATE HEADINGS       
- ADDITIONAL MUD PROPERTIES: WHOLE MUD SALINITY = 26000 MG/L                    
                             CORRECTED SOLIDS = 28 %                            
                             YP = 22 LB/100FT2                                  
                             PV = 14 CP                                         
                             OIL/WATER RATIO 80/20                              
- RUNS A1-A2-A3-A4 WIRELINE RUN WITH DIFFERENT TOOL CONFIGURATIONS. UNABLE TO   
  REACH TD, HUD 3393 M. ONLY ON RUN A2 DATA RECORDED FROM 3393 UPTO THE CASING  
  SHOE. DATA NOT PRESENTED.                                                     
- DATA RECORDED IN DOWNWARDS DIRECTION. NO UP LOG DATA AVAILABLE DUE TO TOOL    
  FAILURE (PARTING OF 3218MB MANDREL).                                          
- TOOL DEPLOYMENT INTO OPEN HOLE WAS NOT SMOOTH, DATA RECORDED IN TWO FILES     
  DATA SPLICE AT 3360 M.                                                        
GR:                                                                             
- GAMARAY RECORDED IN SPECTRAL MODE, DSL DATA NOT PRESENTED.                    
- GAMMA RAY READING HIGH DUE TO FORMATION ACTIVATION FROM CN/ZDL TOOLS.         
CN:                                                                             
-RECORDED IN SAME PASS, DATA PRESENTED UNDER SEPERATE HEADER.                   
ZDL:                                                                            
-RECORDED IN SAME PASS, DATA PRESENTED UNDER SEPERATE HEADER.                   
MREX:                                                                           
- NO DATA RECORDED.                                                             
XMAC-F1:                                                                        
- XMAC-F1 WAS RUN CENTRALISED.                                                  
- XMAC-F1 RUN IN SUBSET 1: FULLWAVE MONOPOLE AND CROSS DIPOLE.                  
- DT24QI IS THE COMPRESSIONAL DT DERIVED FROM SURFACE PICKED FIRST ARRIVALS.    
  DTCQI IS THE WAVE AVAN PROCESSED COMPRESSIONAL DT DERIVED FROM THE FULLWAVE   
  MONOPOLE DATA.                                                                
  DTSQI IS THE WAVE AVAN PROCESSED SHEAR DT DERIVED FROM THE FULLWAVE MONOPOLE  
  DATA.                                                                         
  DTSTQI IS THE WAVE AVAN PROCESSED STONELY DT DERIVED FROM THE FULLWAVE        
  MONOPOLE DATA.                                                                
  DTXXQI AND DTYYQI ARE THE ESTIMATED DIRECTIONAL DT DERIVED FROM THE DIPOLE    
  FULLWAVE DATA USING WAVE AVAN PROCESSING.                                     
- TOTAL INTEGRATED TRAVEL TIME FROM LAST READING DT TO CASING SHOE: 50.4 MS.    
- TOOL STRING CENTRALIZATION OPTIMIZED FOR 8 3/8" HOLE.                         
WGI (6CAL):                                                                     
- CALIPER CURVE (CHADW) PRESENTED IS FROM WGI.                                  
- AT 3360 M CALIPER ARMS 2 AND 5 MOST LIKELY GOT DAMAGED                        
HDIL:                                                                           
- HDIL IS TEMPERATURE CORRECTED                                                 
- HDIL TOOL WAS RUN CENTRALISED.                                                
- PRESENTED ARE THE 1FT MATCHED RESOLUTION CURVES (M1R?)                        
- HDIL PROCESSING AND CENTRALIZATION OPTIMIZED FOR 8 3/8" HOLE .                
#  Curve Data
~A  DEPT        BIT         CHT         GR          GRSL        K           KTH         M1R1        M1R2        M1R3        M1R6        M1R9        M1RX        QHDL        RTHK        RTHU        RUK         SPD         TH          TTEN        U           WRM         WTBH      
# ...
   3268.1250      8.3750    800.8422     44.9975     44.7500      1.4287     40.3258      0.0691      0.2778    161.5544   2002.1200   2001.5378   2008.0919      0.0000      4.5512     10.0369      0.4534     14.3837      6.5024   5512.0137      0.6478   1324.6934     95.9377
   3268.2500      8.3750    803.9447     45.0648     44.8731      1.4245     39.9239      0.0715      0.2757     15.7401   1988.9454   2006.2357   2003.0603      0.0000      4.6204      8.9895      0.5161     14.3787      6.5815   5507.6680      0.7350   1325.2874     95.9568
   3268.3750      8.3750    807.2621     43.7156     43.6804      1.3858     37.6129      0.0720      0.2633      6.0378   1888.4152   1982.6150   2005.0836      0.0000      4.7043      6.9675      0.6766     14.3873      6.5190   5510.2222      0.9373   1329.9918     95.9382
   3268.5000      8.3750    810.4271     42.2408     42.2892      1.3165     34.6320      0.0708      0.2465      3.5404    490.2306    737.1265   1995.4546      0.0000      4.8250      5.1763      0.9389     14.4254      6.3511   5521.2178      1.2343   1342.8169     95.8865
   3268.6250      8.3750    813.0388     41.9914     41.9918      1.2367     32.4186      0.0688      0.2320      2.4999     24.2252     40.2328   1903.4583      0.0000      4.9526      3.9340      1.2678     14.4673      6.1237   5534.9541      1.5649   1359.1169     95.8457
   3268.7500      8.3750    814.3094     42.9350     42.8362      1.1293     30.5602      0.0667      0.2219      2.0382     10.8759     13.8934   1553.1267      0.0000      5.1863      2.9529      1.7575     14.4692      5.8567   5545.8892      1.9843   1367.8711     95.8490
   3268.8750      8.3750    814.0654     44.6359     44.5175      0.9796     28.5556      0.0649      0.2164      1.8750      8.2840      9.6433    904.0938      0.0000      5.7437      2.2508      2.5725     14.4108      5.6168   5545.7559      2.5071   1358.2482     95.8960
   3269.0000      8.3750    812.9153     46.3168     46.2635      0.8367     26.9059      0.0633      0.2139      1.8649      7.9225      8.9823    440.6890      0.0000      6.5779      1.8658      3.5324     14.3442      5.4973   5538.1963      2.9488   1338.4778     95.9237
   3269.1250      8.3750    811.5655     47.5028     47.5398      0.7511     26.1444      0.0620      0.2131      1.9758      9.1240     10.6188    322.3868      0.0000      7.2794      1.7207      4.2315     14.3040      5.4660   5527.9937      3.1769   1329.6066     95.8811
   3269.2500      8.3750    811.0874     47.1117     47.2035      0.7331     25.6659      0.0611      0.2138      2.2166     12.9650     16.2579    333.3285      0.0000      7.3857      1.6892      4.3722     14.2759      5.4142   5523.7241      3.2051   1349.8629     95.7828
   3269.3750      8.3750    811.6471     45.2010     45.2680      0.7619     24.8862      0.0604      0.2152      2.5857     23.7786     33.6752    495.6121      0.0000      6.8952      1.6756      4.1150     14.2428      5.2508   5529.0098      3.1337   1383.2845     95.7171
   3269.5000      8.3750    813.4341     43.4140     43.3996      0.8330     24.5513      0.0601      0.2176      3.1160     78.8025    130.6717   1165.4651      0.0000      6.0113      1.6697      3.6002     14.2169      5.0033   5540.3604      2.9966   1397.4022     95.7385
   3269.6250      8.3750    815.7831     43.4223     43.3732      0.9467     25.8081      0.0602      0.2207      3.7810   1165.3302   1311.9961   1915.1455      0.0000      5.0450      1.7133      2.9480     14.1994      4.7635   5548.2007      2.7816   1374.9294     95.8075
   3269.7500      8.3750    817.3876     44.5294     44.4999      1.1128     28.4906      0.0609      0.2240      4.4147   1983.1920   1990.2714   1996.2117      0.0000      4.0719      1.8331      2.2237     14.1732      4.5250   5549.1045      2.4697   1338.9700     95.8649
   3269.8750      8.3750    817.9042     45.3925     45.3533      1.3191     31.5241      0.0618      0.2263      4.6941   1994.2645   1996.9237   1999.2916      0.0000      3.2394      2.0306      1.5995     14.1303      4.2621   5546.9707      2.1017   1319.8335     95.8962
   3270.0000      8.3750    818.6970     45.7030     45.5898      1.4985     33.7446      0.0626      0.2261      4.4094   1989.6785   1994.0463   1999.5256      0.0000      2.6814      2.2320      1.2034     14.0922      4.0129   5547.1465      1.7997   1322.4740     95.9058
   3270.1250      8.3750    820.5816     46.1838     46.0184      1.6187     35.4890      0.0631      0.2231      3.7679   1915.7970   1931.1798   1970.1558      0.0000      2.3665      2.4149      0.9801     14.0807      3.8305   5547.5176      1.5863   1339.0679     95.8811
   3270.2500      8.3750    822.4070     46.6381     46.5428      1.6812     36.8986      0.0631      0.2177      3.0840    222.2314    262.5513    576.8546      0.0000      2.2308      2.6265      0.8502     14.1086      3.7501   5545.0552      1.4289   1359.0469     95.8379
   3270.3750      8.3750    821.0288     45.7441     45.7413      1.6691     36.7066      0.0624      0.2112      2.5336     34.2621     35.9850     76.3228      0.0000      2.2588      2.8124      0.8031     14.1559      3.7693   5544.0430      1.3402   1369.2284     95.8177
   3270.5000      8.3750    815.1926     43.0614     43.0919      1.5514     33.8462      0.0614      0.2045      2.1452     16.2978     16.0683     30.7510      0.0000      2.4710      2.7056      0.9135     14.1937      3.8329   5543.4966      1.4168   1362.4528     95.8160
   3270.6250      8.3750    806.2017     40.0610     40.0888      1.3918     30.0826      0.0599      0.1982      1.9008     10.9956     10.6122     18.6614      0.0000      2.8058      2.4302      1.1572     14.1858      3.9006   5533.7847      1.6071   1344.8169     95.8174
   3270.7500      8.3750    797.1987     39.0724     39.1313      1.2845     28.2234      0.0582      0.1926      1.7580      8.7590      8.3927     13.7615      0.0000      3.0893      2.2349      1.3829     14.1403      3.9674   5514.9565      1.7757   1332.0470     95.8359
   3270.8750      8.3750    790.8531     40.9183     41.0261      1.2484     28.9314      0.0565      0.1879      1.7014      8.0190      7.6692     11.9594      0.0000      3.2502      2.1371      1.5210     14.0821      4.0574   5501.3564      1.8987   1328.9042     95.8884
   3271.0000      8.3750    788.7494     44.1009     44.1699      1.2974     31.2602      0.0548      0.1844      1.7224      8.2530      7.8826     11.8610      0.0000      3.2148      2.1465      1.4981     14.0423      4.1697   5505.8008      1.9426   1328.8099     95.9428
   3271.1250      8.3750    788.8452     46.8868     46.8306      1.4163     34.2185      0.0534      0.1826      1.8151      9.3618      8.9072     13.0667      0.0000      3.0054      2.3000      1.3079     14.0338      4.2551   5521.1626      1.8509   1329.8113     95.9547
   3271.2500      8.3750    789.2934     48.2032     48.0858      1.5436     36.6039      0.0525      0.1829      1.9827     11.6140     10.9404     15.8026      0.0000      2.7670      2.5541      1.0847     14.0526      4.2695   5536.8379      1.6729   1335.7395     95.9242
   3271.3750      8.3750    790.0887     48.2364     48.1857      1.6398     37.9498      0.0520      0.1847      2.2076     15.2895     14.0951     20.2718      0.0000      2.5702      2.8213      0.9124     14.0797      4.2130   5552.5415      1.4948   1346.6467     95.8769
   3271.5000      8.3750    792.1579     47.2577     47.2985      1.7338     38.6278      0.0519      0.1869      2.4453     20.1841     17.9633     26.0623      0.0000      2.3688      3.1975      0.7418     14.1076      4.1066   5568.1147      1.2856   1361.4077     95.8231
   3271.6250      8.3750    794.9824     45.5799     45.6110      1.8073     38.7814      0.0518      0.1885      2.6149     24.7959     21.0045     31.1779      0.0000      2.2486      3.9341      0.5739     14.1362      4.0637   5577.2651      1.0366   1379.3890     95.7796
