~Version Information
 VERS.                2.00:   CWLS log ASCII Standard -VERSION 2.00
 WRAP.                  NO:   One line per frame      
~Well Information Block
#MNEM.UNIT                   Data                   Description
#----.----   ------------------------------------   -------------------------------
 STRT.M                                 3253.6250 : Starting Depth
 STOP.M                                 3396.1250 : Ending Depth
 STEP.M                                    0.1250 : Level Spacing
 NULL.                                  -999.2500 : Absent Value
 COMP.       GDF SUEZ                             : Company
 WELL.       L5-13                                : Well
 FLD .       L5 OIL                               : Field
 LOC .       LAT: 53 48'40.57" N                  : Location
 PROV.       NOBLE PIET V EDE                     : Province
 SRVC.       Baker Atlas                          : Service Company
 LIC .                                            : License Number
 DATE.       3-JUN-2012                           : Log Date
 UWI .                                            : Unique Well ID
~Curve Information Block
#MNEM    .UNIT        API Codes     Curve Description
#--------.--------   LG--CV-CL--M   -------------------------------
 DEPT    .M          99 995 99  1 : Depth
 BIT     .in         70 282  1  1 : Bit size
 CHT     .lbf        99 635 99  1 : Cable head tension
 GR      .gAPI       30 310  1  1 : Gamma ray
 GRSL    .gAPI       30 310  1  1 : Gamma ray from 1329 spectrum
 K       .pct        31 719 99  1 : Potassium content
 KTH     .gAPI       31 995 99  1 : Stripped potassium-thorium
 M1R1    .ohm.m       8 120 10  1 : Vertical 1-foot resolution matched resistivity, 10-inch DOI
 M1R2    .ohm.m       8 120 20  1 : Vertical 1-foot resolution matched resistivity, 20-inch DOI
 M1R3    .ohm.m       8 120 30  1 : Vertical 1-foot resolution matched resistivity, 30-inch DOI
 M1R6    .ohm.m       8 120 60  1 : Vertical 1-foot resolution matched resistivity, 60-inch DOI
 M1R9    .ohm.m       8 120 90  1 : Vertical 1-foot resolution matched resistivity, 90-inch DOI
 M1RX    .ohm.m       8 120 90  1 : Vertical 1-foot resolution matched resistivity, 120-inch DOI
 QHDL    .lbf        99 995 99  1 : Quality for differential tension pulls for HDIL
 RTHK    .ppm/pct    31 995 99  1 : Ratio of thorium to potassium
 RTHU    .1          31 995 99  1 : Ratio of thorium to uranium
 RUK     .ppm/pct    31 995 99  1 : Ratio of uranium to potassium
 SPD     .m/min      99 636 99  1 : Speed
 TH      .ppm        31 790 99  1 : Thorium concentration
 TTEN    .lbf        99 635 99  1 : Total tension
 U       .ppm        31 792 99  1 : Uranium content
 WRM     .ohm.m      99 823 99  1 : Mud resistivity
 WTBH    .degC       99 995 99  1 : Temperature of borehole
~Parameter Information Block
#MNEM.UNIT                     Value                    Description
#----.----   ----------------------------------------   -------------------------------
 HIDE.       HIGH DEFINITION INDUCTION LOG            : Header Identifer
 HID1.       X-MULTIPOLE ARRAY ACOUSTILOG             : Header Identifer
 HID2.       GAMMA RAY LOG                            : Header Identifer
 CLAB.       RIG NAME                                 : County Label (Comments)
 SLAB.       COUNTRY                                  : State Label (Comments)
 STAT.       NETHERLANDS                              : State Or Province
 CMT1.       FINAL PRINT                              : Comment 1  
 CMT2.       SCALE 1:200/500                          : Comment 2  
 FL1 .       LON: 04 21'06.15"  E                     : Field Location 1
 OS1 .       ZDL/CN                                   : Other Services Line 1
 OS2 .       RCI                                      : Other Services Line 2
 OS3 .       BHP                                      : Other Services Line 3
 PDAT.       MSL                                      : Permanent Datum
 EPD .M      0                                        : Elevation Of Perm. Datum
 LMF .       DF                                       : Log Measured From
 APD .M      41.1                                     : Above Permanent Datum
 DMF .       DF                                       : Drilling Measured From
 EKB .M      41.1                                     : Elevation Of Kelly Bushing
 EDF .M      41.1                                     : Elevation Of Derrick Floor
 EGL .M      -42.0                                    : Elevation Of Ground Level
 TRIP.       5                                        : Trip Number
 SON .       13-168551                                : Service Order Number
 TDD .M      3491                                     : Total Depth - Driller
 BLI .M      3480                                     : Bottom Log Interval
 TLI .M      3296                                     : Top Log Interval
 CSIZ.IN     9.625                                    : Casing Size
 CBDR.M      3299                                     : Casing Bottom - Driller
 CBLO.M      3996.2                                   : Casing Bottom - Logger
 BS  .IN     8.375                                    : Bit Size
 DFT .       LTOBM                                    : Drilling Fluid Type
 DFD .G/C3   1.52                                     : Drilling Fluid Density
 DFV .S      25                                       : Drilling Fluid Viscosity
 DFL .M3     1.2                                      : Drilling Fluid Loss
 MSS .       FLOWLINE                                 : Mud Sample Source
 RMS .OHMM   >10                                      : Resistivity Of Mud Sample
 RMFS.OHMM   >10                                      : Resistivity Of Mud Filtrate Sample
 RMCS.OHMM   >10                                      : Resistivity Of Mud Cake Sample
 MFSS.       NA                                       : Mud Filtrate Sample Source
 MCSS.       NA                                       : Mud Cake Sample Source
 RMB .OHMM   >10                                      : Mud Resistivity At Bht
 TSC .       36 HRS                                   : Time Since Circulation
 MRT .DEGC   104                                      : Maximum Recorded Temperature
 LUN .       8934                                     : Logging Unit Number
 LUL .       DEN HELDER                               : Logging Unit Location
 ENGI.       A. WIEFKERS/H. V DIJKEN                  : Engineer's Name
 WITN.       P. GERRITSEN                             : Witness' Name
 TSTR.       HDIL/XMAC/GR                             : Title Service Mnemonic
 TSTG.       NA                                       : Title Service Mnemonic
 STUS.       FINAL                                    : Status
 LCNM.       BAKER ATLAS                              : Logging Company Name
 LCC .       150                                      : Logging Company Code
 OPMD.       OH.WIRE                                  : Operation Mode
 PANA.       A. WIEFKERS/H. V DIJKEN                  : Processing Analyst
 PCON.       BAKER ATLAS                              : Processing Contractor
 APIN.                                                : API Serial Number
~Other information
DEPTH AUDIT:                                                                    
- ALL DEPTHS ARE REFERENCED TO DRILL FLOOR.                                     
- TOOLS DEPLOYED BY DRILL PIPE USING BAKER ATLAS PCL EQUIPMENT WITH CONSTANT    
  TENSION DEVICE.                                                               
GENERAL:                                                                        
- LAST CIRCULATION ON 04-JUN-2013 AT 02:30 HRS.                                 
- MAXIMUM RECORDED TEMPERATURE FROM TTRM SUB IS 104 DEGC AT 3441 M              
- MAXIMUM RECORDED DEVIATION IS 32 DEG AT 3421 FROM ORIT SUB.                   
- TOOLSTRING RUN  A5 PCL/DSL/CN/ZDL/MREX/KNJT/ORIT/XMAC/WGI/HDIL/CENT           
- DSL AND WGI RECORDED SIMULTANEOUS BUT PRESENTED UNDER SEPARATE HEADINGS       
- ADDITIONAL MUD PROPERTIES: WHOLE MUD SALINITY = 26000 MG/L                    
                             CORRECTED SOLIDS = 28 %                            
                             YP = 22 LB/100FT2                                  
                             PV = 14 CP                                         
                             OIL/WATER RATIO 80/20                              
- RUNS A1-A2-A3-A4 WIRELINE RUN WITH DIFFERENT TOOL CONFIGURATIONS. UNABLE TO   
  REACH TD, HUD 3393 M. ONLY ON RUN A2 DATA RECORDED FROM 3393 UPTO THE CASING  
  SHOE. DATA NOT PRESENTED.                                                     
- DATA RECORDED IN DOWNWARDS DIRECTION. NO UP LOG DATA AVAILABLE DUE TO TOOL    
  FAILURE (PARTING OF 3218MB MANDREL).                                          
- TOOL DEPLOYMENT INTO OPEN HOLE WAS NOT SMOOTH, DATA RECORDED IN TWO FILES     
  DATA SPLICE AT 3360 M.                                                        
GR:                                                                             
- GAMARAY RECORDED IN SPECTRAL MODE, DSL DATA NOT PRESENTED.                    
- GAMMA RAY READING HIGH DUE TO FORMATION ACTIVATION FROM CN/ZDL TOOLS.         
CN:                                                                             
-RECORDED IN SAME PASS, DATA PRESENTED UNDER SEPERATE HEADER.                   
ZDL:                                                                            
-RECORDED IN SAME PASS, DATA PRESENTED UNDER SEPERATE HEADER.                   
MREX:                                                                           
- NO DATA RECORDED.                                                             
XMAC-F1:                                                                        
- XMAC-F1 WAS RUN CENTRALISED.                                                  
- XMAC-F1 RUN IN SUBSET 1: FULLWAVE MONOPOLE AND CROSS DIPOLE.                  
- DT24QI IS THE COMPRESSIONAL DT DERIVED FROM SURFACE PICKED FIRST ARRIVALS.    
  DTCQI IS THE WAVE AVAN PROCESSED COMPRESSIONAL DT DERIVED FROM THE FULLWAVE   
  MONOPOLE DATA.                                                                
  DTSQI IS THE WAVE AVAN PROCESSED SHEAR DT DERIVED FROM THE FULLWAVE MONOPOLE  
  DATA.                                                                         
  DTSTQI IS THE WAVE AVAN PROCESSED STONELY DT DERIVED FROM THE FULLWAVE        
  MONOPOLE DATA.                                                                
  DTXXQI AND DTYYQI ARE THE ESTIMATED DIRECTIONAL DT DERIVED FROM THE DIPOLE    
  FULLWAVE DATA USING WAVE AVAN PROCESSING.                                     
- TOTAL INTEGRATED TRAVEL TIME FROM LAST READING DT TO CASING SHOE: 50.4 MS.    
- TOOL STRING CENTRALIZATION OPTIMIZED FOR 8 3/8" HOLE.                         
WGI (6CAL):                                                                     
- CALIPER CURVE (CHADW) PRESENTED IS FROM WGI.                                  
- AT 3360 M CALIPER ARMS 2 AND 5 MOST LIKELY GOT DAMAGED                        
HDIL:                                                                           
- HDIL IS TEMPERATURE CORRECTED                                                 
- HDIL TOOL WAS RUN CENTRALISED.                                                
- PRESENTED ARE THE 1FT MATCHED RESOLUTION CURVES (M1R?)                        
- HDIL PROCESSING AND CENTRALIZATION OPTIMIZED FOR 8 3/8" HOLE .                
#  Curve Data
~A  DEPT        BIT         CHT         GR          GRSL        K           KTH         M1R1        M1R2        M1R3        M1R6        M1R9        M1RX        QHDL        RTHK        RTHU        RUK         SPD         TH          TTEN        U           WRM         WTBH      
# ...
   3286.2500      8.3750    826.1715     44.2749     44.1493      1.1203     32.2886      0.0775      0.2839      4.2611     84.3915    162.7763   1470.3372      0.0000      4.0421      2.7979      1.4516     13.8073      4.5263   5550.1641      1.6223   1391.6250     95.6700
   3286.3750      8.3750    824.4792     46.0387     45.8841      1.2046     34.9661      0.0775      0.2861      4.5976    753.3579   1333.4155   1989.2002      0.0000      3.8527      3.1908      1.2081     13.8121      4.6404   5558.1265      1.4548   1379.7657     95.6345
   3286.5000      8.3750    820.6530     45.6094     45.5001      1.2440     35.1747      0.0779      0.2898      5.1057   1963.7709   1987.5547   1993.5983      0.0000      3.6990      3.3079      1.1183     13.8289      4.6015   5568.6206      1.3911   1367.4302     95.6349
   3286.6250      8.3750    815.9691     43.4105     43.3810      1.2549     33.2857      0.0787      0.2950      5.7419   1986.8041   1988.6680   1994.7518      0.0000      3.5128      3.0982      1.1343     13.8622      4.4083   5573.7632      1.4235   1358.3572     95.6848
   3286.7500      8.3750    811.2535     41.2416     41.2383      1.2391     30.9309      0.0801      0.3012      6.3431   1989.9921   1992.6062   1995.7668      0.0000      3.3822      2.7523      1.2299     13.9158      4.1911   5573.8750      1.5237   1362.4065     95.7416
   3286.8750      8.3750    806.7469     40.3821     40.3340      1.1981     29.3560      0.0822      0.3078      6.7150   1991.6010   1994.3647   1997.3021      0.0000      3.4162      2.4684      1.3848     13.9771      4.0929   5571.7124      1.6587   1382.4690     95.7760
   3287.0000      8.3750    803.7162     41.0130     40.9386      1.1360     28.8390      0.0846      0.3128      6.6092   1993.1488   1995.9458   1998.9128      0.0000      3.6958      2.3134      1.5986     14.0236      4.1957   5567.7754      1.8143   1401.0995     95.7960
   3287.1250      8.3750    803.2259     42.3972     42.3811      1.0628     29.0417      0.0868      0.3145      6.2159   1993.9923   1996.8281   1999.8309      0.0000      4.2766      2.3102      1.8506     14.0520      4.5431   5557.9263      1.9663   1400.5938     95.8176
   3287.2500      8.3750    805.1744     44.0919     44.1552      1.0034     30.1302      0.0879      0.3115      5.6840   1993.3827   1996.2653   1999.3044      0.0000      5.1125      2.5259      2.0231     14.0729      5.1268   5545.7021      2.0295   1378.2834     95.8374
   3287.3750      8.3750    808.5808     45.3507     45.4567      0.9753     31.7847      0.0880      0.3059      5.2892   1991.8914   1994.8201   1997.9103      0.0000      5.9430      2.9671      2.0051     14.1012      5.7953   5542.5068      1.9557   1350.9297     95.8408
   3287.5000      8.3750    814.2058     45.4198     45.5098      0.9704     33.3074      0.0878      0.3013      5.1550   1990.7253   1993.1929   1996.8647      0.0000      6.7256      3.7054      1.8168     14.1257      6.5264   5551.9272      1.7629   1329.9524     95.8298
   3287.6250      8.3750    820.5600     44.2708     44.2412      0.9824     34.5590      0.0878      0.2999      5.2453   1990.6462   1988.4833   1997.1814      0.0000      7.5542      5.1502      1.4768     14.1197      7.4219   5570.7476      1.4502   1324.8019     95.7975
   3287.7500      8.3750    822.3273     43.5182     43.3319      0.9970     36.0534      0.0880      0.3009      5.3849   1990.6621   1989.3098   1998.6884      0.0000      8.3198      7.4676      1.1237     14.0827      8.2959   5589.9067      1.1201   1335.7123     95.7570
   3287.8750      8.3750    818.2108     44.0177     43.7544      1.0046     38.0106      0.0884      0.3015      5.1581   1990.2544   1995.5642   2000.5679      0.0000      8.8862     10.1806      0.8735     14.0378      8.9271   5599.5698      0.8775   1351.5081     95.7248
   3288.0000      8.3750    811.8395     45.0609     44.9126      0.9980     39.4447      0.0888      0.2986      4.3787    348.5266    459.5814   2002.3584      0.0000      9.1731     11.2364      0.8164     14.0127      9.1543   5591.0625      0.8147   1358.8086     95.7126
   3288.1250      8.3750    807.6755     45.4083     45.4592      0.9870     39.3198      0.0892      0.2910      3.3742     29.6580     36.6298   2004.1698      0.0000      9.1566     10.0025      0.9188     14.0033      9.0381   5576.9214      0.9067   1362.5155     95.6973
   3288.2500      8.3750    807.3503     45.3328     45.4664      0.9784     37.8492      0.0896      0.2782      2.4784     11.4091     12.8318   2006.5480      0.0000      8.7805      7.6200      1.1554     13.9971      8.5908   5575.0615      1.1303   1371.8318     95.6642
   3288.3750      8.3750    810.5872     45.3773     45.4453      0.9856     35.8458      0.0885      0.2592      1.8620      6.3281      7.0333   2002.2712      0.0000      7.9591      5.5145      1.4532     13.9894      7.8431   5587.7393      1.4328   1384.8198     95.6234
   3288.5000      8.3750    815.6873     45.3975     45.3636      1.0133     33.6033      0.0839      0.2332      1.4250      4.0800      4.7745   1839.7943      0.0000      6.7982      3.9053      1.7447     13.9850      6.8857   5596.1543      1.7685   1394.5579     95.5941
   3288.6250      8.3750    820.2081     45.1084     45.0093      1.0580     31.3906      0.0751      0.2023      1.1381      3.0443      3.9862   1360.3553      0.0000      5.6028      2.8550      1.9659     13.9905      5.9245   5583.9272      2.0804   1397.4420     95.5864
   3288.7500      8.3750    822.6102     45.0134     44.9284      1.1027     30.2806      0.0647      0.1745      0.9743      2.6567      4.2716    365.4948      0.0000      4.8300      2.3558      2.0503     14.0083      5.3241   5563.5137      2.2609   1393.2798     95.6043
   3288.8750      8.3750    823.6309     45.4830     45.4743      1.1369     30.7123      0.0561      0.1562      0.9395      2.9158      6.6818     21.1856      0.0000      4.5930      2.3037      1.9944     14.0309      5.2220   5554.4707      2.2674   1387.2992     95.6476
   3289.0000      8.3750    824.8867     45.8983     45.9631      1.1548     32.4173      0.0512      0.1512      1.0865      4.7309     22.2602     40.0139      0.0000      4.9678      2.7767      1.7935     14.0463      5.7374   5562.8877      2.0708   1384.2552     95.6982
   3289.1250      8.3750    826.3519     45.3376     45.3981      1.1707     34.3380      0.0493      0.1563      1.5185     22.6924    441.9672    539.4153      0.0000      5.7219      3.9181      1.4738     14.0475      6.6999   5576.7114      1.7248   1388.6865     95.7129
   3289.2500      8.3750    827.2506     44.3143     44.2867      1.1911     36.1817      0.0491      0.1668      2.6029    451.2289   1979.8322   1982.1196      0.0000      6.5947      5.9962      1.0998     14.0253      7.8552   5586.1216      1.3100   1403.1047     95.6899
   3289.3750      8.3750    829.0756     44.5457     44.4620      1.2296     39.4438      0.0494      0.1763      8.2499   1977.6722   1994.3125   1993.9629      0.0000      7.4373     11.6313      0.6675     13.9543      9.1486   5585.5439      0.8188   1420.7705     95.6670
   3289.5000      8.3750    832.4628     46.6608     46.6262      1.3024     44.9532      0.0494      0.1807    585.1486   1995.1010   1999.3950   1999.8391      0.0000      7.9812     92.6391      0.2061     13.8597     10.3965   5580.4492      0.2656   1432.4218     95.6658
   3289.6250      8.3750    833.9865     49.3531     49.4317      1.3916     49.4018      0.0491      0.1803   1935.7913   1992.0139   1996.1770   1998.9857      0.0000      8.0191   6288.8564      0.0033     13.7866     11.1593   5575.1123      0.0045   1433.1697     95.6800
   3289.7500      8.3750    828.4236     50.3945     50.5569      1.4506     50.5459      0.0488      0.1770   1879.1434   1996.3112   1996.4648   1979.6289      0.0000      7.6513   6680.5435      0.0011     13.7694     11.0972   5575.5552      0.0017   1424.2083     95.7024
