~Version Information
 VERS.                2.00:   CWLS log ASCII Standard -VERSION 2.00
 WRAP.                  NO:   One line per frame      
~Well Information Block
#MNEM.UNIT                   Data                   Description
#----.----   ------------------------------------   -------------------------------
 STRT.M                                 3253.6250 : Starting Depth
 STOP.M                                 3396.1250 : Ending Depth
 STEP.M                                    0.1250 : Level Spacing
 NULL.                                  -999.2500 : Absent Value
 COMP.       GDF SUEZ                             : Company
 WELL.       L5-13                                : Well
 FLD .       L5 OIL                               : Field
 LOC .       LAT: 53 48'40.57" N                  : Location
 PROV.       NOBLE PIET V EDE                     : Province
 SRVC.       Baker Atlas                          : Service Company
 LIC .                                            : License Number
 DATE.       3-JUN-2012                           : Log Date
 UWI .                                            : Unique Well ID
~Curve Information Block
#MNEM    .UNIT        API Codes     Curve Description
#--------.--------   LG--CV-CL--M   -------------------------------
 DEPT    .M          99 995 99  1 : Depth
 BIT     .in         70 282  1  1 : Bit size
 CHT     .lbf        99 635 99  1 : Cable head tension
 GR      .gAPI       30 310  1  1 : Gamma ray
 GRSL    .gAPI       30 310  1  1 : Gamma ray from 1329 spectrum
 K       .pct        31 719 99  1 : Potassium content
 KTH     .gAPI       31 995 99  1 : Stripped potassium-thorium
 M1R1    .ohm.m       8 120 10  1 : Vertical 1-foot resolution matched resistivity, 10-inch DOI
 M1R2    .ohm.m       8 120 20  1 : Vertical 1-foot resolution matched resistivity, 20-inch DOI
 M1R3    .ohm.m       8 120 30  1 : Vertical 1-foot resolution matched resistivity, 30-inch DOI
 M1R6    .ohm.m       8 120 60  1 : Vertical 1-foot resolution matched resistivity, 60-inch DOI
 M1R9    .ohm.m       8 120 90  1 : Vertical 1-foot resolution matched resistivity, 90-inch DOI
 M1RX    .ohm.m       8 120 90  1 : Vertical 1-foot resolution matched resistivity, 120-inch DOI
 QHDL    .lbf        99 995 99  1 : Quality for differential tension pulls for HDIL
 RTHK    .ppm/pct    31 995 99  1 : Ratio of thorium to potassium
 RTHU    .1          31 995 99  1 : Ratio of thorium to uranium
 RUK     .ppm/pct    31 995 99  1 : Ratio of uranium to potassium
 SPD     .m/min      99 636 99  1 : Speed
 TH      .ppm        31 790 99  1 : Thorium concentration
 TTEN    .lbf        99 635 99  1 : Total tension
 U       .ppm        31 792 99  1 : Uranium content
 WRM     .ohm.m      99 823 99  1 : Mud resistivity
 WTBH    .degC       99 995 99  1 : Temperature of borehole
~Parameter Information Block
#MNEM.UNIT                     Value                    Description
#----.----   ----------------------------------------   -------------------------------
 HIDE.       HIGH DEFINITION INDUCTION LOG            : Header Identifer
 HID1.       X-MULTIPOLE ARRAY ACOUSTILOG             : Header Identifer
 HID2.       GAMMA RAY LOG                            : Header Identifer
 CLAB.       RIG NAME                                 : County Label (Comments)
 SLAB.       COUNTRY                                  : State Label (Comments)
 STAT.       NETHERLANDS                              : State Or Province
 CMT1.       FINAL PRINT                              : Comment 1  
 CMT2.       SCALE 1:200/500                          : Comment 2  
 FL1 .       LON: 04 21'06.15"  E                     : Field Location 1
 OS1 .       ZDL/CN                                   : Other Services Line 1
 OS2 .       RCI                                      : Other Services Line 2
 OS3 .       BHP                                      : Other Services Line 3
 PDAT.       MSL                                      : Permanent Datum
 EPD .M      0                                        : Elevation Of Perm. Datum
 LMF .       DF                                       : Log Measured From
 APD .M      41.1                                     : Above Permanent Datum
 DMF .       DF                                       : Drilling Measured From
 EKB .M      41.1                                     : Elevation Of Kelly Bushing
 EDF .M      41.1                                     : Elevation Of Derrick Floor
 EGL .M      -42.0                                    : Elevation Of Ground Level
 TRIP.       5                                        : Trip Number
 SON .       13-168551                                : Service Order Number
 TDD .M      3491                                     : Total Depth - Driller
 BLI .M      3480                                     : Bottom Log Interval
 TLI .M      3296                                     : Top Log Interval
 CSIZ.IN     9.625                                    : Casing Size
 CBDR.M      3299                                     : Casing Bottom - Driller
 CBLO.M      3996.2                                   : Casing Bottom - Logger
 BS  .IN     8.375                                    : Bit Size
 DFT .       LTOBM                                    : Drilling Fluid Type
 DFD .G/C3   1.52                                     : Drilling Fluid Density
 DFV .S      25                                       : Drilling Fluid Viscosity
 DFL .M3     1.2                                      : Drilling Fluid Loss
 MSS .       FLOWLINE                                 : Mud Sample Source
 RMS .OHMM   >10                                      : Resistivity Of Mud Sample
 RMFS.OHMM   >10                                      : Resistivity Of Mud Filtrate Sample
 RMCS.OHMM   >10                                      : Resistivity Of Mud Cake Sample
 MFSS.       NA                                       : Mud Filtrate Sample Source
 MCSS.       NA                                       : Mud Cake Sample Source
 RMB .OHMM   >10                                      : Mud Resistivity At Bht
 TSC .       36 HRS                                   : Time Since Circulation
 MRT .DEGC   104                                      : Maximum Recorded Temperature
 LUN .       8934                                     : Logging Unit Number
 LUL .       DEN HELDER                               : Logging Unit Location
 ENGI.       A. WIEFKERS/H. V DIJKEN                  : Engineer's Name
 WITN.       P. GERRITSEN                             : Witness' Name
 TSTR.       HDIL/XMAC/GR                             : Title Service Mnemonic
 TSTG.       NA                                       : Title Service Mnemonic
 STUS.       FINAL                                    : Status
 LCNM.       BAKER ATLAS                              : Logging Company Name
 LCC .       150                                      : Logging Company Code
 OPMD.       OH.WIRE                                  : Operation Mode
 PANA.       A. WIEFKERS/H. V DIJKEN                  : Processing Analyst
 PCON.       BAKER ATLAS                              : Processing Contractor
 APIN.                                                : API Serial Number
~Other information
DEPTH AUDIT:                                                                    
- ALL DEPTHS ARE REFERENCED TO DRILL FLOOR.                                     
- TOOLS DEPLOYED BY DRILL PIPE USING BAKER ATLAS PCL EQUIPMENT WITH CONSTANT    
  TENSION DEVICE.                                                               
GENERAL:                                                                        
- LAST CIRCULATION ON 04-JUN-2013 AT 02:30 HRS.                                 
- MAXIMUM RECORDED TEMPERATURE FROM TTRM SUB IS 104 DEGC AT 3441 M              
- MAXIMUM RECORDED DEVIATION IS 32 DEG AT 3421 FROM ORIT SUB.                   
- TOOLSTRING RUN  A5 PCL/DSL/CN/ZDL/MREX/KNJT/ORIT/XMAC/WGI/HDIL/CENT           
- DSL AND WGI RECORDED SIMULTANEOUS BUT PRESENTED UNDER SEPARATE HEADINGS       
- ADDITIONAL MUD PROPERTIES: WHOLE MUD SALINITY = 26000 MG/L                    
                             CORRECTED SOLIDS = 28 %                            
                             YP = 22 LB/100FT2                                  
                             PV = 14 CP                                         
                             OIL/WATER RATIO 80/20                              
- RUNS A1-A2-A3-A4 WIRELINE RUN WITH DIFFERENT TOOL CONFIGURATIONS. UNABLE TO   
  REACH TD, HUD 3393 M. ONLY ON RUN A2 DATA RECORDED FROM 3393 UPTO THE CASING  
  SHOE. DATA NOT PRESENTED.                                                     
- DATA RECORDED IN DOWNWARDS DIRECTION. NO UP LOG DATA AVAILABLE DUE TO TOOL    
  FAILURE (PARTING OF 3218MB MANDREL).                                          
- TOOL DEPLOYMENT INTO OPEN HOLE WAS NOT SMOOTH, DATA RECORDED IN TWO FILES     
  DATA SPLICE AT 3360 M.                                                        
GR:                                                                             
- GAMARAY RECORDED IN SPECTRAL MODE, DSL DATA NOT PRESENTED.                    
- GAMMA RAY READING HIGH DUE TO FORMATION ACTIVATION FROM CN/ZDL TOOLS.         
CN:                                                                             
-RECORDED IN SAME PASS, DATA PRESENTED UNDER SEPERATE HEADER.                   
ZDL:                                                                            
-RECORDED IN SAME PASS, DATA PRESENTED UNDER SEPERATE HEADER.                   
MREX:                                                                           
- NO DATA RECORDED.                                                             
XMAC-F1:                                                                        
- XMAC-F1 WAS RUN CENTRALISED.                                                  
- XMAC-F1 RUN IN SUBSET 1: FULLWAVE MONOPOLE AND CROSS DIPOLE.                  
- DT24QI IS THE COMPRESSIONAL DT DERIVED FROM SURFACE PICKED FIRST ARRIVALS.    
  DTCQI IS THE WAVE AVAN PROCESSED COMPRESSIONAL DT DERIVED FROM THE FULLWAVE   
  MONOPOLE DATA.                                                                
  DTSQI IS THE WAVE AVAN PROCESSED SHEAR DT DERIVED FROM THE FULLWAVE MONOPOLE  
  DATA.                                                                         
  DTSTQI IS THE WAVE AVAN PROCESSED STONELY DT DERIVED FROM THE FULLWAVE        
  MONOPOLE DATA.                                                                
  DTXXQI AND DTYYQI ARE THE ESTIMATED DIRECTIONAL DT DERIVED FROM THE DIPOLE    
  FULLWAVE DATA USING WAVE AVAN PROCESSING.                                     
- TOTAL INTEGRATED TRAVEL TIME FROM LAST READING DT TO CASING SHOE: 50.4 MS.    
- TOOL STRING CENTRALIZATION OPTIMIZED FOR 8 3/8" HOLE.                         
WGI (6CAL):                                                                     
- CALIPER CURVE (CHADW) PRESENTED IS FROM WGI.                                  
- AT 3360 M CALIPER ARMS 2 AND 5 MOST LIKELY GOT DAMAGED                        
HDIL:                                                                           
- HDIL IS TEMPERATURE CORRECTED                                                 
- HDIL TOOL WAS RUN CENTRALISED.                                                
- PRESENTED ARE THE 1FT MATCHED RESOLUTION CURVES (M1R?)                        
- HDIL PROCESSING AND CENTRALIZATION OPTIMIZED FOR 8 3/8" HOLE .                
#  Curve Data
~A  DEPT        BIT         CHT         GR          GRSL        K           KTH         M1R1        M1R2        M1R3        M1R6        M1R9        M1RX        QHDL        RTHK        RTHU        RUK         SPD         TH          TTEN        U           WRM         WTBH      
# ...
   3260.8750   -999.2500   -999.2500     50.3888     50.4127      1.0218     27.3259   -999.2500   -999.2500   -999.2500   -999.2500   -999.2500   -999.2500   -999.2500      4.8189      1.3475      3.5782   -999.2500      4.9238   -999.2500      3.6561   1333.9808     95.9515
   3261.0000   -999.2500   -999.2500     51.3120     51.3040      1.0545     29.6530   -999.2500   -999.2500   -999.2500   -999.2500   -999.2500   -999.2500   -999.2500      5.0747      1.6069      3.1682   -999.2500      5.3518   -999.2500      3.3378   1335.7683     95.9528
   3261.1250   -999.2500   -999.2500     53.1553     53.0604      1.1318     33.4185   -999.2500   -999.2500   -999.2500   -999.2500   -999.2500   -999.2500   -999.2500      5.1118      2.0024      2.5566   -999.2500      5.7855   -999.2500      2.8920   1342.3680     95.9235
   3261.2500   -999.2500   -999.2500     53.9711     53.8169      1.2151     36.5858   -999.2500   -999.2500   -999.2500   -999.2500   -999.2500   -999.2500   -999.2500      5.0273      2.4816      2.0351   -999.2500      6.1082   -999.2500      2.4694   1351.1224     95.8998
   3261.3750   -999.2500   -999.2500     52.6887     52.5793      1.2899     38.3446   -999.2500   -999.2500   -999.2500   -999.2500   -999.2500   -999.2500   -999.2500      4.9608      3.1257      1.5926   -999.2500      6.3990   -999.2500      2.0532   1354.2219     95.8928
   3261.5000   -999.2500   -999.2500     50.1505     50.0697      1.3335     38.5957   -999.2500   -999.2500   -999.2500   -999.2500   -999.2500   -999.2500   -999.2500      4.9494      3.8938      1.2737   -999.2500      6.5999   -999.2500      1.6980   1348.4900     95.8833
   3261.6250   -999.2500   -999.2500     47.9611     47.8180      1.3312     37.4949   -999.2500   -999.2500   -999.2500   -999.2500   -999.2500   -999.2500   -999.2500      4.9089      4.1762      1.1755   -999.2500      6.5351   -999.2500      1.5648   1343.9285     95.8552
   3261.7500   -999.2500   -999.2500     46.8176     46.6426      1.3020     35.8564  24251.6133    783.7157    666.6927    666.6899    773.9901   1039.1222   -999.2500      4.7678      3.7626      1.2683   -999.2500      6.2077   -999.2500      1.6510   1347.0974     95.8233
   3261.8750   -999.2500   -999.2500     46.6646     46.5656      1.2678     34.4559  24251.6133    438.1375    497.0347    508.4520    707.5542   1000.6327   -999.2500      4.5652      3.1438      1.4548   -999.2500      5.7882   -999.2500      1.8439   1354.1487     95.8015
   3262.0000   -999.2500   -999.2500     46.7577     46.7307      1.2382     33.0666  24251.6152    368.5879    442.5075    500.4923    707.8030   1000.9846   -999.2500      4.3196      2.5892      1.6720   -999.2500      5.3491   -999.2500      2.0699   1358.0742     95.7919
   3262.1250   -999.2500   -999.2500     46.5057     46.4622      1.2310     31.5217  24251.6152    370.1823    416.8348    500.3137    707.5504   1000.6274   -999.2500      3.9758      2.1430      1.8554   -999.2500      4.8942   -999.2500      2.2841   1359.9183     95.7927
   3262.2500   -999.2500   -999.2500     46.3320     46.2111      1.2503     30.6521  24251.6152    352.5378    402.0290    500.2839    707.5082   1000.5676   -999.2500      3.6553      1.8989      1.9251   -999.2500      4.5698   -999.2500      2.4071   1362.3475     95.8116
   3262.3750   -999.2500   -999.2500     46.9775     46.7705      1.2752     31.3252  24251.6152    345.2972    401.2786    502.6969    710.9213   1005.3952   -999.2500      3.6158      1.9422      1.8632   -999.2500      4.6113   -999.2500      2.3757   1364.6582     95.8285
   3262.5000   -999.2500   -999.2500     48.2486     47.9541      1.2940     33.4030  24251.6152    349.1733    412.5681    526.8857    745.1342   1053.7870   -999.2500      3.8919      2.3016      1.6915   -999.2500      5.0360   -999.2500      2.1887   1363.8805     95.8254
   3262.6250   -999.2500   -999.2500     49.0937     48.7963      1.3019     35.6988  24251.6152    344.8829    400.0434    500.0939    707.2396   1000.1877   -999.2500      4.3093      2.9134      1.4831   -999.2500      5.6102   -999.2500      1.9307   1357.8646     95.8248
   3262.7500   -999.2500   -999.2500     48.8368     48.6496      1.2922     36.9619  24251.6152    344.8849    400.1074    500.2326    707.4357   1000.4652   -999.2500      4.6965      3.5507      1.3242   -999.2500      6.0682   -999.2500      1.7113   1347.1752     95.8495
   3262.8750   -999.2500   -999.2500     47.6786     47.5993      1.2601     37.1981  24251.6152    344.8895    400.2792    500.6047    707.9619   1001.2093   -999.2500      5.0910      4.1996      1.2129   -999.2500      6.4143   -999.2500      1.5284   1338.2906     95.8798
   3263.0000   -999.2500   -999.2500     46.4699     46.4005      1.2198     36.9838  24251.6094    344.8917    401.1757    502.4852    710.6218   1004.9715   -999.2500      5.4074      4.7669      1.1350   -999.2500      6.5952   -999.2500      1.3847   1339.3407     95.8910
   3263.1250   -999.2500   -999.2500     45.6726     45.6131      1.2058     36.9670  24194.3340    348.4540    417.1640    536.7753    758.9004   1072.9370   -999.2500      5.4672      5.2177      1.0482   -999.2500      6.5924   -999.2500      1.2639   1346.3331     95.8830
   3263.2500   -999.2500   -999.2500     45.1207     45.1370      1.2378     37.1795  20850.5898   1102.1274    446.3655    584.2230    808.7037   1119.4207   -999.2500      5.1947      5.5451      0.9371   -999.2500      6.4294   -999.2500      1.1598   1352.4260     95.8717
   3263.3750   -999.2500   -999.2500     44.2358     44.3284      1.2943     36.9542  12978.0225  10029.1963    598.5916    772.1360    996.3029   1286.0107   -999.2500      4.8024      5.6905      0.8439   -999.2500      6.2136   -999.2500      1.0919   1355.4027     95.8545
   3263.5000   -999.2500   -999.2500     43.6190     43.6861      1.3487     36.4531   7112.9673   5994.7178    912.4233   1082.4470   1284.1733   1523.6177   -999.2500      4.4383      5.4690      0.8116   -999.2500      5.9854   -999.2500      1.0945   1359.1960     95.8107
   3263.6250   -999.2500   -999.2500     44.5981     44.5150      1.3890     36.8219   4708.6206   4206.5132   1232.6733   1376.6245   1537.6132   1717.8524   -999.2500      4.1836      5.0167      0.8342   -999.2500      5.8105   -999.2500      1.1588   1365.8765     95.7615
   3263.7500   -999.2500   -999.2500     46.4018     46.1651      1.3989     37.6679   3257.6194   3070.1611   1598.2853   1695.3225   1798.2424   1907.6479   -999.2500      4.1145      4.6009      0.8949   -999.2500      5.7558   -999.2500      1.2518   1368.4225     95.7644
   3263.8750   -999.2500   -999.2500     47.2612     46.9362      1.3675     37.5617   2593.9133   2529.9109   1876.8588   1929.2638   1982.7559   2037.7061   -999.2500      4.2457      4.2347      1.0026   -999.2500      5.8061   -999.2500      1.3711   1361.4058     95.8275
   3264.0000   -999.2500   -999.2500     46.4186     46.1223      1.2702     35.5789   2351.7983   2334.4790   2024.1523   2051.5862   2078.8936   2106.5781   -999.2500      4.6445      3.7626      1.2376   -999.2500      5.8940   -999.2500      1.5690   1342.1068     95.9119
   3264.1250   -999.2500   -999.2500     45.2469     45.0568      1.1294     33.1502   2246.5947   2260.9187   2110.4648   2125.3892   2139.7146   2154.1453      0.0000      5.3624      3.3601      1.5983   -999.2500      6.0451   -999.2500      1.8003   1321.3104     95.9546
   3264.2500   -999.2500   -999.2500     44.3266     44.2898      0.9923     31.4333   2201.5769   2247.5718   2171.6089   2180.8831   2189.2510   2197.6616      0.0000      6.3712      3.2277      1.9740   -999.2500      6.3188   -999.2500      1.9577   1313.5406     95.9325
   3264.3750   -999.2500   -999.2500     43.6731     43.7677      0.9288     31.1473      0.4203      5.2386    602.5711   1898.2417   2041.6606   2047.9520      0.0000      7.1808      3.4542      2.0792   -999.2500      6.6675   -999.2500      1.9311   1325.0933     95.8708
