~Version Information
 VERS.                2.00:   CWLS log ASCII Standard -VERSION 2.00
 WRAP.                  NO:   One line per frame      
~Well Information Block
#MNEM.UNIT                   Data                   Description
#----.----   ------------------------------------   -------------------------------
 STRT.M                                 3253.6250 : Starting Depth
 STOP.M                                 3396.1250 : Ending Depth
 STEP.M                                    0.1250 : Level Spacing
 NULL.                                  -999.2500 : Absent Value
 COMP.       GDF SUEZ                             : Company
 WELL.       L5-13                                : Well
 FLD .       L5 OIL                               : Field
 LOC .       LAT: 53 48'40.57" N                  : Location
 PROV.       NOBLE PIET V EDE                     : Province
 SRVC.       Baker Atlas                          : Service Company
 LIC .                                            : License Number
 DATE.       3-JUN-2012                           : Log Date
 UWI .                                            : Unique Well ID
~Curve Information Block
#MNEM    .UNIT        API Codes     Curve Description
#--------.--------   LG--CV-CL--M   -------------------------------
 DEPT    .M          99 995 99  1 : Depth
 BIT     .in         70 282  1  1 : Bit size
 CHT     .lbf        99 635 99  1 : Cable head tension
 GR      .gAPI       30 310  1  1 : Gamma ray
 GRSL    .gAPI       30 310  1  1 : Gamma ray from 1329 spectrum
 K       .pct        31 719 99  1 : Potassium content
 KTH     .gAPI       31 995 99  1 : Stripped potassium-thorium
 M1R1    .ohm.m       8 120 10  1 : Vertical 1-foot resolution matched resistivity, 10-inch DOI
 M1R2    .ohm.m       8 120 20  1 : Vertical 1-foot resolution matched resistivity, 20-inch DOI
 M1R3    .ohm.m       8 120 30  1 : Vertical 1-foot resolution matched resistivity, 30-inch DOI
 M1R6    .ohm.m       8 120 60  1 : Vertical 1-foot resolution matched resistivity, 60-inch DOI
 M1R9    .ohm.m       8 120 90  1 : Vertical 1-foot resolution matched resistivity, 90-inch DOI
 M1RX    .ohm.m       8 120 90  1 : Vertical 1-foot resolution matched resistivity, 120-inch DOI
 QHDL    .lbf        99 995 99  1 : Quality for differential tension pulls for HDIL
 RTHK    .ppm/pct    31 995 99  1 : Ratio of thorium to potassium
 RTHU    .1          31 995 99  1 : Ratio of thorium to uranium
 RUK     .ppm/pct    31 995 99  1 : Ratio of uranium to potassium
 SPD     .m/min      99 636 99  1 : Speed
 TH      .ppm        31 790 99  1 : Thorium concentration
 TTEN    .lbf        99 635 99  1 : Total tension
 U       .ppm        31 792 99  1 : Uranium content
 WRM     .ohm.m      99 823 99  1 : Mud resistivity
 WTBH    .degC       99 995 99  1 : Temperature of borehole
~Parameter Information Block
#MNEM.UNIT                     Value                    Description
#----.----   ----------------------------------------   -------------------------------
 HIDE.       HIGH DEFINITION INDUCTION LOG            : Header Identifer
 HID1.       X-MULTIPOLE ARRAY ACOUSTILOG             : Header Identifer
 HID2.       GAMMA RAY LOG                            : Header Identifer
 CLAB.       RIG NAME                                 : County Label (Comments)
 SLAB.       COUNTRY                                  : State Label (Comments)
 STAT.       NETHERLANDS                              : State Or Province
 CMT1.       FINAL PRINT                              : Comment 1  
 CMT2.       SCALE 1:200/500                          : Comment 2  
 FL1 .       LON: 04 21'06.15"  E                     : Field Location 1
 OS1 .       ZDL/CN                                   : Other Services Line 1
 OS2 .       RCI                                      : Other Services Line 2
 OS3 .       BHP                                      : Other Services Line 3
 PDAT.       MSL                                      : Permanent Datum
 EPD .M      0                                        : Elevation Of Perm. Datum
 LMF .       DF                                       : Log Measured From
 APD .M      41.1                                     : Above Permanent Datum
 DMF .       DF                                       : Drilling Measured From
 EKB .M      41.1                                     : Elevation Of Kelly Bushing
 EDF .M      41.1                                     : Elevation Of Derrick Floor
 EGL .M      -42.0                                    : Elevation Of Ground Level
 TRIP.       5                                        : Trip Number
 SON .       13-168551                                : Service Order Number
 TDD .M      3491                                     : Total Depth - Driller
 BLI .M      3480                                     : Bottom Log Interval
 TLI .M      3296                                     : Top Log Interval
 CSIZ.IN     9.625                                    : Casing Size
 CBDR.M      3299                                     : Casing Bottom - Driller
 CBLO.M      3996.2                                   : Casing Bottom - Logger
 BS  .IN     8.375                                    : Bit Size
 DFT .       LTOBM                                    : Drilling Fluid Type
 DFD .G/C3   1.52                                     : Drilling Fluid Density
 DFV .S      25                                       : Drilling Fluid Viscosity
 DFL .M3     1.2                                      : Drilling Fluid Loss
 MSS .       FLOWLINE                                 : Mud Sample Source
 RMS .OHMM   >10                                      : Resistivity Of Mud Sample
 RMFS.OHMM   >10                                      : Resistivity Of Mud Filtrate Sample
 RMCS.OHMM   >10                                      : Resistivity Of Mud Cake Sample
 MFSS.       NA                                       : Mud Filtrate Sample Source
 MCSS.       NA                                       : Mud Cake Sample Source
 RMB .OHMM   >10                                      : Mud Resistivity At Bht
 TSC .       36 HRS                                   : Time Since Circulation
 MRT .DEGC   104                                      : Maximum Recorded Temperature
 LUN .       8934                                     : Logging Unit Number
 LUL .       DEN HELDER                               : Logging Unit Location
 ENGI.       A. WIEFKERS/H. V DIJKEN                  : Engineer's Name
 WITN.       P. GERRITSEN                             : Witness' Name
 TSTR.       HDIL/XMAC/GR                             : Title Service Mnemonic
 TSTG.       NA                                       : Title Service Mnemonic
 STUS.       FINAL                                    : Status
 LCNM.       BAKER ATLAS                              : Logging Company Name
 LCC .       150                                      : Logging Company Code
 OPMD.       OH.WIRE                                  : Operation Mode
 PANA.       A. WIEFKERS/H. V DIJKEN                  : Processing Analyst
 PCON.       BAKER ATLAS                              : Processing Contractor
 APIN.                                                : API Serial Number
~Other information
DEPTH AUDIT:                                                                    
- ALL DEPTHS ARE REFERENCED TO DRILL FLOOR.                                     
- TOOLS DEPLOYED BY DRILL PIPE USING BAKER ATLAS PCL EQUIPMENT WITH CONSTANT    
  TENSION DEVICE.                                                               
GENERAL:                                                                        
- LAST CIRCULATION ON 04-JUN-2013 AT 02:30 HRS.                                 
- MAXIMUM RECORDED TEMPERATURE FROM TTRM SUB IS 104 DEGC AT 3441 M              
- MAXIMUM RECORDED DEVIATION IS 32 DEG AT 3421 FROM ORIT SUB.                   
- TOOLSTRING RUN  A5 PCL/DSL/CN/ZDL/MREX/KNJT/ORIT/XMAC/WGI/HDIL/CENT           
- DSL AND WGI RECORDED SIMULTANEOUS BUT PRESENTED UNDER SEPARATE HEADINGS       
- ADDITIONAL MUD PROPERTIES: WHOLE MUD SALINITY = 26000 MG/L                    
                             CORRECTED SOLIDS = 28 %                            
                             YP = 22 LB/100FT2                                  
                             PV = 14 CP                                         
                             OIL/WATER RATIO 80/20                              
- RUNS A1-A2-A3-A4 WIRELINE RUN WITH DIFFERENT TOOL CONFIGURATIONS. UNABLE TO   
  REACH TD, HUD 3393 M. ONLY ON RUN A2 DATA RECORDED FROM 3393 UPTO THE CASING  
  SHOE. DATA NOT PRESENTED.                                                     
- DATA RECORDED IN DOWNWARDS DIRECTION. NO UP LOG DATA AVAILABLE DUE TO TOOL    
  FAILURE (PARTING OF 3218MB MANDREL).                                          
- TOOL DEPLOYMENT INTO OPEN HOLE WAS NOT SMOOTH, DATA RECORDED IN TWO FILES     
  DATA SPLICE AT 3360 M.                                                        
GR:                                                                             
- GAMARAY RECORDED IN SPECTRAL MODE, DSL DATA NOT PRESENTED.                    
- GAMMA RAY READING HIGH DUE TO FORMATION ACTIVATION FROM CN/ZDL TOOLS.         
CN:                                                                             
-RECORDED IN SAME PASS, DATA PRESENTED UNDER SEPERATE HEADER.                   
ZDL:                                                                            
-RECORDED IN SAME PASS, DATA PRESENTED UNDER SEPERATE HEADER.                   
MREX:                                                                           
- NO DATA RECORDED.                                                             
XMAC-F1:                                                                        
- XMAC-F1 WAS RUN CENTRALISED.                                                  
- XMAC-F1 RUN IN SUBSET 1: FULLWAVE MONOPOLE AND CROSS DIPOLE.                  
- DT24QI IS THE COMPRESSIONAL DT DERIVED FROM SURFACE PICKED FIRST ARRIVALS.    
  DTCQI IS THE WAVE AVAN PROCESSED COMPRESSIONAL DT DERIVED FROM THE FULLWAVE   
  MONOPOLE DATA.                                                                
  DTSQI IS THE WAVE AVAN PROCESSED SHEAR DT DERIVED FROM THE FULLWAVE MONOPOLE  
  DATA.                                                                         
  DTSTQI IS THE WAVE AVAN PROCESSED STONELY DT DERIVED FROM THE FULLWAVE        
  MONOPOLE DATA.                                                                
  DTXXQI AND DTYYQI ARE THE ESTIMATED DIRECTIONAL DT DERIVED FROM THE DIPOLE    
  FULLWAVE DATA USING WAVE AVAN PROCESSING.                                     
- TOTAL INTEGRATED TRAVEL TIME FROM LAST READING DT TO CASING SHOE: 50.4 MS.    
- TOOL STRING CENTRALIZATION OPTIMIZED FOR 8 3/8" HOLE.                         
WGI (6CAL):                                                                     
- CALIPER CURVE (CHADW) PRESENTED IS FROM WGI.                                  
- AT 3360 M CALIPER ARMS 2 AND 5 MOST LIKELY GOT DAMAGED                        
HDIL:                                                                           
- HDIL IS TEMPERATURE CORRECTED                                                 
- HDIL TOOL WAS RUN CENTRALISED.                                                
- PRESENTED ARE THE 1FT MATCHED RESOLUTION CURVES (M1R?)                        
- HDIL PROCESSING AND CENTRALIZATION OPTIMIZED FOR 8 3/8" HOLE .                
#  Curve Data
~A  DEPT        BIT         CHT         GR          GRSL        K           KTH         M1R1        M1R2        M1R3        M1R6        M1R9        M1RX        QHDL        RTHK        RTHU        RUK         SPD         TH          TTEN        U           WRM         WTBH      
# ...
   3384.1250      8.3750    804.3375     99.6498     99.5090      2.8520     83.3196      2.0083      1.7391      1.6058      1.5685      1.5285      1.5315      0.0000      4.6756      5.7835      0.8125      9.5281     13.3353   5720.0591      2.3170   -999.2500   -999.2500
   3384.2500      8.3750    802.6682    100.1842    100.0974      2.8941     88.7086      2.1730      1.8851      1.7291      1.6687      1.6123      1.5853      0.0000      5.0802      9.2531      0.5569      9.5672     14.7037   5709.4629      1.6110   -999.2500   -999.2500
   3384.3750      8.3750    806.8710    100.8009    100.7542      2.9299     93.0844      2.5939      2.1845      1.9651      1.8611      1.7757      1.7052      0.0000      5.3643     14.8861      0.3663      9.6072     15.7171   5700.2603      1.0729   -999.2500   -999.2500
   3384.5000      8.3750    806.1310    101.9064    101.8012      2.9557     96.4225      2.9354      2.3816      2.1006      1.9507      1.8401      1.7254      0.0000      5.5148     21.9729      0.2510      9.6351     16.3001   5700.7861      0.7418   -999.2500   -999.2500
   3384.6250      8.3750    799.9684    102.5770    102.3439      2.9631     97.0778      2.9605      2.3512      2.0511      1.8765      1.7573      1.6168      0.0000      5.4765     22.5461      0.2433      9.6410     16.2271   5716.1694      0.7208   -999.2500   -999.2500
   3384.7500      8.3750    798.7783    101.8940    101.6034      2.9642     94.5334      2.9810      2.3406      2.0231      1.8245      1.6965      1.5333      0.0000      5.2187     16.1480      0.3283      9.6360     15.4697   5735.3716      0.9729   -999.2500   -999.2500
   3384.8750      8.3750    806.2863    100.4784    100.2644      2.9461     89.8565      2.9912      2.3604      2.0293      1.8050      1.6659      1.4797      0.0000      4.8193      9.8688      0.4906      9.6281     14.1981   5746.7817      1.4453   -999.2500   -999.2500
   3385.0000      8.3750    819.6639    100.0577     99.9182      2.9059     86.0969      2.8285      2.3083      1.9975      1.7620      1.6176      1.4170      0.0000      4.4695      6.8305      0.6586      9.6195     12.9892   5742.0151      1.9133   -999.2500   -999.2500
   3385.1250      8.3750    833.0262    100.6626    100.4463      2.8596     84.2296      2.5081      2.1575      1.9021      1.6764      1.5360      1.3338      0.0000      4.2916      5.5360      0.7752      9.6106     12.2722   5728.3086      2.2168   -999.2500   -999.2500
   3385.2500      8.3750    842.6938    100.5376    100.1646   -999.2500   -999.2500      2.1613      1.9631      1.7740      1.5713      1.4403      1.2451      0.0000   -999.2500   -999.2500   -999.2500      9.6058   -999.2500   5718.5869   -999.2500   -999.2500   -999.2500
   3385.3750      8.3750    843.0034     99.0015     98.5921   -999.2500   -999.2500      1.8495      1.7599      1.6313      1.4581      1.3397      1.1571      0.0000   -999.2500   -999.2500   -999.2500      9.6082   -999.2500   5720.3213   -999.2500   -999.2500   -999.2500
   3385.5000      8.3750    832.8600     97.6232     97.3525   -999.2500   -999.2500      1.6319      1.6123      1.5276      1.3770      1.2672      1.0932      0.1322   -999.2500   -999.2500   -999.2500      9.6129   -999.2500   5722.6924   -999.2500   -999.2500   -999.2500
   3385.6250      8.3750    820.8841     97.5933     97.5664   -999.2500   -999.2500      1.5313      1.5605      1.5022      1.3603      1.2501      1.0728      1.0000   -999.2500   -999.2500   -999.2500      9.6103   -999.2500   5715.0410   -999.2500   -999.2500   -999.2500
   3385.7500      8.3750    819.3748   -999.2500     99.6434   -999.2500   -999.2500      1.4805      1.5507      1.5143      1.3739      1.2590      1.0733      1.0000   -999.2500   -999.2500   -999.2500      9.5900   -999.2500   5700.9082   -999.2500   -999.2500   -999.2500
   3385.8750      8.3750    824.2183   -999.2500   -999.2500   -999.2500   -999.2500      1.4541      1.5578      1.5413      1.4000      1.2787      1.0826      1.0000   -999.2500   -999.2500   -999.2500      9.5564   -999.2500   5691.2842   -999.2500   -999.2500   -999.2500
   3386.0000      8.3750    821.1649   -999.2500   -999.2500   -999.2500   -999.2500      1.4532      1.5836      1.5839      1.4403      1.3101      1.1015      1.0000   -999.2500   -999.2500   -999.2500      9.5221   -999.2500   5688.4419   -999.2500   -999.2500   -999.2500
   3386.1250      8.3750    811.4172   -999.2500   -999.2500   -999.2500   -999.2500      1.4595      1.6080      1.6219      1.4767      1.3382      1.1189      1.0000   -999.2500   -999.2500   -999.2500      9.4896   -999.2500   5684.6899   -999.2500   -999.2500   -999.2500
   3386.2500      8.3750    808.5198   -999.2500   -999.2500   -999.2500   -999.2500      1.4643      1.6215      1.6450      1.4998      1.3556      1.1296      1.0000   -999.2500   -999.2500   -999.2500      9.4483   -999.2500   5681.6431   -999.2500   -999.2500   -999.2500
   3386.3750      8.3750    819.4230   -999.2500   -999.2500   -999.2500   -999.2500      1.4672      1.6255      1.6545      1.5102      1.3629      1.1348      1.0000   -999.2500   -999.2500   -999.2500      9.3931   -999.2500   5688.4063   -999.2500   -999.2500   -999.2500
   3386.5000      8.3750    828.3052   -999.2500   -999.2500   -999.2500   -999.2500      1.4686      1.6236      1.6544      1.5117      1.3633      1.1360      1.0000   -999.2500   -999.2500   -999.2500      9.3456   -999.2500   5700.5264   -999.2500   -999.2500   -999.2500
   3386.6250      8.3750    824.3028   -999.2500   -999.2500   -999.2500   -999.2500      1.4700      1.6210      1.6518      1.5106      1.3621      1.1370      1.0000   -999.2500   -999.2500   -999.2500      9.3317   -999.2500   5704.5186   -999.2500   -999.2500   -999.2500
   3386.7500      8.3750    812.2668   -999.2500   -999.2500   -999.2500   -999.2500      1.4722      1.6194      1.6486      1.5088      1.3607      1.1387      1.0000   -999.2500   -999.2500   -999.2500      9.3539   -999.2500   5688.6650   -999.2500   -999.2500   -999.2500
   3386.8750      8.3750    803.2622   -999.2500   -999.2500   -999.2500   -999.2500      1.4750      1.6198      1.6473      1.5086      1.3609      1.1422      1.0000   -999.2500   -999.2500   -999.2500      9.3956   -999.2500   5661.8608   -999.2500   -999.2500   -999.2500
   3387.0000      8.3750    799.2612   -999.2500   -999.2500   -999.2500   -999.2500      1.4771      1.6209      1.6472      1.5095      1.3624      1.1472      1.0000   -999.2500   -999.2500   -999.2500      9.4460   -999.2500   5643.9849   -999.2500   -999.2500   -999.2500
   3387.1250      8.3750    795.9007   -999.2500   -999.2500   -999.2500   -999.2500      1.4766      1.6195      1.6444      1.5082      1.3623      1.1514      1.0000   -999.2500   -999.2500   -999.2500      9.4966   -999.2500   5655.5479   -999.2500   -999.2500   -999.2500
   3387.2500      8.3750    793.6578   -999.2500   -999.2500   -999.2500   -999.2500      1.4743      1.6177      1.6426      1.5081      1.3634      1.1566      1.0000   -999.2500   -999.2500   -999.2500      9.5425   -999.2500   5694.6812   -999.2500   -999.2500   -999.2500
   3387.3750      8.3750    796.4769   -999.2500   -999.2500   -999.2500   -999.2500      1.4732      1.6175      1.6420      1.5087      1.3652      1.1625      1.0000   -999.2500   -999.2500   -999.2500      9.5740   -999.2500   5751.2803   -999.2500   -999.2500   -999.2500
   3387.5000      8.3750    808.2559   -999.2500   -999.2500   -999.2500   -999.2500      1.4745      1.6213      1.6464      1.5137      1.3707      1.1707      1.0000   -999.2500   -999.2500   -999.2500      9.5837   -999.2500   5813.8755   -999.2500   -999.2500   -999.2500
   3387.6250      8.3750    827.2542   -999.2500   -999.2500   -999.2500   -999.2500      1.4737      1.6231      1.6490      1.5171      1.3749      1.1776      1.0000   -999.2500   -999.2500   -999.2500      9.5751   -999.2500   5877.1782   -999.2500   -999.2500   -999.2500
