~Version Information
 VERS.                2.00:   CWLS log ASCII Standard -VERSION 2.00
 WRAP.                  NO:   One line per frame      
~Well Information Block
#MNEM.UNIT                   Data                   Description
#----.----   ------------------------------------   -------------------------------
 STRT.M                                 3253.6250 : Starting Depth
 STOP.M                                 3396.1250 : Ending Depth
 STEP.M                                    0.1250 : Level Spacing
 NULL.                                  -999.2500 : Absent Value
 COMP.       GDF SUEZ                             : Company
 WELL.       L5-13                                : Well
 FLD .       L5 OIL                               : Field
 LOC .       LAT: 53 48'40.57" N                  : Location
 PROV.       NOBLE PIET V EDE                     : Province
 SRVC.       Baker Atlas                          : Service Company
 LIC .                                            : License Number
 DATE.       3-JUN-2012                           : Log Date
 UWI .                                            : Unique Well ID
~Curve Information Block
#MNEM    .UNIT        API Codes     Curve Description
#--------.--------   LG--CV-CL--M   -------------------------------
 DEPT    .M          99 995 99  1 : Depth
 BIT     .in         70 282  1  1 : Bit size
 CHT     .lbf        99 635 99  1 : Cable head tension
 GR      .gAPI       30 310  1  1 : Gamma ray
 GRSL    .gAPI       30 310  1  1 : Gamma ray from 1329 spectrum
 K       .pct        31 719 99  1 : Potassium content
 KTH     .gAPI       31 995 99  1 : Stripped potassium-thorium
 M1R1    .ohm.m       8 120 10  1 : Vertical 1-foot resolution matched resistivity, 10-inch DOI
 M1R2    .ohm.m       8 120 20  1 : Vertical 1-foot resolution matched resistivity, 20-inch DOI
 M1R3    .ohm.m       8 120 30  1 : Vertical 1-foot resolution matched resistivity, 30-inch DOI
 M1R6    .ohm.m       8 120 60  1 : Vertical 1-foot resolution matched resistivity, 60-inch DOI
 M1R9    .ohm.m       8 120 90  1 : Vertical 1-foot resolution matched resistivity, 90-inch DOI
 M1RX    .ohm.m       8 120 90  1 : Vertical 1-foot resolution matched resistivity, 120-inch DOI
 QHDL    .lbf        99 995 99  1 : Quality for differential tension pulls for HDIL
 RTHK    .ppm/pct    31 995 99  1 : Ratio of thorium to potassium
 RTHU    .1          31 995 99  1 : Ratio of thorium to uranium
 RUK     .ppm/pct    31 995 99  1 : Ratio of uranium to potassium
 SPD     .m/min      99 636 99  1 : Speed
 TH      .ppm        31 790 99  1 : Thorium concentration
 TTEN    .lbf        99 635 99  1 : Total tension
 U       .ppm        31 792 99  1 : Uranium content
 WRM     .ohm.m      99 823 99  1 : Mud resistivity
 WTBH    .degC       99 995 99  1 : Temperature of borehole
~Parameter Information Block
#MNEM.UNIT                     Value                    Description
#----.----   ----------------------------------------   -------------------------------
 HIDE.       HIGH DEFINITION INDUCTION LOG            : Header Identifer
 HID1.       X-MULTIPOLE ARRAY ACOUSTILOG             : Header Identifer
 HID2.       GAMMA RAY LOG                            : Header Identifer
 CLAB.       RIG NAME                                 : County Label (Comments)
 SLAB.       COUNTRY                                  : State Label (Comments)
 STAT.       NETHERLANDS                              : State Or Province
 CMT1.       FINAL PRINT                              : Comment 1  
 CMT2.       SCALE 1:200/500                          : Comment 2  
 FL1 .       LON: 04 21'06.15"  E                     : Field Location 1
 OS1 .       ZDL/CN                                   : Other Services Line 1
 OS2 .       RCI                                      : Other Services Line 2
 OS3 .       BHP                                      : Other Services Line 3
 PDAT.       MSL                                      : Permanent Datum
 EPD .M      0                                        : Elevation Of Perm. Datum
 LMF .       DF                                       : Log Measured From
 APD .M      41.1                                     : Above Permanent Datum
 DMF .       DF                                       : Drilling Measured From
 EKB .M      41.1                                     : Elevation Of Kelly Bushing
 EDF .M      41.1                                     : Elevation Of Derrick Floor
 EGL .M      -42.0                                    : Elevation Of Ground Level
 TRIP.       5                                        : Trip Number
 SON .       13-168551                                : Service Order Number
 TDD .M      3491                                     : Total Depth - Driller
 BLI .M      3480                                     : Bottom Log Interval
 TLI .M      3296                                     : Top Log Interval
 CSIZ.IN     9.625                                    : Casing Size
 CBDR.M      3299                                     : Casing Bottom - Driller
 CBLO.M      3996.2                                   : Casing Bottom - Logger
 BS  .IN     8.375                                    : Bit Size
 DFT .       LTOBM                                    : Drilling Fluid Type
 DFD .G/C3   1.52                                     : Drilling Fluid Density
 DFV .S      25                                       : Drilling Fluid Viscosity
 DFL .M3     1.2                                      : Drilling Fluid Loss
 MSS .       FLOWLINE                                 : Mud Sample Source
 RMS .OHMM   >10                                      : Resistivity Of Mud Sample
 RMFS.OHMM   >10                                      : Resistivity Of Mud Filtrate Sample
 RMCS.OHMM   >10                                      : Resistivity Of Mud Cake Sample
 MFSS.       NA                                       : Mud Filtrate Sample Source
 MCSS.       NA                                       : Mud Cake Sample Source
 RMB .OHMM   >10                                      : Mud Resistivity At Bht
 TSC .       36 HRS                                   : Time Since Circulation
 MRT .DEGC   104                                      : Maximum Recorded Temperature
 LUN .       8934                                     : Logging Unit Number
 LUL .       DEN HELDER                               : Logging Unit Location
 ENGI.       A. WIEFKERS/H. V DIJKEN                  : Engineer's Name
 WITN.       P. GERRITSEN                             : Witness' Name
 TSTR.       HDIL/XMAC/GR                             : Title Service Mnemonic
 TSTG.       NA                                       : Title Service Mnemonic
 STUS.       FINAL                                    : Status
 LCNM.       BAKER ATLAS                              : Logging Company Name
 LCC .       150                                      : Logging Company Code
 OPMD.       OH.WIRE                                  : Operation Mode
 PANA.       A. WIEFKERS/H. V DIJKEN                  : Processing Analyst
 PCON.       BAKER ATLAS                              : Processing Contractor
 APIN.                                                : API Serial Number
~Other information
DEPTH AUDIT:                                                                    
- ALL DEPTHS ARE REFERENCED TO DRILL FLOOR.                                     
- TOOLS DEPLOYED BY DRILL PIPE USING BAKER ATLAS PCL EQUIPMENT WITH CONSTANT    
  TENSION DEVICE.                                                               
GENERAL:                                                                        
- LAST CIRCULATION ON 04-JUN-2013 AT 02:30 HRS.                                 
- MAXIMUM RECORDED TEMPERATURE FROM TTRM SUB IS 104 DEGC AT 3441 M              
- MAXIMUM RECORDED DEVIATION IS 32 DEG AT 3421 FROM ORIT SUB.                   
- TOOLSTRING RUN  A5 PCL/DSL/CN/ZDL/MREX/KNJT/ORIT/XMAC/WGI/HDIL/CENT           
- DSL AND WGI RECORDED SIMULTANEOUS BUT PRESENTED UNDER SEPARATE HEADINGS       
- ADDITIONAL MUD PROPERTIES: WHOLE MUD SALINITY = 26000 MG/L                    
                             CORRECTED SOLIDS = 28 %                            
                             YP = 22 LB/100FT2                                  
                             PV = 14 CP                                         
                             OIL/WATER RATIO 80/20                              
- RUNS A1-A2-A3-A4 WIRELINE RUN WITH DIFFERENT TOOL CONFIGURATIONS. UNABLE TO   
  REACH TD, HUD 3393 M. ONLY ON RUN A2 DATA RECORDED FROM 3393 UPTO THE CASING  
  SHOE. DATA NOT PRESENTED.                                                     
- DATA RECORDED IN DOWNWARDS DIRECTION. NO UP LOG DATA AVAILABLE DUE TO TOOL    
  FAILURE (PARTING OF 3218MB MANDREL).                                          
- TOOL DEPLOYMENT INTO OPEN HOLE WAS NOT SMOOTH, DATA RECORDED IN TWO FILES     
  DATA SPLICE AT 3360 M.                                                        
GR:                                                                             
- GAMARAY RECORDED IN SPECTRAL MODE, DSL DATA NOT PRESENTED.                    
- GAMMA RAY READING HIGH DUE TO FORMATION ACTIVATION FROM CN/ZDL TOOLS.         
CN:                                                                             
-RECORDED IN SAME PASS, DATA PRESENTED UNDER SEPERATE HEADER.                   
ZDL:                                                                            
-RECORDED IN SAME PASS, DATA PRESENTED UNDER SEPERATE HEADER.                   
MREX:                                                                           
- NO DATA RECORDED.                                                             
XMAC-F1:                                                                        
- XMAC-F1 WAS RUN CENTRALISED.                                                  
- XMAC-F1 RUN IN SUBSET 1: FULLWAVE MONOPOLE AND CROSS DIPOLE.                  
- DT24QI IS THE COMPRESSIONAL DT DERIVED FROM SURFACE PICKED FIRST ARRIVALS.    
  DTCQI IS THE WAVE AVAN PROCESSED COMPRESSIONAL DT DERIVED FROM THE FULLWAVE   
  MONOPOLE DATA.                                                                
  DTSQI IS THE WAVE AVAN PROCESSED SHEAR DT DERIVED FROM THE FULLWAVE MONOPOLE  
  DATA.                                                                         
  DTSTQI IS THE WAVE AVAN PROCESSED STONELY DT DERIVED FROM THE FULLWAVE        
  MONOPOLE DATA.                                                                
  DTXXQI AND DTYYQI ARE THE ESTIMATED DIRECTIONAL DT DERIVED FROM THE DIPOLE    
  FULLWAVE DATA USING WAVE AVAN PROCESSING.                                     
- TOTAL INTEGRATED TRAVEL TIME FROM LAST READING DT TO CASING SHOE: 50.4 MS.    
- TOOL STRING CENTRALIZATION OPTIMIZED FOR 8 3/8" HOLE.                         
WGI (6CAL):                                                                     
- CALIPER CURVE (CHADW) PRESENTED IS FROM WGI.                                  
- AT 3360 M CALIPER ARMS 2 AND 5 MOST LIKELY GOT DAMAGED                        
HDIL:                                                                           
- HDIL IS TEMPERATURE CORRECTED                                                 
- HDIL TOOL WAS RUN CENTRALISED.                                                
- PRESENTED ARE THE 1FT MATCHED RESOLUTION CURVES (M1R?)                        
- HDIL PROCESSING AND CENTRALIZATION OPTIMIZED FOR 8 3/8" HOLE .                
#  Curve Data
~A  DEPT        BIT         CHT         GR          GRSL        K           KTH         M1R1        M1R2        M1R3        M1R6        M1R9        M1RX        QHDL        RTHK        RTHU        RUK         SPD         TH          TTEN        U           WRM         WTBH      
# ...
   3344.2500      8.3750    832.3508     96.5763     96.2670      2.7289     80.4915      1.3550      1.2312      1.1871      1.1773      1.1693      1.1623      0.0000      5.0531      5.9636      0.8474     13.7869     13.7894   5657.7842      2.3125   1383.1066     95.7802
   3344.3750      8.3750    823.9103     97.3628     97.0819      2.7355     81.2670      1.3728      1.2444      1.1990      1.1879      1.1789      1.1711      0.0000      5.0607      6.0115      0.8421     13.7213     13.8436   5648.7104      2.3033   1377.6176     95.7770
   3344.5000      8.3750    819.7481     97.1416     96.9640      2.7818     82.5186      1.3596      1.2344      1.1899      1.1782      1.1684      1.1600      0.0000      5.0604      6.6883      0.7575     13.6472     14.0772   5644.1816      2.1069   1380.9437     95.7602
   3344.6250      8.3750    822.3896     96.0711     95.9123      2.8721     84.3950      1.3500      1.2296      1.1863      1.1739      1.1635      1.1543      0.0000      5.0753      8.6393      0.5915     13.5982     14.5772   5643.1572      1.6976   1375.9329     95.7667
   3344.7500      8.3750    823.5416     95.1332     94.8565      2.9725     87.1314      1.3818      1.2615      1.2174      1.2035      1.1919      1.1814      0.0000      5.1616     13.7364      0.3875     13.5799     15.3441   5656.0010      1.1500   1362.8033     95.7881
   3344.8750      8.3750    820.8503     94.2552     93.8417      3.0842     90.2544      1.3803      1.2677      1.2250      1.2102      1.1979      1.1864      0.0000      5.2455     30.0138      0.1748     13.5795     16.1780   5685.4053      0.5390   1356.9744     95.7852
   3345.0000      8.3750    820.5966     92.9486     92.5546      3.2219     92.0983      1.3173      1.2228      1.1849      1.1703      1.1583      1.1466      0.0000      5.1752   6456.8066      0.0218     13.5875     16.6721   5718.1294      0.0691   1362.2119     95.7564
   3345.1250      8.3750    825.5020     91.4625     91.2297      3.3546     91.2193      1.2682      1.1886      1.1545      1.1400      1.1282      1.1160      0.0000      4.9748  10045.5928      0.0005     13.6051     16.6870   5739.9263      0.0017   1361.5338     95.7453
   3345.2500      8.3750    832.9346     90.8307     90.8117      3.4161     90.8013      1.2407      1.1713      1.1396      1.1247      1.1127      1.0998      0.0000      4.7833   9836.9189      0.0005     13.6397     16.3403   5744.8481      0.0017   1349.6621     95.7635
   3345.3750      8.3750    838.6993     91.1795     91.2666      3.3533     91.2557      1.2356      1.1712      1.1403      1.1246      1.1121      1.0980      0.0000      4.6709   9429.7432      0.0005     13.6864     15.6640   5732.6294      0.0017   1336.2505     95.7700
   3345.5000      8.3750    841.3665     90.8372     90.9127      3.1615     89.6994      1.2518      1.1875      1.1558      1.1387      1.1252      1.1093      0.0000      4.6051    164.5948      0.0576     13.7352     14.5590   5710.2964      0.1770   1333.6288     95.7406
   3345.6250      8.3750    839.9977     88.9853     89.0256      2.8175     81.3187      1.2751      1.2073      1.1737      1.1549      1.1400      1.1222      0.0000      4.6931     12.7876      0.3994     13.7864     13.2198   5687.6392      1.1176   1342.3800     95.7114
   3345.7500      8.3750    834.5364     86.6594     86.6960      2.3979     71.8801      1.2755      1.2041      1.1689      1.1488      1.1329      1.1138      0.0000      5.0848      5.8054      0.9017     13.8432     12.1725   5679.7847      2.1412   1347.1370     95.7326
   3345.8750      8.3750    829.0045     85.0731     85.1272      2.0375     64.4791      1.2610      1.1860      1.1491      1.1282      1.1117      1.0916      0.0000      5.6720      3.8918      1.4623     13.8953     11.5508   5687.7910      2.9737   1340.0587     95.7676
   3346.0000      8.3750    827.0560     84.8417     84.9214      1.8026     59.9625      1.2524      1.1713      1.1321      1.1103      1.0929      1.0719      0.0000      6.1881      3.1322      1.9822     13.9170     11.1483   5704.7607      3.5663   1333.3689     95.7576
   3346.1250      8.3750    827.7905     85.8302     85.9968      1.6596     57.5781      1.2276      1.1414      1.1009      1.0789      1.0612      1.0398      0.0000      6.5474      2.7140      2.4153     13.9008     10.8643   5724.2861      4.0059   1347.4755     95.7110
   3346.2500      8.3750    829.4290     87.5877     87.8754      1.6155     57.5046      1.2031      1.1118      1.0704      1.0484      1.0305      1.0089      0.0000      6.6636      2.5562      2.6069     13.8730     10.7651   5740.3335      4.2114   1373.0177     95.6849
   3346.3750      8.3750    829.2758     89.4937     89.7902      1.7002     60.0890      1.3117      1.1970      1.1469      1.1203      1.0988      1.0725      0.0000      6.3997      2.6779      2.3920     13.8690     10.8767   5742.9854      4.0633   1380.0544     95.7029
   3346.5000      8.3750    825.7746     90.6877     90.8970      1.8633     64.1941      1.6899      1.5024      1.4229      1.3803      1.3464      1.3045      0.0000      6.0182      3.0925      1.9547     13.8788     11.2087   5732.0947      3.6346   1363.5555     95.7126
   3346.6250      8.3750    818.9017     90.8560     90.9426      2.0560     69.2122      2.3199      1.9992      1.8638      1.7893      1.7315      1.6598      0.0000      5.8030      4.0138      1.4476     13.8789     11.9302   5714.7217      2.9749   1342.2145     95.6816
   3346.7500      8.3750    809.2551     91.2280     91.1555      2.2555     76.1622      2.6476      2.2865      2.1217      2.0231      1.9488      1.8547      0.0000      5.8849      6.6071      0.9177     13.8615     13.2766   5702.9985      2.0605   1334.8973     95.6497
   3346.8750      8.3750    800.8913     92.4938     92.2519      2.4482     84.9744      2.2515      2.0309      1.9123      1.8303      1.7693      1.6887      0.0000      6.1674     17.4514      0.4091     13.8433     15.1033   5703.3418      0.9961   1339.1791     95.6621
   3347.0000      8.3750    797.8903     93.8450     93.5263      2.6055     93.0883      1.6393      1.5406      1.4805      1.4304      1.3934      1.3418      0.0000      6.5276   9129.1465      0.0236     13.8311     17.0097   5716.4351      0.0597   1349.8580     95.7027
   3347.1250      8.3750    801.2347     94.0849     93.8461      2.6907     93.8346      1.3049      1.2508      1.2157      1.1815      1.1568      1.1206      0.0000      6.8843  11152.0459      0.0006     13.8199     18.5249   5737.4736      0.0017   1358.0983     95.7176
   3347.2500      8.3750    807.8056     93.5764     93.4185      2.7122     93.4074      1.1415      1.1024      1.0772      1.0504      1.0315      1.0027      0.0000      7.1919  11742.5586      0.0006     13.8103     19.5058   5756.9575      0.0017   1357.4221     95.7085
   3347.3750      8.3750    814.3875     93.2702     93.0619      2.6884     93.0509      1.0641      1.0273      1.0054      0.9824      0.9666      0.9416      0.0000      7.3843  11950.6436      0.0006     13.8050     19.8515   5765.2593      0.0017   1349.4061     95.7083
   3347.5000      8.3750    819.1591     92.9981     92.7444      2.6343     92.7333      1.0805      1.0361      1.0121      0.9895      0.9744      0.9495      0.0000      7.4164  11761.4014      0.0006     13.8050     19.5371   5758.7627      0.0017   1343.3875     95.7176
   3347.6250      8.3750    823.3616     92.1005     91.9078      2.5561     91.4365      1.1545      1.0952      1.0655      1.0416      1.0260      0.9995      0.0000      7.3149    564.8373      0.0272     13.8108     18.6985   5740.6880      0.0686   1343.6885     95.7033
   3347.7500      8.3750    827.1376     91.0315     90.9134      2.4633     85.4044      1.2054      1.1320      1.0972      1.0733      1.0580      1.0312      0.0000      7.0663     23.7778      0.3295     13.8125     17.4087   5719.6621      0.8093   1352.6494     95.6539
