~Version Information
 VERS.                2.00:   CWLS log ASCII Standard -VERSION 2.00
 WRAP.                  NO:   One line per frame      
~Well Information Block
#MNEM.UNIT                   Data                   Description
#----.----   ------------------------------------   -------------------------------
 STRT.M                                 3253.6250 : Starting Depth
 STOP.M                                 3396.1250 : Ending Depth
 STEP.M                                    0.1250 : Level Spacing
 NULL.                                  -999.2500 : Absent Value
 COMP.       GDF SUEZ                             : Company
 WELL.       L5-13                                : Well
 FLD .       L5 OIL                               : Field
 LOC .       LAT: 53 48'40.57" N                  : Location
 PROV.       NOBLE PIET V EDE                     : Province
 SRVC.       Baker Atlas                          : Service Company
 LIC .                                            : License Number
 DATE.       3-JUN-2012                           : Log Date
 UWI .                                            : Unique Well ID
~Curve Information Block
#MNEM    .UNIT        API Codes     Curve Description
#--------.--------   LG--CV-CL--M   -------------------------------
 DEPT    .M          99 995 99  1 : Depth
 BIT     .in         70 282  1  1 : Bit size
 CHT     .lbf        99 635 99  1 : Cable head tension
 GR      .gAPI       30 310  1  1 : Gamma ray
 GRSL    .gAPI       30 310  1  1 : Gamma ray from 1329 spectrum
 K       .pct        31 719 99  1 : Potassium content
 KTH     .gAPI       31 995 99  1 : Stripped potassium-thorium
 M1R1    .ohm.m       8 120 10  1 : Vertical 1-foot resolution matched resistivity, 10-inch DOI
 M1R2    .ohm.m       8 120 20  1 : Vertical 1-foot resolution matched resistivity, 20-inch DOI
 M1R3    .ohm.m       8 120 30  1 : Vertical 1-foot resolution matched resistivity, 30-inch DOI
 M1R6    .ohm.m       8 120 60  1 : Vertical 1-foot resolution matched resistivity, 60-inch DOI
 M1R9    .ohm.m       8 120 90  1 : Vertical 1-foot resolution matched resistivity, 90-inch DOI
 M1RX    .ohm.m       8 120 90  1 : Vertical 1-foot resolution matched resistivity, 120-inch DOI
 QHDL    .lbf        99 995 99  1 : Quality for differential tension pulls for HDIL
 RTHK    .ppm/pct    31 995 99  1 : Ratio of thorium to potassium
 RTHU    .1          31 995 99  1 : Ratio of thorium to uranium
 RUK     .ppm/pct    31 995 99  1 : Ratio of uranium to potassium
 SPD     .m/min      99 636 99  1 : Speed
 TH      .ppm        31 790 99  1 : Thorium concentration
 TTEN    .lbf        99 635 99  1 : Total tension
 U       .ppm        31 792 99  1 : Uranium content
 WRM     .ohm.m      99 823 99  1 : Mud resistivity
 WTBH    .degC       99 995 99  1 : Temperature of borehole
~Parameter Information Block
#MNEM.UNIT                     Value                    Description
#----.----   ----------------------------------------   -------------------------------
 HIDE.       HIGH DEFINITION INDUCTION LOG            : Header Identifer
 HID1.       X-MULTIPOLE ARRAY ACOUSTILOG             : Header Identifer
 HID2.       GAMMA RAY LOG                            : Header Identifer
 CLAB.       RIG NAME                                 : County Label (Comments)
 SLAB.       COUNTRY                                  : State Label (Comments)
 STAT.       NETHERLANDS                              : State Or Province
 CMT1.       FINAL PRINT                              : Comment 1  
 CMT2.       SCALE 1:200/500                          : Comment 2  
 FL1 .       LON: 04 21'06.15"  E                     : Field Location 1
 OS1 .       ZDL/CN                                   : Other Services Line 1
 OS2 .       RCI                                      : Other Services Line 2
 OS3 .       BHP                                      : Other Services Line 3
 PDAT.       MSL                                      : Permanent Datum
 EPD .M      0                                        : Elevation Of Perm. Datum
 LMF .       DF                                       : Log Measured From
 APD .M      41.1                                     : Above Permanent Datum
 DMF .       DF                                       : Drilling Measured From
 EKB .M      41.1                                     : Elevation Of Kelly Bushing
 EDF .M      41.1                                     : Elevation Of Derrick Floor
 EGL .M      -42.0                                    : Elevation Of Ground Level
 TRIP.       5                                        : Trip Number
 SON .       13-168551                                : Service Order Number
 TDD .M      3491                                     : Total Depth - Driller
 BLI .M      3480                                     : Bottom Log Interval
 TLI .M      3296                                     : Top Log Interval
 CSIZ.IN     9.625                                    : Casing Size
 CBDR.M      3299                                     : Casing Bottom - Driller
 CBLO.M      3996.2                                   : Casing Bottom - Logger
 BS  .IN     8.375                                    : Bit Size
 DFT .       LTOBM                                    : Drilling Fluid Type
 DFD .G/C3   1.52                                     : Drilling Fluid Density
 DFV .S      25                                       : Drilling Fluid Viscosity
 DFL .M3     1.2                                      : Drilling Fluid Loss
 MSS .       FLOWLINE                                 : Mud Sample Source
 RMS .OHMM   >10                                      : Resistivity Of Mud Sample
 RMFS.OHMM   >10                                      : Resistivity Of Mud Filtrate Sample
 RMCS.OHMM   >10                                      : Resistivity Of Mud Cake Sample
 MFSS.       NA                                       : Mud Filtrate Sample Source
 MCSS.       NA                                       : Mud Cake Sample Source
 RMB .OHMM   >10                                      : Mud Resistivity At Bht
 TSC .       36 HRS                                   : Time Since Circulation
 MRT .DEGC   104                                      : Maximum Recorded Temperature
 LUN .       8934                                     : Logging Unit Number
 LUL .       DEN HELDER                               : Logging Unit Location
 ENGI.       A. WIEFKERS/H. V DIJKEN                  : Engineer's Name
 WITN.       P. GERRITSEN                             : Witness' Name
 TSTR.       HDIL/XMAC/GR                             : Title Service Mnemonic
 TSTG.       NA                                       : Title Service Mnemonic
 STUS.       FINAL                                    : Status
 LCNM.       BAKER ATLAS                              : Logging Company Name
 LCC .       150                                      : Logging Company Code
 OPMD.       OH.WIRE                                  : Operation Mode
 PANA.       A. WIEFKERS/H. V DIJKEN                  : Processing Analyst
 PCON.       BAKER ATLAS                              : Processing Contractor
 APIN.                                                : API Serial Number
~Other information
DEPTH AUDIT:                                                                    
- ALL DEPTHS ARE REFERENCED TO DRILL FLOOR.                                     
- TOOLS DEPLOYED BY DRILL PIPE USING BAKER ATLAS PCL EQUIPMENT WITH CONSTANT    
  TENSION DEVICE.                                                               
GENERAL:                                                                        
- LAST CIRCULATION ON 04-JUN-2013 AT 02:30 HRS.                                 
- MAXIMUM RECORDED TEMPERATURE FROM TTRM SUB IS 104 DEGC AT 3441 M              
- MAXIMUM RECORDED DEVIATION IS 32 DEG AT 3421 FROM ORIT SUB.                   
- TOOLSTRING RUN  A5 PCL/DSL/CN/ZDL/MREX/KNJT/ORIT/XMAC/WGI/HDIL/CENT           
- DSL AND WGI RECORDED SIMULTANEOUS BUT PRESENTED UNDER SEPARATE HEADINGS       
- ADDITIONAL MUD PROPERTIES: WHOLE MUD SALINITY = 26000 MG/L                    
                             CORRECTED SOLIDS = 28 %                            
                             YP = 22 LB/100FT2                                  
                             PV = 14 CP                                         
                             OIL/WATER RATIO 80/20                              
- RUNS A1-A2-A3-A4 WIRELINE RUN WITH DIFFERENT TOOL CONFIGURATIONS. UNABLE TO   
  REACH TD, HUD 3393 M. ONLY ON RUN A2 DATA RECORDED FROM 3393 UPTO THE CASING  
  SHOE. DATA NOT PRESENTED.                                                     
- DATA RECORDED IN DOWNWARDS DIRECTION. NO UP LOG DATA AVAILABLE DUE TO TOOL    
  FAILURE (PARTING OF 3218MB MANDREL).                                          
- TOOL DEPLOYMENT INTO OPEN HOLE WAS NOT SMOOTH, DATA RECORDED IN TWO FILES     
  DATA SPLICE AT 3360 M.                                                        
GR:                                                                             
- GAMARAY RECORDED IN SPECTRAL MODE, DSL DATA NOT PRESENTED.                    
- GAMMA RAY READING HIGH DUE TO FORMATION ACTIVATION FROM CN/ZDL TOOLS.         
CN:                                                                             
-RECORDED IN SAME PASS, DATA PRESENTED UNDER SEPERATE HEADER.                   
ZDL:                                                                            
-RECORDED IN SAME PASS, DATA PRESENTED UNDER SEPERATE HEADER.                   
MREX:                                                                           
- NO DATA RECORDED.                                                             
XMAC-F1:                                                                        
- XMAC-F1 WAS RUN CENTRALISED.                                                  
- XMAC-F1 RUN IN SUBSET 1: FULLWAVE MONOPOLE AND CROSS DIPOLE.                  
- DT24QI IS THE COMPRESSIONAL DT DERIVED FROM SURFACE PICKED FIRST ARRIVALS.    
  DTCQI IS THE WAVE AVAN PROCESSED COMPRESSIONAL DT DERIVED FROM THE FULLWAVE   
  MONOPOLE DATA.                                                                
  DTSQI IS THE WAVE AVAN PROCESSED SHEAR DT DERIVED FROM THE FULLWAVE MONOPOLE  
  DATA.                                                                         
  DTSTQI IS THE WAVE AVAN PROCESSED STONELY DT DERIVED FROM THE FULLWAVE        
  MONOPOLE DATA.                                                                
  DTXXQI AND DTYYQI ARE THE ESTIMATED DIRECTIONAL DT DERIVED FROM THE DIPOLE    
  FULLWAVE DATA USING WAVE AVAN PROCESSING.                                     
- TOTAL INTEGRATED TRAVEL TIME FROM LAST READING DT TO CASING SHOE: 50.4 MS.    
- TOOL STRING CENTRALIZATION OPTIMIZED FOR 8 3/8" HOLE.                         
WGI (6CAL):                                                                     
- CALIPER CURVE (CHADW) PRESENTED IS FROM WGI.                                  
- AT 3360 M CALIPER ARMS 2 AND 5 MOST LIKELY GOT DAMAGED                        
HDIL:                                                                           
- HDIL IS TEMPERATURE CORRECTED                                                 
- HDIL TOOL WAS RUN CENTRALISED.                                                
- PRESENTED ARE THE 1FT MATCHED RESOLUTION CURVES (M1R?)                        
- HDIL PROCESSING AND CENTRALIZATION OPTIMIZED FOR 8 3/8" HOLE .                
#  Curve Data
~A  DEPT        BIT         CHT         GR          GRSL        K           KTH         M1R1        M1R2        M1R3        M1R6        M1R9        M1RX        QHDL        RTHK        RTHU        RUK         SPD         TH          TTEN        U           WRM         WTBH      
# ...
   3333.3750      8.3750    792.8642    103.6118    103.5425      2.9631     84.0613      1.2486      1.1684      1.1335      1.1104      1.0981      1.0726      0.0000      4.0629      4.4417      0.9149     13.6782     12.0385   5594.7466      2.7108   1377.5780     96.0825
   3333.5000      8.3750    789.2795    102.2060    102.0107      3.0576     84.5950      1.3502      1.2470      1.2042      1.1802      1.1675      1.1398      0.0000      3.8977      4.8787      0.8000     13.7324     11.9160   5623.9556      2.4449   1392.0631     96.0211
   3333.6250      8.3750    790.1630     98.5948     98.3674      3.1440     83.6955      1.4331      1.3095      1.2598      1.2356      1.2230      1.1941      0.0000      3.7478      5.5972      0.6709     13.7879     11.7831   5646.4165      2.1091   1405.0768     95.9811
   3333.7500      8.3750    796.4036     94.4935     94.4034      3.1356     81.7694      1.4722      1.3362      1.2823      1.2591      1.2472      1.2192      0.0000      3.7704      6.3607      0.5928     13.8298     11.8226   5655.4775      1.8587   1395.9673     95.9844
   3333.8750      8.3750    804.3557     92.1623     92.2346      2.9892     79.6177      1.4677      1.3285      1.2739      1.2526      1.2420      1.2163      0.0000      4.0352      6.4671      0.6242     13.8554     12.0571   5656.7202      1.8647   1367.0026     96.0442
   3334.0000      8.3750    812.1415     91.0239     91.1183      2.8042     77.2014      1.4596      1.3195      1.2650      1.2452      1.2358      1.2127      0.0000      4.3455      5.9502      0.7315     13.8706     12.1820   5653.9951      2.0495   1344.0248     96.1431
   3334.1250      8.3750    819.2666     90.2416     90.2296      2.6371     74.5589      1.5101      1.3601      1.3021      1.2822      1.2735      1.2517      0.0000      4.6040      5.2759      0.8731     13.8783     12.1402   5643.8516      2.3019   1335.1694     96.2337
   3334.2500      8.3750    823.6373     90.1428     90.0449      2.4977     72.8630      1.6438      1.4686      1.4016      1.3795      1.3710      1.3491      0.0000      4.8530      4.8467      1.0021     13.8924     12.1183   5628.3057      2.5014   1330.4988     96.2712
   3334.3750      8.3750    823.2149     90.1043     90.0081      2.3704     71.3948      1.7233      1.5332      1.4612      1.4383      1.4311      1.4107      0.0000      5.0818      4.4985      1.1305     13.9190     12.0449   5616.0659      2.6786   1322.0000     96.2646
   3334.5000      8.3750    815.5880     88.9290     88.9207      2.2667     68.8728      1.5793      1.4180      1.3573      1.3383      1.3341      1.3197      0.0000      5.1458      4.0569      1.2692     13.9499     11.6640   5611.6138      2.8762   1322.6572     96.2221
   3334.6250      8.3750    804.5276     86.2885     86.4327      2.2027     65.5506      1.4166      1.2838      1.2346      1.2198      1.2182      1.2089      0.0000      5.0197      3.6556      1.3737     13.9703     11.0578   5612.8154      3.0256   1344.1185     96.1449
   3334.7500      8.3750    797.4313     83.6917     83.9336      2.1640     63.0952      1.3480      1.2244      1.1801      1.1675      1.1680      1.1620      0.0000      4.8829      3.4712      1.4067     13.9849     10.5667   5615.9971      3.0442   1372.6178     96.0538
   3334.8750      8.3750    799.7826     82.0579     82.2169      2.1127     62.1136      1.3031      1.1839      1.1426      1.1318      1.1342      1.1308      0.0000      4.9222      3.5586      1.3833     13.9970     10.3989   5620.2847      2.9227   1382.9459     95.9912
   3335.0000      8.3750    807.8325     79.3513     79.2884      2.0142     60.6716      1.2602      1.1447      1.1058      1.0969      1.1010      1.0999      0.0000      5.1421      3.8479      1.3367     13.9940     10.3534   5626.7822      2.6929   1368.0502     95.9720
   3335.1250      8.3750    814.5966     74.0261     73.8060      1.8639     57.0555      1.2172      1.1042      1.0673      1.0602      1.0658      1.0666      0.0000      5.4243      4.1377      1.3109     13.9717     10.1101   5633.3867      2.4434   1345.1176     95.9706
   3335.2500      8.3750    815.8214     67.3689     67.2182      1.7256     51.6678      1.1754      1.0632      1.0278      1.0223      1.0290      1.0314      0.0000      5.5437      4.0827      1.3581     13.9500      9.5658   5632.5620      2.3429   1332.9243     95.9706
   3335.3750      8.3750    811.6109     62.9824     63.0040      1.6558     47.7781      1.1715      1.0515      1.0153      1.0110      1.0189      1.0228      0.0000      5.5132      3.8458      1.4339     13.9411      9.1290   5624.9248      2.3741   1330.2743     95.9706
   3335.5000      8.3750    803.4842     63.1154     63.2725      1.6402     47.3735      1.2075      1.0701      1.0307      1.0274      1.0367      1.0421      0.0000      5.4860      3.6421      1.5063     13.9334      8.9978   5618.2695      2.4706   1332.3555     95.9706
   3335.6250      8.3750    797.5032     67.6151     67.8729      1.6449     49.3550      1.2238      1.0723      1.0308      1.0286      1.0387      1.0455      0.0000      5.4978      3.2678      1.6848     13.9089      9.0433   5622.7310      2.7716   1335.3425     95.9720
   3335.7500      8.3750    796.8312     73.3621     73.6878      1.6907     52.3202      1.1919      1.0395      0.9989      0.9976      1.0077      1.0151      0.0000      5.5943      3.0242      1.8498     13.8712      9.4595   5637.4067      3.1276   1341.3337     95.9909
   3335.8750      8.3750    798.4388     79.0996     79.3744      1.7999     57.3868      1.1501      1.0030      0.9641      0.9637      0.9733      0.9809      0.0000      5.8877      3.3117      1.7787     13.8340     10.5991   5654.5640      3.2008   1350.1677     96.0437
   3336.0000      8.3750    799.5526     85.0001     85.0495      1.9681     65.1112      1.1365      0.9923      0.9539      0.9541      0.9633      0.9714      0.0000      6.1669      4.2565      1.4575     13.8125     12.1399   5666.3853      2.8625   1355.3135     96.0979
   3336.1250      8.3750    801.3640     90.4903     90.2900      2.1616     72.6350      1.1445      1.0012      0.9622      0.9628      0.9718      0.9805      0.0000      6.0884      5.3121      1.1475     13.8088     13.1566   5675.0342      2.4784   1353.8186     96.1089
   3336.2500      8.3750    807.8725     93.7951     93.5401      2.3334     76.9333      1.1430      1.0050      0.9661      0.9669      0.9753      0.9843      0.0000      5.6586      5.7558      0.9833     13.8103     13.1994   5680.4482      2.2935   1348.5125     96.0803
   3336.3750      8.3750    818.3179     94.6786     94.4889      2.4418     78.0872      1.1231      0.9946      0.9568      0.9575      0.9649      0.9738      0.0000      5.2527      5.6833      0.9242     13.7929     12.8237   5678.3364      2.2564   1350.6113     96.0554
   3336.5000      8.3750    826.0576     94.6802     94.4509      2.5020     78.2413      1.1157      0.9927      0.9552      0.9555      0.9619      0.9708      0.0000      5.0062      5.6116      0.8921     13.7534     12.5252   5674.2725      2.2320   1363.2130     96.0446
   3336.6250      8.3750    826.2704     94.8420     94.4250      2.5397     78.3036      1.1169      0.9959      0.9581      0.9578      0.9630      0.9717      0.0000      4.8157      5.5247      0.8716     13.7077     12.2301   5680.2959      2.2137   1371.8927     96.0242
   3336.7500      8.3750    821.8680     94.0500     93.5388      2.5367     77.1804      1.1109      0.9924      0.9544      0.9533      0.9573      0.9656      0.0000      4.6948      5.2898      0.8877     13.6736     11.9094   5695.4546      2.2517   1367.4181     95.9928
   3336.8750      8.3750    817.1593     91.7734     91.4013      2.4552     74.6087      1.1287      1.0073      0.9676      0.9655      0.9683      0.9763      0.0000      4.8158      5.0538      0.9529     13.6506     11.8235   5705.3857      2.3395   1354.2252     95.9729
