~VERSION INFORMATION
#
#File created by GEO-data Geological Wellsite Services GmbH.
#Parts or all of this file may be confidential.
#
# This is a "LAS" file containing logging data in ascii form.
#
 VERS.        2.0             :CWLS LOG ASCII STANDARD - VERSION 2.0
 WRAP.        NO              :Single line per depth step
~WELL INFORMATION
#MNEM.UNIT        DATA              DESCRIPTION OF MNEMONIC
#---------    -------------         ------------------------
 STRT.M       193.00          :Start DEPTH
 STOP.M       2445.00         :End DEPTH
 STEP.M       1.00            :DEPTH step
 NULL.        -999.25         :NULL VALUE
 COMP.        CLG             :COMPANY
 WELL.        Cal-GT-05       :WELL
 FLD .        Californie      :FIELD
 LOC .        Californie      :LOCATION
 PROV.        <no data>       :PROVINCE
 CNTY.        <no data>       :COUNTY
 STAT.        Niederlande     :STATE
 CTRY.        Niederlande     :COUNTRY
 SRVC.        GeoService      :SERVICE COMPANY
 DATE.        19.04.2016      :DATE
 UWI .        {32CBF15E-C69E-4316-ABD5-8F1549ADA7B1}:UNIQUE WELL ID
 API .        <no data>       :API NUMBER
 LBEG.        No ID entered   :(LBEG) well code
~CURVE INFORMATION
#MNEM.UNIT      API CODE      CURVE DESCRIPTION
#---------    -------------   ------------------------------
 DEPTH.M                      :depth
 ROP .MINPERM                 :rop
 WOB .TONF                    :wob
 HOOKLOAD.TONF                :hookload
 RPM_BIT.RPM                  :rpm_bit
 RPM_STRING.RPM               :rpm_string
 TORQUE.DANM                  :torque
 PUMP_PRESSURE.BAR            :pump_pressure
 FLOW_IN.LPERMIN              :flow_in
 FLOW_OUT.LPERMIN             :flow_out
 C1  .VOLPERCENT              :c1
 C2  .VOLPERCENT              :c2
 C3  .VOLPERCENT              :c3
 IC4 .VOLPERCENT              :ic4
 NC4 .VOLPERCENT              :nc4
 IC5 .VOLPERCENT              :ic5
 NC5 .VOLPERCENT              :nc5
 C_TOTAL.VOLPERCENT           :c_total
 LAGTIME.MIN                  :lagtime
 MUDWEIGHT_IN.KGPERL          :mudweight_in
 MUDWEIGHT_OUT.KGPERL         :mudweight_out
 TEMP_IN.DEGRC                :temp_in
 TEMP_OUT.DEGRC               :temp_out
 CO2 .VOLPERCENT              :co2
 H2S_RIGFLOOR.PPM             :h2s_rigfloor
 H2S_PITS.PPM                 :h2s_pits
 H2S_SHAKERS.PPM              :h2s_shakers
 POREPRESSGRD.KGPERL          :porepressgrd
 ECD .KGPERL                  :ecd
 D_EXPONENT.NOUNIT            :d_exponent
 DC_EXPONENT.NOUNIT           :dc_exponent
 SIGMA.NOUNIT                 :sigma
 CTOOTH.NOUNIT                :ctooth
 CBEARING.NOUNIT              :cbearing
 REVS_BIT_TOTAL.NOUNIT        :revs_bit_total
 BIT_HOURS.HR                 :bit_hours
 CLOCKDATE.                   :Date/Time
~PARAMETER INFORMATION
#MNEM.UNIT        VALUE       DESCRIPTION OF MNEMONIC
#---------    -------------   ------------------------------
~OTHER INFORMATION
~ASCII Log data section
# ...
  343.00    3.22    4.41   49.70  241.80   50.77   188.09   93.24  2728.96    0.00    0.0000    0.0000    0.0000    0.0000    0.0000    0.0000    0.0000    0.0078   26.27    1.07    1.15   24.43   23.92    0.000    0.00    0.00    0.00    1.030    1.15    1.092    0.978    0.424    0.41    0.06  116311.00    9.33  20160207.163654
  344.00    3.21    4.38   49.76  241.83   50.76   189.50   93.58  2729.60    0.00    0.0000    0.0000    0.0000    0.0000    0.0000    0.0000    0.0000    0.0061   26.29    1.04    1.14   24.16   23.78    0.000    0.00    0.00    0.00    1.030    1.15    1.089    0.976    0.423    0.41    0.06  117089.00    9.38  20160207.164007
  345.00    3.24    4.50   49.74  241.89   50.76   188.61   93.40  2730.37    0.00    0.0000    0.0000    0.0000    0.0000    0.0000    0.0000    0.0000    0.0064   26.36    1.01    1.14   21.88   23.58    0.000    0.00    0.00    0.00    1.030    1.15    1.095    0.981    0.426    0.41    0.06  117867.00    9.43  20160207.164320
  346.00    3.20    4.73   49.84  241.88   50.77   177.49   93.35  2730.11    0.00    0.0000    0.0000    0.0000    0.0000    0.0000    0.0000    0.0000    0.0086   26.44    0.92    1.14   20.63   23.45    0.000    0.00    0.00    0.00    1.030    1.15    1.107    0.991    0.432    0.42    0.06  118649.00    9.49  20160207.164634
  347.00    3.22    4.94   49.80  241.72   50.77   176.88   93.28  2727.92    0.00    0.0000    0.0000    0.0000    0.0000    0.0000    0.0000    0.0000    0.0098   26.50    0.84    1.14   23.76   23.45    0.000    0.00    0.00    0.00    1.030    1.15    1.116    1.000    0.437    0.42    0.06  119427.00    9.54  20160207.164947
  348.00    3.22    5.13   49.86  241.73   50.77   170.46   93.52  2727.95    0.00    0.0000    0.0000    0.0000    0.0000    0.0000    0.0000    0.0000    0.0093   26.57    0.79    1.14   22.72   23.50    0.000    0.00    0.00    0.00    1.030    1.15    1.125    1.008    0.442    0.42    0.06  120204.00    9.59  20160207.165300
  349.00    4.83    5.02   49.66  240.30   50.53   178.59   91.88  2710.92    0.00    0.0000    0.0000    0.0000    0.0000    0.0000    0.0000    0.0000    0.0078   26.88    0.88    1.15   24.46   23.57    0.000    0.00    0.00    0.00    1.030    1.15    1.168    1.047    0.456    0.43    0.06  121363.00    9.67  20160207.170811
  350.00    3.23    5.13   49.57  239.62   50.43   191.11   91.17  2702.68    0.00    0.0000    0.0000    0.0000    0.0000    0.0000    0.0000    0.0000    0.0007   26.94    0.87    1.15   24.42   23.72 -999.250    0.00    0.00    0.00    1.030    1.15    1.122    1.005    0.441    0.43    0.07  122138.00    9.73  20160207.171125
  351.00    3.26    5.97   49.04  239.68   50.42   241.58   91.51  2703.69    0.00    0.0000    0.0000    0.0000    0.0000    0.0000    0.0000    0.0000    0.0005   26.99    0.91    1.15   24.39   23.98    0.000    0.00    0.00    0.00    1.030    1.15    1.162    1.040    0.461    0.44    0.07  122921.00    9.78  20160207.171441
  352.00    3.26    5.38   49.27  239.75   50.43   212.61   90.76  2704.56    0.00    0.0000    0.0000    0.0000    0.0000    0.0000    0.0000    0.0000    0.0008   27.05    0.95    1.15   24.39   24.06    0.000    0.00    0.00    0.00    1.030    1.15    1.138    1.019    0.448    0.44    0.07  123700.00    9.84  20160207.171756
  353.00    3.25    4.96   49.27  232.98   50.42   191.29   70.66  2606.06    0.00    0.0000    0.0000    0.0000    0.0000    0.0000    0.0000    0.0000    0.0010   31.66    0.96    1.15   21.30   24.20    0.000    0.00    0.00    0.00    1.030    1.15    1.112    0.996    0.436    0.45    0.07  124461.00    9.89  20160207.172112
  354.00    3.45    4.57   49.37  212.37   50.43   195.32   70.46  2313.40    0.00    0.0000    0.0000    0.0000    0.0000    0.0000    0.0000    0.0000    0.0009   31.79    1.09    1.14   24.40   24.31    0.000    0.00    0.00    0.00    1.030    1.15    1.084    0.971    0.423    0.45    0.07  125190.00    9.95  20160207.172438
  355.00    3.44    4.23   49.19  211.90   50.42   204.49   69.77  2306.80    0.00    0.0000    0.0000    0.0000    0.0000    0.0000    0.0000    0.0000    0.0008   31.99    1.23    1.14   24.57   24.29    0.000    0.00    0.00    0.00    1.030    1.15    1.069    0.957    0.415    0.45    0.07  125922.00   10.01  20160207.172805
  356.00    3.43    4.01   49.52  211.53   50.42   187.52   69.77  2301.67    0.00    0.0000    0.0000    0.0000    0.0000    0.0000    0.0000    0.0000    0.0007   32.05    1.23    1.14   24.66   24.26    0.000    0.00    0.00    0.00    1.030    1.15    1.058    0.948    0.410    0.45    0.07  126644.00   10.06  20160207.173130
  357.00    5.25    4.23   49.92  212.37   49.18   189.53   93.30  2331.36    0.00    0.0000    0.0000    0.0000    0.0000    0.0000    0.0000    0.0000    0.0008   27.33    1.22    1.14   23.20   24.26    0.000    0.00    0.00    0.00    1.030    1.15    1.069    0.957    0.415    0.46    0.07  127756.00   10.15  20160207.175021
  358.00    3.06    5.14   49.98  239.82   50.40   219.15   92.62  2705.98    0.00    0.0000    0.0000    0.0000    0.0000    0.0000    0.0000    0.0000    0.0006   27.39    1.20    1.14   24.61   24.31    0.000    0.00    0.00    0.00    1.030    1.15    1.170    1.049    0.458    0.46    0.07  128492.00   10.20  20160207.175325
  359.00    3.07    4.90   50.26  239.85   50.40   206.18   92.32  2706.41    0.00    0.0000    0.0000    0.0000    0.0000    0.0000    0.0000    0.0000    0.0008   27.47    1.21    1.14   23.49   24.32    0.000    0.00    0.00    0.00    1.030    1.15    1.103    0.988    0.433    0.47    0.07  129227.00   10.25  20160207.175629
  360.00    3.07    4.85   50.38  239.80   50.40   202.51   92.35  2705.77    0.00    0.0000    0.0000    0.0000    0.0000    0.0000    0.0000    0.0000    0.0000   27.53    1.21    1.14   24.41   24.36 -999.250    0.00    0.00    0.00    1.030    1.15    1.100    0.985    0.431    0.47    0.07  129959.00   10.30  20160207.175932
  361.00    3.07    5.12   50.00  239.87   50.40   218.13   92.61  2706.69    0.00    0.0000    0.0000    0.0000    0.0000    0.0000    0.0000    0.0000    0.0006   27.58    1.21    1.14   24.39   24.26    0.000    0.00    0.00    0.00    1.030    1.15    1.114    0.997    0.438    0.47    0.07  130694.00   10.35  20160207.180236
  362.00    3.06    5.11   49.96  239.91   50.40   214.03   92.58  2707.40    0.00    0.0000    0.0000    0.0000    0.0000    0.0000    0.0000    0.0000    0.0009   27.58    1.21    1.14   24.21   24.27    0.000    0.00    0.00    0.00    1.030    1.15    1.113    0.997    0.438    0.48    0.08  131430.00   10.41  20160207.180540
  363.00    3.07    5.16   49.84  239.88   50.40   210.82   92.56  2706.79    0.00    0.0000    0.0000    0.0000    0.0000    0.0000    0.0000    0.0000    0.0008   27.72    1.21    1.14   24.20   24.24    0.000    0.00    0.00    0.00    1.030    1.15    1.114    0.998    0.439    0.48    0.08  132166.00   10.46  20160207.180844
  364.00    3.07    5.17   49.79  239.86   50.40   218.88   92.24  2706.62    0.00    0.0000    0.0000    0.0000    0.0000    0.0000    0.0000    0.0000    0.0010   27.76    1.20    1.13   24.30   24.22    0.000    0.00    0.00    0.00    1.030    1.15    1.116    1.000    0.439    0.48    0.08  132901.00   10.51  20160207.181148
  365.00    3.06    5.03   49.95  239.88   50.40   213.52   92.15  2706.84    0.00    0.0000    0.0000    0.0000    0.0000    0.0000    0.0000    0.0000    0.0012   27.82    1.21    1.14   24.26   24.27    0.000    0.00    0.00    0.00    1.030    1.15    1.109    0.993    0.436    0.49    0.08  133637.00   10.56  20160207.181452
  366.00    3.07    5.18   49.75  239.89   50.40   216.48   92.07  2707.01    0.00    0.0000    0.0000    0.0000    0.0000    0.0000    0.0000    0.0000    0.0010   27.87    1.21    1.14   24.34   24.32    0.000    0.00    0.00    0.00    1.030    1.15    1.115    0.999    0.439    0.49    0.08  134373.00   10.61  20160207.181756
  367.00    3.07    5.08   49.90  239.89   50.40   213.88   92.19  2707.04    0.00    0.0000    0.0000    0.0000    0.0000    0.0000    0.0000    0.0000    0.0005   27.94    1.20    1.14   24.48   24.35    0.000    0.00    0.00    0.00    1.030    1.15    1.111    0.995    0.437    0.50    0.08  135108.00   10.66  20160207.182100
