~VERSION INFORMATION
#
#File created by GEO-data Geological Wellsite Services GmbH.
#Parts or all of this file may be confidential.
#
# This is a "LAS" file containing logging data in ascii form.
#
 VERS.        2.0             :CWLS LOG ASCII STANDARD - VERSION 2.0
 WRAP.        NO              :Single line per depth step
~WELL INFORMATION
#MNEM.UNIT        DATA              DESCRIPTION OF MNEMONIC
#---------    -------------         ------------------------
 STRT.M       193.00          :Start DEPTH
 STOP.M       2445.00         :End DEPTH
 STEP.M       1.00            :DEPTH step
 NULL.        -999.25         :NULL VALUE
 COMP.        CLG             :COMPANY
 WELL.        Cal-GT-05       :WELL
 FLD .        Californie      :FIELD
 LOC .        Californie      :LOCATION
 PROV.        <no data>       :PROVINCE
 CNTY.        <no data>       :COUNTY
 STAT.        Niederlande     :STATE
 CTRY.        Niederlande     :COUNTRY
 SRVC.        GeoService      :SERVICE COMPANY
 DATE.        19.04.2016      :DATE
 UWI .        {32CBF15E-C69E-4316-ABD5-8F1549ADA7B1}:UNIQUE WELL ID
 API .        <no data>       :API NUMBER
 LBEG.        No ID entered   :(LBEG) well code
~CURVE INFORMATION
#MNEM.UNIT      API CODE      CURVE DESCRIPTION
#---------    -------------   ------------------------------
 DEPTH.M                      :depth
 ROP .MINPERM                 :rop
 WOB .TONF                    :wob
 HOOKLOAD.TONF                :hookload
 RPM_BIT.RPM                  :rpm_bit
 RPM_STRING.RPM               :rpm_string
 TORQUE.DANM                  :torque
 PUMP_PRESSURE.BAR            :pump_pressure
 FLOW_IN.LPERMIN              :flow_in
 FLOW_OUT.LPERMIN             :flow_out
 C1  .VOLPERCENT              :c1
 C2  .VOLPERCENT              :c2
 C3  .VOLPERCENT              :c3
 IC4 .VOLPERCENT              :ic4
 NC4 .VOLPERCENT              :nc4
 IC5 .VOLPERCENT              :ic5
 NC5 .VOLPERCENT              :nc5
 C_TOTAL.VOLPERCENT           :c_total
 LAGTIME.MIN                  :lagtime
 MUDWEIGHT_IN.KGPERL          :mudweight_in
 MUDWEIGHT_OUT.KGPERL         :mudweight_out
 TEMP_IN.DEGRC                :temp_in
 TEMP_OUT.DEGRC               :temp_out
 CO2 .VOLPERCENT              :co2
 H2S_RIGFLOOR.PPM             :h2s_rigfloor
 H2S_PITS.PPM                 :h2s_pits
 H2S_SHAKERS.PPM              :h2s_shakers
 POREPRESSGRD.KGPERL          :porepressgrd
 ECD .KGPERL                  :ecd
 D_EXPONENT.NOUNIT            :d_exponent
 DC_EXPONENT.NOUNIT           :dc_exponent
 SIGMA.NOUNIT                 :sigma
 CTOOTH.NOUNIT                :ctooth
 CBEARING.NOUNIT              :cbearing
 REVS_BIT_TOTAL.NOUNIT        :revs_bit_total
 BIT_HOURS.HR                 :bit_hours
 CLOCKDATE.                   :Date/Time
~PARAMETER INFORMATION
#MNEM.UNIT        VALUE       DESCRIPTION OF MNEMONIC
#---------    -------------   ------------------------------
~OTHER INFORMATION
~ASCII Log data section
# ...
  943.00    6.74    7.36   51.98  121.84  121.84  1058.11  107.73  2999.88    0.00    0.0000    0.0000    0.0000    0.0000    0.0000    0.0000    0.0000    0.0058   20.35    1.14    1.14   44.99   44.29    0.000    0.00    0.00    0.00    1.030    1.15    1.333    1.194    0.622    0.35    0.16  109360.00   18.16  20160215.154443
  944.00    7.33    7.54   51.87  121.84  121.84  1068.51  108.33  3000.03    0.00    0.0000    0.0000    0.0000    0.0000    0.0000    0.0000    0.0000    0.0063   20.37    1.14    1.14   45.19   44.35    0.000    0.00    0.00    0.00    1.030    1.15    1.360    1.218    0.635    0.36    0.17  110253.00   18.28  20160215.155203
  945.00   10.85    6.76   53.49  121.84  121.84   974.29  108.39  3000.04    0.00    0.0000    0.0000    0.0000    0.0000    0.0000    0.0000    0.0000    0.0069   20.39    1.14    1.14   45.21   44.43    0.000    0.00    0.00    0.00    1.030    1.15    1.404    1.257    0.649    0.36    0.17  111575.00   18.46  20160215.160254
  946.00    6.21    7.22   52.61  121.84  121.84  1075.04  108.25  3001.20    0.00    0.0000    0.0000    0.0000    0.0000    0.0000    0.0000    0.0000    0.0067   20.42    1.14    1.14   45.43   44.56    0.000    0.00    0.00    0.00    1.030    1.15    1.307    1.171    0.610    0.37    0.17  112330.00   18.56  20160215.160924
  947.00    5.77    8.03   51.68  121.84  121.84  1147.48  108.31  3000.40    0.00    0.0000    0.0000    0.0000    0.0000    0.0000    0.0000    0.0000    0.0069   20.45    1.14    1.14   45.57   44.60    0.000    0.00    0.00    0.00    1.030    1.15    1.329    1.190    0.626    0.37    0.17  113035.00   18.66  20160215.161511
  948.00    6.28    7.96   51.68  121.84  121.84  1141.94  108.43  2999.44    0.00    0.0000    0.0000    0.0000    0.0000    0.0000    0.0000    0.0000    0.0069   20.48    1.14    1.14   45.50   44.69    0.000    0.00    0.00    0.00    1.030    1.15    1.337    1.197    0.629    0.37    0.17  113799.00   18.76  20160215.162127
  949.00    6.14    7.88   51.79  121.84  121.84  1135.62  108.31  2999.55    0.00    0.0000    0.0000    0.0000    0.0000    0.0000    0.0000    0.0000    0.0071   20.51    1.14    1.14   45.54   44.79    0.000    0.00    0.00    0.00    1.030    1.15    1.334    1.195    0.627    0.37    0.17  114546.00   18.87  20160215.162735
  950.00    6.21    7.87   51.59  121.84  121.84  1129.43  107.98  2999.66    0.00    0.0000    0.0000    0.0000    0.0000    0.0000    0.0000    0.0000    0.0067   20.53    1.14    1.14   45.58   44.90    0.000    0.00    0.00    0.00    1.030    1.15    1.334    1.195    0.627    0.38    0.18  115305.00   18.97  20160215.163349
  951.00    6.20    7.88   51.67  121.84  121.84  1110.59  108.54  2999.50    0.00    0.0000    0.0000    0.0000    0.0000    0.0000    0.0000    0.0000    0.0068   20.57    1.14    1.14   45.72   44.99    0.000    0.00    0.00    0.00    1.030    1.15    1.336    1.197    0.628    0.38    0.18  116059.00   19.07  20160215.164000
  952.00    6.20    7.82   51.79  121.84  121.84  1126.45  108.54  2999.42    0.00    0.0000    0.0000    0.0000    0.0000    0.0000    0.0000    0.0000    0.0066   20.57    1.14    1.14   45.79   45.07    0.000    0.00    0.00    0.00    1.030    1.15    1.329    1.190    0.624    0.38    0.18  116816.00   19.18  20160215.164613
  953.00    6.62    7.93   52.63  121.84  121.84  1127.15  108.03  3000.81    0.00    0.0000    0.0000    0.0000    0.0000    0.0000    0.0000    0.0000    0.0069   20.61    1.13    1.14   45.89   45.15    0.000    0.00    0.00    0.00    1.030    1.15    1.351    1.210    0.635    0.39    0.18  117622.00   19.29  20160215.165250
  954.00    6.84    8.02   52.46  121.84  121.84  1125.76  108.49  3002.46    0.00    0.0000    0.0000    0.0000    0.0000    0.0000    0.0000    0.0000    0.0072   20.63    1.14    1.14   45.85   45.22    0.000    0.00    0.00    0.00    1.030    1.15    1.365    1.222    0.642    0.39    0.18  118455.00   19.40  20160215.165940
  955.00    6.80    8.09   51.43  121.84  121.84  1155.64  108.78  3000.25    0.00    0.0000    0.0000    0.0000    0.0000    0.0000    0.0000    0.0000    0.0095   20.65    1.14    1.14   46.06   45.14 -999.250    0.00    0.00    0.00    1.030    1.15    1.377    1.233    0.648    0.39    0.19  119320.00   19.52  20160215.170646
  956.00    4.77    6.83   53.18  121.84  121.84  1093.21  108.56  3000.80    0.00    0.0000    0.0000    0.0000    0.0000    0.0000    0.0000    0.0000    0.0064   20.67    1.14    1.15   46.25   45.15    0.000    0.00    0.00    0.00    1.030    1.15    1.233    1.105    0.575    0.40    0.19  119856.00   19.59  20160215.171143
  957.00    9.49    6.71   55.35  121.45  121.45   984.29  108.32  3000.78    0.00    0.0000    0.0000    0.0000    0.0000    0.0000    0.0000    0.0000    0.0060   20.69    1.14    1.14   45.05   45.43    0.000    0.00    0.00    0.00    1.030    1.15    1.323    1.185    0.613    0.40    0.19  121003.00   19.75  20160215.173257
  958.00    7.13    6.81   53.60  121.07  121.07   973.98  108.74  3000.54    0.00    0.0000    0.0000    0.0000    0.0000    0.0000    0.0000    0.0000    0.0056   20.72    1.14    1.14   44.18   45.64    0.000    0.00    0.00    0.00    1.030    1.15    1.325    1.187    0.613    0.40    0.19  121865.00   19.87  20160215.174004
  959.00    5.93    7.88   51.77  121.07  121.07  1087.77  109.03  3000.37    0.00    0.0000    0.0000    0.0000    0.0000    0.0000    0.0000    0.0000    0.0058   20.75    1.14    1.15   43.82   45.73    0.000    0.00    0.00    0.00    1.030    1.15    1.331    1.193    0.626    0.41    0.19  122585.00   19.97  20160215.174601
  960.00    5.83    7.77   52.06  121.07  121.07  1086.91  109.49  3000.62    0.00    0.0000    0.0000    0.0000    0.0000    0.0000    0.0000    0.0000    0.0057   20.77    1.14    1.15   43.60   45.65    0.000    0.00    0.00    0.00    1.030    1.15    1.303    1.167    0.613    0.41    0.20  123289.00   20.07  20160215.175150
  961.00    6.42    8.03   51.69  121.07  121.07  1091.12  108.97  3001.44    0.00    0.0000    0.0000    0.0000    0.0000    0.0000    0.0000    0.0000    0.0062   20.78    1.14    1.14   43.30   45.64    0.000    0.00    0.00    0.00    1.030    1.15    1.348    1.207    0.635    0.41    0.20  124068.00   20.17  20160215.175816
  962.00    6.86    8.06   51.52  121.07  121.07  1112.47  108.84  3000.78    0.00    0.0000    0.0000    0.0000    0.0000    0.0000    0.0000    0.0000    0.0065   20.82    1.14    1.14   43.25   45.75    0.000    0.00    0.00    0.00    1.030    1.15    1.361    1.219    0.641    0.41    0.20  124896.00   20.29  20160215.180506
  963.00    6.08    7.65   52.13  121.07  121.07  1130.34  107.11  3000.14    0.00    0.0000    0.0000    0.0000    0.0000    0.0000    0.0000    0.0000    0.0065   20.85    1.15    1.15   43.12   45.90    0.000    0.00    0.00    0.00    1.030    1.15    1.324    1.186    0.621    0.42    0.20  125632.00   20.39  20160215.181111
  964.00    6.48    7.80   51.84  121.07  121.07  1073.12  107.44  3001.25    0.00    0.0000    0.0000    0.0000    0.0000    0.0000    0.0000    0.0000    0.0066   20.87    1.14    1.14   43.18   45.99    0.000    0.00    0.00    0.00    1.030    1.15    1.337    1.198    0.628    0.42    0.20  126415.00   20.50  20160215.181739
  965.00    6.68    8.00   51.57  121.07  121.07  1086.07  107.11  3002.57    0.00    0.0000    0.0000    0.0000    0.0000    0.0000    0.0000    0.0000    0.0069   20.88    1.14    1.14   43.23   46.02    0.000    0.00    0.00    0.00    1.030    1.15    1.357    1.215    0.638    0.42    0.20  127228.00   20.61  20160215.182422
  966.00    6.91    8.12   51.34  121.07  121.07  1088.68  107.39  3003.28    0.00    0.0000    0.0000    0.0000    0.0000    0.0000    0.0000    0.0000    0.0071   20.91    1.14    1.14   43.25   46.04    0.000    0.00    0.00    0.00    1.030    1.15    1.367    1.224    0.644    0.43    0.21  128066.00   20.72  20160215.183117
  967.00    6.85    8.05   51.40  121.07  121.07  1087.78  107.78  3001.63    0.00    0.0000    0.0000    0.0000    0.0000    0.0000    0.0000    0.0000    0.0088   20.94    1.14    1.15   43.35   45.99 -999.250    0.00    0.00    0.00    1.030    1.15    1.367    1.224    0.643    0.43    0.21  128895.00   20.84  20160215.183808
