~VERSION INFORMATION
#
#File created by GEO-data Geological Wellsite Services GmbH.
#Parts or all of this file may be confidential.
#
# This is a "LAS" file containing logging data in ascii form.
#
 VERS.        2.0             :CWLS LOG ASCII STANDARD - VERSION 2.0
 WRAP.        NO              :Single line per depth step
~WELL INFORMATION
#MNEM.UNIT        DATA              DESCRIPTION OF MNEMONIC
#---------    -------------         ------------------------
 STRT.M       193.00          :Start DEPTH
 STOP.M       2445.00         :End DEPTH
 STEP.M       1.00            :DEPTH step
 NULL.        -999.25         :NULL VALUE
 COMP.        CLG             :COMPANY
 WELL.        Cal-GT-05       :WELL
 FLD .        Californie      :FIELD
 LOC .        Californie      :LOCATION
 PROV.        <no data>       :PROVINCE
 CNTY.        <no data>       :COUNTY
 STAT.        Niederlande     :STATE
 CTRY.        Niederlande     :COUNTRY
 SRVC.        GeoService      :SERVICE COMPANY
 DATE.        19.04.2016      :DATE
 UWI .        {32CBF15E-C69E-4316-ABD5-8F1549ADA7B1}:UNIQUE WELL ID
 API .        <no data>       :API NUMBER
 LBEG.        No ID entered   :(LBEG) well code
~CURVE INFORMATION
#MNEM.UNIT      API CODE      CURVE DESCRIPTION
#---------    -------------   ------------------------------
 DEPTH.M                      :depth
 ROP .MINPERM                 :rop
 WOB .TONF                    :wob
 HOOKLOAD.TONF                :hookload
 RPM_BIT.RPM                  :rpm_bit
 RPM_STRING.RPM               :rpm_string
 TORQUE.DANM                  :torque
 PUMP_PRESSURE.BAR            :pump_pressure
 FLOW_IN.LPERMIN              :flow_in
 FLOW_OUT.LPERMIN             :flow_out
 C1  .VOLPERCENT              :c1
 C2  .VOLPERCENT              :c2
 C3  .VOLPERCENT              :c3
 IC4 .VOLPERCENT              :ic4
 NC4 .VOLPERCENT              :nc4
 IC5 .VOLPERCENT              :ic5
 NC5 .VOLPERCENT              :nc5
 C_TOTAL.VOLPERCENT           :c_total
 LAGTIME.MIN                  :lagtime
 MUDWEIGHT_IN.KGPERL          :mudweight_in
 MUDWEIGHT_OUT.KGPERL         :mudweight_out
 TEMP_IN.DEGRC                :temp_in
 TEMP_OUT.DEGRC               :temp_out
 CO2 .VOLPERCENT              :co2
 H2S_RIGFLOOR.PPM             :h2s_rigfloor
 H2S_PITS.PPM                 :h2s_pits
 H2S_SHAKERS.PPM              :h2s_shakers
 POREPRESSGRD.KGPERL          :porepressgrd
 ECD .KGPERL                  :ecd
 D_EXPONENT.NOUNIT            :d_exponent
 DC_EXPONENT.NOUNIT           :dc_exponent
 SIGMA.NOUNIT                 :sigma
 CTOOTH.NOUNIT                :ctooth
 CBEARING.NOUNIT              :cbearing
 REVS_BIT_TOTAL.NOUNIT        :revs_bit_total
 BIT_HOURS.HR                 :bit_hours
 CLOCKDATE.                   :Date/Time
~PARAMETER INFORMATION
#MNEM.UNIT        VALUE       DESCRIPTION OF MNEMONIC
#---------    -------------   ------------------------------
~OTHER INFORMATION
~ASCII Log data section
# ...
 2268.00   19.23   13.32   61.80  198.22   35.09  1774.31   94.84  2204.40    0.00    0.0000    0.0000    0.0000    0.0000    0.0000    0.0000    0.0000    0.0000   39.93    1.12    1.11   50.55   49.66    0.005    0.00    0.00    0.00    1.030    1.15    2.221    1.990    1.413    4.21    3.59  469813.00   38.85  20160315.205837
 2269.00   18.88   13.41   61.79  198.24   35.09  1767.93   95.31  2204.72    0.00    0.0000    0.0000    0.0000    0.0000    0.0000    0.0000    0.0000    0.0000   39.94    1.11    1.11   50.60   49.71    0.031    0.00    0.00    0.00    1.030    1.15    2.213    1.982    1.404    4.25    3.62  473557.00   39.16  20160315.211730
 2270.00   20.97   13.60   61.73  198.26   35.09  1779.87   95.12  2204.94    0.00    0.0000    0.0000    0.0000    0.0000    0.0000    0.0000    0.0000    0.0000   39.98    1.10    1.11   50.68   49.75    0.004    0.00    0.00    0.00    1.030    1.15    2.251    2.016    1.441    4.28    3.65  477714.00   39.51  20160315.213828
 2271.00   18.12   13.59   61.98  198.22   35.09  1779.72   96.74  2204.42    0.00    0.0000    0.0000    0.0000    0.0000    0.0000    0.0000    0.0000    0.0098   39.99    1.08    1.11   50.85   49.80    0.043    0.00    0.00    0.00    1.030    1.15    2.220    1.988    1.410    4.32    3.68  481305.00   39.81  20160315.215635
 2272.00   13.82   13.47   62.04  198.27   35.09  1799.20   96.38  2205.07    0.00    0.0000    0.0000    0.0000    0.0000    0.0000    0.0000    0.0000    0.0000   39.99    1.07    1.11   50.81   49.84    0.010    0.00    0.00    0.00    1.030    1.15    2.132    1.909    1.331    4.34    3.70  484044.00   40.05  20160315.221132
 2273.00   14.08   13.45   62.17  198.22   35.09  1794.13   94.78  2204.40    0.00    0.0000    0.0000    0.0000    0.0000    0.0000    0.0000    0.0000    0.0058   40.04    1.06    1.11   50.85   49.86    0.010    0.00    0.00    0.00    1.030    1.15    2.116    1.896    1.315    4.37    3.72  486836.00   40.28  20160315.222537
 2274.00   18.47   13.84   62.26  198.25   35.09  1786.82   95.96  2204.82    0.00    0.0000    0.0000    0.0000    0.0000    0.0000    0.0000    0.0000    0.0059   40.03    1.05    1.11   51.00   49.87    0.050    0.00    0.00    0.00    1.030    1.15    2.227    1.994    1.416    4.40    3.75  490497.00   40.59  20160315.224405
 2275.00   16.52   13.81   62.01  198.25   35.09  1805.79   94.32  2204.85    0.00    0.0000    0.0000    0.0000    0.0000    0.0000    0.0000    0.0000    0.0000   40.02    1.04    1.11   50.99   49.89    0.034    0.00    0.00    0.00    1.030    1.15    2.194    1.965    1.385    4.43    3.77  493771.00   40.86  20160315.230036
 2276.00   19.68   14.07   62.02  198.25   35.09  1785.97   94.16  2204.90    0.00    0.0000    0.0000    0.0000    0.0000    0.0000    0.0000    0.0000    0.0089   40.02    1.03    1.11   50.97   49.93    0.047    0.00    0.00    0.00    1.030    1.15    2.235    2.002    1.423    4.47    3.80  497674.00   41.19  20160315.232017
 2277.00   18.38   14.12   62.15  198.23   35.09  1811.59   95.34  2204.55    0.00    0.0000    0.0000    0.0000    0.0000    0.0000    0.0000    0.0000    0.0000   40.06    1.01    1.11   51.03   49.98    0.033    0.00    0.00    0.00    1.030    1.15    2.272    2.035    1.458    4.51    3.83  501318.00   41.50  20160315.233840
 2278.00   18.45   14.27   61.95  198.16   35.09  1790.81   95.22  2203.63    0.00    0.0000    0.0000    0.0000    0.0000    0.0000    0.0000    0.0000    0.0000   40.06    1.00    1.11   51.09   50.01    0.053    0.00    0.00    0.00    1.030    1.15    2.231    1.999    1.418    4.54    3.86  504974.00   41.80  20160315.235707
 2279.00   20.08   14.79   61.83  198.07   35.09  1805.09   95.44  2202.34    0.00    0.0000    0.0000    0.0000    0.0000    0.0000    0.0000    0.0000    0.0074   40.13    0.99    1.11   51.14   50.04    0.060    0.00    0.00    0.00    1.030    1.15    2.292    2.053    1.473    4.58    3.88  508952.00   42.14  20160316.001712
 2280.00   17.45   14.94   62.11  197.98   35.09  1797.41   94.47  2201.15    0.00    0.0000    0.0000    0.0000    0.0000    0.0000    0.0000    0.0000    0.0000   40.15    0.97    1.11   51.14   50.06    0.046    0.00    0.00    0.00    1.030    1.15    2.283    2.045    1.465    4.62    3.92  512407.00   42.43  20160316.003439
 2281.00   16.57   14.97   62.06  197.95   35.09  1791.71   95.14  2200.73    0.00    0.0000    0.0000    0.0000    0.0000    0.0000    0.0000    0.0000    0.0059   40.19    0.96    1.11   51.17   50.10    0.069    0.00    0.00    0.00    1.030    1.15    2.264    2.028    1.446    4.65    3.94  515686.00   42.71  20160316.005113
 2282.00   12.60   14.72   62.39  197.91   35.09  1814.06   95.44  2200.23    0.00    0.0000    0.0000    0.0000    0.0000    0.0000    0.0000    0.0000    0.0037   40.20    0.95    1.11   51.25   50.11    0.068    0.00    0.00    0.00    1.030    1.15    2.159    1.934    1.350    4.68    3.96  518180.00   42.92  20160316.010349
 2283.00   13.12   14.79   62.23  197.91   35.09  1815.66   94.51  2200.28    0.00    0.0000    0.0000    0.0000    0.0000    0.0000    0.0000    0.0000    0.0056   40.21    0.95    1.11   51.28   50.08    0.052    0.00    0.00    0.00    1.030    1.15    2.154    1.929    1.345    4.71    3.98  520776.00   43.14  20160316.011656
 2284.00   14.47   14.98   62.27  197.96   35.09  1810.90   95.11  2200.86    0.00    0.0000    0.0000    0.0000    0.0000    0.0000    0.0000    0.0000    0.0064   40.23    0.94    1.11   51.23   50.06    0.062    0.00    0.00    0.00    1.030    1.15    2.209    1.978    1.393    4.74    4.00  523639.00   43.38  20160316.013124
 2285.00   14.65   15.07   62.15  197.83   35.09  1818.15   93.99  2199.12    0.00    0.0000    0.0000    0.0000    0.0000    0.0000    0.0000    0.0000    0.0000   40.25    0.93    1.11   51.36   50.05    0.022    0.00    0.00    0.00    1.030    1.15    2.213    1.982    1.397    4.76    4.03  526538.00   43.62  20160316.014603
 2286.00   14.90   15.15   62.38  197.80   35.09  1811.75   95.91  2198.82    0.00    0.0000    0.0000    0.0000    0.0000    0.0000    0.0000    0.0000    0.0057   40.26    0.92    1.11   51.15   50.05    0.043    0.00    0.00    0.00    1.030    1.15    2.219    1.988    1.403    4.79    4.05  529485.00   43.87  20160316.020057
 2287.00   18.67   15.47   62.11  197.80   35.09  1799.79   94.47  2198.73    0.00    0.0000    0.0000    0.0000    0.0000    0.0000    0.0000    0.0000    0.0000   40.27    0.92    1.11   51.39   50.06    0.028    0.00    0.00    0.00    1.030    1.15    2.301    2.061    1.479    4.83    4.08  533177.00   44.18  20160316.021937
 2288.00   18.05   15.52   62.13  197.81   35.09  1808.84   95.13  2198.95    0.00    0.0000    0.0000    0.0000    0.0000    0.0000    0.0000    0.0000    0.0026   40.29    0.90    1.11   51.34   50.08    0.045    0.00    0.00    0.00    1.030    1.15    2.316    2.075    1.493    4.86    4.11  536748.00   44.48  20160316.023740
 2289.00   18.87   15.61   61.96  197.79   35.09  1810.25   94.47  2198.67    0.00    0.0000    0.0000    0.0000    0.0000    0.0000    0.0000    0.0000    0.0040   40.30    0.89    1.11   51.34   50.08    0.043    0.00    0.00    0.00    1.030    1.15    2.314    2.072    1.490    4.90    4.14  540479.00   44.80  20160316.025632
 2290.00   20.48   15.79   61.91  197.81   35.09  1800.24   95.20  2198.90    0.00    0.0000    0.0000    0.0000    0.0000    0.0000    0.0000    0.0000    0.0040   40.32    0.88    1.11   51.33   50.09    0.040    0.00    0.00    0.00    1.030    1.15    2.362    2.116    1.537    4.94    4.18  544531.00   45.14  20160316.031701
 2291.00   19.07   15.82   62.15  197.80   35.09  1781.34   95.81  2198.73    0.00    0.0000    0.0000    0.0000    0.0000    0.0000    0.0000    0.0000    0.0030   40.36    0.87    1.11   51.36   50.02 -999.250    0.00    0.00    0.00    1.030    1.15    2.351    2.106    1.526    4.98    4.22  548303.00   45.45  20160316.033605
 2292.00   25.97   15.02   76.29  197.77   35.07  1795.26   96.08  2198.56    0.00    0.0000    0.0000    0.0000    0.0000    0.0000    0.0000    0.0000    0.0029   40.84    0.86    1.11   51.28   47.59    0.000    0.00    0.00    0.00    1.030    1.15    2.308    2.060    1.487    5.00    4.24      35.00    0.00  20160317.124307
