~VERSION INFORMATION
#
#File created by GEO-data Geological Wellsite Services GmbH.
#Parts or all of this file may be confidential.
#
# This is a "LAS" file containing logging data in ascii form.
#
 VERS.        2.0             :CWLS LOG ASCII STANDARD - VERSION 2.0
 WRAP.        NO              :Single line per depth step
~WELL INFORMATION
#MNEM.UNIT        DATA              DESCRIPTION OF MNEMONIC
#---------    -------------         ------------------------
 STRT.M       193.00          :Start DEPTH
 STOP.M       2445.00         :End DEPTH
 STEP.M       1.00            :DEPTH step
 NULL.        -999.25         :NULL VALUE
 COMP.        CLG             :COMPANY
 WELL.        Cal-GT-05       :WELL
 FLD .        Californie      :FIELD
 LOC .        Californie      :LOCATION
 PROV.        <no data>       :PROVINCE
 CNTY.        <no data>       :COUNTY
 STAT.        Niederlande     :STATE
 CTRY.        Niederlande     :COUNTRY
 SRVC.        GeoService      :SERVICE COMPANY
 DATE.        19.04.2016      :DATE
 UWI .        {32CBF15E-C69E-4316-ABD5-8F1549ADA7B1}:UNIQUE WELL ID
 API .        <no data>       :API NUMBER
 LBEG.        No ID entered   :(LBEG) well code
~CURVE INFORMATION
#MNEM.UNIT      API CODE      CURVE DESCRIPTION
#---------    -------------   ------------------------------
 DEPTH.M                      :depth
 ROP .MINPERM                 :rop
 WOB .TONF                    :wob
 HOOKLOAD.TONF                :hookload
 RPM_BIT.RPM                  :rpm_bit
 RPM_STRING.RPM               :rpm_string
 TORQUE.DANM                  :torque
 PUMP_PRESSURE.BAR            :pump_pressure
 FLOW_IN.LPERMIN              :flow_in
 FLOW_OUT.LPERMIN             :flow_out
 C1  .VOLPERCENT              :c1
 C2  .VOLPERCENT              :c2
 C3  .VOLPERCENT              :c3
 IC4 .VOLPERCENT              :ic4
 NC4 .VOLPERCENT              :nc4
 IC5 .VOLPERCENT              :ic5
 NC5 .VOLPERCENT              :nc5
 C_TOTAL.VOLPERCENT           :c_total
 LAGTIME.MIN                  :lagtime
 MUDWEIGHT_IN.KGPERL          :mudweight_in
 MUDWEIGHT_OUT.KGPERL         :mudweight_out
 TEMP_IN.DEGRC                :temp_in
 TEMP_OUT.DEGRC               :temp_out
 CO2 .VOLPERCENT              :co2
 H2S_RIGFLOOR.PPM             :h2s_rigfloor
 H2S_PITS.PPM                 :h2s_pits
 H2S_SHAKERS.PPM              :h2s_shakers
 POREPRESSGRD.KGPERL          :porepressgrd
 ECD .KGPERL                  :ecd
 D_EXPONENT.NOUNIT            :d_exponent
 DC_EXPONENT.NOUNIT           :dc_exponent
 SIGMA.NOUNIT                 :sigma
 CTOOTH.NOUNIT                :ctooth
 CBEARING.NOUNIT              :cbearing
 REVS_BIT_TOTAL.NOUNIT        :revs_bit_total
 BIT_HOURS.HR                 :bit_hours
 CLOCKDATE.                   :Date/Time
~PARAMETER INFORMATION
#MNEM.UNIT        VALUE       DESCRIPTION OF MNEMONIC
#---------    -------------   ------------------------------
~OTHER INFORMATION
~ASCII Log data section
# ...
 1968.00   17.87   16.27   53.58  192.85   30.39  1334.10  136.03  2195.31    0.00    0.0000    0.0000    0.0000    0.0000    0.0000    0.0000    0.0000    0.0179   36.37    1.21    1.15   48.62   52.79    0.000    0.00    0.00    0.00    1.030    1.15    2.335    2.091    1.506    2.00    1.87  195313.00   17.55  20160310.195438
 1969.00   16.76   16.18   53.81  192.81   30.39  1339.88  136.56  2194.80    0.00    0.0000    0.0000    0.0000    0.0000    0.0000    0.0000    0.0000    0.0199   36.35    1.21    1.15   51.91   52.85    0.000    0.00    0.00    0.00    1.030    1.15    2.301    2.061    1.474    2.03    1.90  198530.00   17.82  20160310.201119
 1970.00   17.02   16.20   53.65  192.83   30.39  1354.33  137.77  2195.08    0.00    0.0000    0.0000    0.0000    0.0000    0.0000    0.0000    0.0000    0.0178   36.36    1.21    1.15   52.53   52.89    0.000    0.00    0.00    0.00    1.030    1.15    2.309    2.069    1.482    2.06    1.94  201811.00   18.11  20160310.202820
 1971.00   14.41   16.10   53.79  192.81   30.40  1362.46  137.98  2194.73    0.00    0.0000    0.0000    0.0000    0.0000    0.0000    0.0000    0.0000    0.0190   36.39    1.21    1.15   51.67   52.93    0.000    0.00    0.00    0.00    1.030    1.15    2.251    2.016    1.429    2.09    1.97  204604.00   18.35  20160310.204339
 1972.00   15.29   16.08   53.83  192.80   30.39  1354.26  136.71  2194.69    0.00    0.0000    0.0000    0.0000    0.0000    0.0000    0.0000    0.0000    0.0189   36.37    1.21    1.15   51.87   52.98    0.000    0.00    0.00    0.00    1.030    1.15    2.281    2.043    1.456    2.13    2.00  207560.00   18.60  20160310.205859
 1973.00   15.95   16.12   53.89  192.83   30.39  1350.57  136.51  2195.10    0.00    0.0000    0.0000    0.0000    0.0000    0.0000    0.0000    0.0000    0.0184   36.42    1.21    1.15   52.45   53.04    0.000    0.00    0.00    0.00    1.030    1.15    2.265    2.029    1.441    2.15    2.03  210639.00   18.87  20160310.211457
 1974.00   14.91   16.05   53.95  192.77   30.39  1366.94  136.62  2194.29    0.00    0.0000    0.0000    0.0000    0.0000    0.0000    0.0000    0.0000    0.0206   36.42    1.21    1.15   53.47   53.08    0.000    0.00    0.00    0.00    1.030    1.15    2.282    2.044    1.456    2.19    2.06  213505.00   19.12  20160310.212949
 1975.00   14.29   16.02   53.76  192.76   30.39  1354.86  136.63  2194.21    0.00    0.0000    0.0000    0.0000    0.0000    0.0000    0.0000    0.0000    0.0203   36.42    1.21    1.15   53.81   53.10    0.000    0.00    0.00    0.00    1.030    1.15    2.232    1.999    1.411    2.22    2.09  216249.00   19.36  20160310.214403
 1976.00   15.71   16.08   53.97  192.75   30.39  1347.67  139.13  2194.05    0.00    0.0000    0.0000    0.0000    0.0000    0.0000    0.0000    0.0000    0.0203   36.47    1.21    1.15   53.97   53.15    0.000    0.00    0.00    0.00    1.030    1.15    2.270    2.033    1.446    2.25    2.11  219275.00   19.62  20160310.215945
 1977.00   18.16   16.22   53.71  192.74   30.39  1330.52  136.41  2193.82    0.00    0.0000    0.0000    0.0000    0.0000    0.0000    0.0000    0.0000    0.0179   36.47    1.21    1.15   53.75   53.21    0.000    0.00    0.00    0.00    1.030    1.15    2.321    2.079    1.493    2.28    2.15  222767.00   19.92  20160310.221752
 1978.00   17.96   16.22   53.77  192.77   30.39  1334.55  136.15  2194.29    0.00    0.0000    0.0000    0.0000    0.0000    0.0000    0.0000    0.0000    0.0172   36.47    1.21    1.15   54.30   53.03    0.026    0.00    0.00    0.00    1.030    1.15    2.334    2.091    1.506    2.32    2.18  226230.00   20.22  20160310.223550
 1979.00   15.28   16.03   53.88  192.70   30.39  1368.64  137.72  2193.26    0.00    0.0000    0.0000    0.0000    0.0000    0.0000    0.0000    0.0000    0.0135   36.50    1.21    1.15   54.49   52.88    0.000    0.00    0.00    0.00    1.030    1.15    2.283    2.045    1.458    2.35    2.22  229179.00   20.47  20160310.225108
 1980.00   13.11   16.21   58.24  194.06   31.50  1419.07  139.71  2196.82    0.00    0.0000    0.0000    0.0000    0.0000    0.0000    0.0000    0.0000    0.0127   36.44    1.21    1.14   54.08   52.99    0.000    0.00    0.00    0.00    1.030    1.15    2.233    2.000    1.411    2.38    2.24  231729.00   20.69  20160310.232652
 1981.00   15.08   17.01   54.45  194.39   31.69  1356.37  139.27  2198.57    0.00    0.0000    0.0000    0.0000    0.0000    0.0000    0.0000    0.0000    0.0147   36.44    1.21    1.15   54.05   53.07    0.000    0.00    0.00    0.00    1.030    1.15    2.287    2.048    1.457    2.40    2.27  234651.00   20.94  20160310.234154
 1982.00   15.89   17.09   54.44  194.37   31.70  1393.50  139.49  2198.28    0.00    0.0000    0.0000    0.0000    0.0000    0.0000    0.0000    0.0000    0.0183   36.49    1.21    1.15   54.29   53.11    0.019    0.00    0.00    0.00    1.030    1.15    2.313    2.072    1.480    2.43    2.30  237738.00   21.21  20160310.235747
 1983.00   14.78   16.73   54.54  194.20   31.70  1420.16  137.97  2195.94    0.00    0.0000    0.0000    0.0000    0.0000    0.0000    0.0000    0.0000    0.0196   36.52    1.21    1.15   54.29   53.16    0.007    0.00    0.00    0.00    1.030    1.15    2.318    2.076    1.488    2.47    2.33  240609.00   21.45  20160311.001234
 1984.00   13.74   14.90   54.45  194.18   31.70  1422.09  136.84  2195.65    0.00    0.0000    0.0000    0.0000    0.0000    0.0000    0.0000    0.0000    0.0176   36.55    1.21    1.15   54.20   53.20    0.003    0.00    0.00    0.00    1.030    1.15    2.172    1.945    1.361    2.50    2.36  243276.00   21.68  20160311.002618
 1985.00   16.15   15.13   54.06  194.19   31.69  1382.20  136.69  2195.92    0.00    0.0000    0.0000    0.0000    0.0000    0.0000    0.0000    0.0000    0.0148   36.55    1.21    1.15   54.30   53.24    0.000    0.00    0.00    0.00    1.030    1.15    2.235    2.002    1.417    2.53    2.38  246406.00   21.95  20160311.004225
 1986.00   15.30   15.11   54.26  194.17   31.69  1377.93  137.19  2195.62    0.00    0.0000    0.0000    0.0000    0.0000    0.0000    0.0000    0.0000    0.0159   36.53    1.20    1.15   54.39   53.28    0.002    0.00    0.00    0.00    1.030    1.15    2.228    1.995    1.410    2.56    2.40  249393.00   22.21  20160311.005748
 1987.00   16.00   15.12   54.46  194.18   31.69  1383.90  138.72  2195.77    0.00    0.0000    0.0000    0.0000    0.0000    0.0000    0.0000    0.0000    0.0157   36.60    1.20    1.15   54.67   53.33    0.000    0.00    0.00    0.00    1.030    1.15    2.243    2.009    1.425    2.59    2.43  252490.00   22.47  20160311.011345
 1988.00   12.08   14.80   54.56  194.15   31.70  1420.07  138.21  2195.31    0.00    0.0000    0.0000    0.0000    0.0000    0.0000    0.0000    0.0000    0.0157   36.58    1.20    1.15   54.71   53.37    0.000    0.00    0.00    0.00    1.030    1.15    2.127    1.905    1.321    2.61    2.45  254820.00   22.67  20160311.012545
 1989.00   15.49   15.12   54.13  194.19   31.69  1411.25  137.10  2195.92    0.00    0.0000    0.0000    0.0000    0.0000    0.0000    0.0000    0.0000    0.0140   36.58    1.20    1.15   54.62   53.38    0.000    0.00    0.00    0.00    1.030    1.15    2.224    1.992    1.407    2.64    2.47  257833.00   22.93  20160311.014116
 1990.00   15.02   15.07   54.21  194.23   31.69  1388.69  139.23  2196.55    0.00    0.0000    0.0000    0.0000    0.0000    0.0000    0.0000    0.0000    0.0159   36.60    1.20    1.15   54.74   53.38    0.000    0.00    0.00    0.00    1.030    1.15    2.230    1.997    1.412    2.67    2.49  260753.00   23.18  20160311.015618
 1991.00   13.87   14.98   54.23  194.23   31.69  1406.77  139.18  2196.45    0.00    0.0000    0.0000    0.0000    0.0000    0.0000    0.0000    0.0000    0.0166   36.60    1.20    1.15   54.93   53.38    0.000    0.00    0.00    0.00    1.030    1.15    2.187    1.958    1.373    2.70    2.51  263456.00   23.42  20160311.021013
 1992.00   12.56   14.70   55.04  194.25   31.69  1431.40  137.88  2196.71    0.00    0.0000    0.0000    0.0000    0.0000    0.0000    0.0000    0.0000    0.0159   36.61    1.20    1.15   54.66   53.38    0.000    0.00    0.00    0.00    1.030    1.15    2.135    1.912    1.329    2.73    2.53  265884.00   23.62  20160311.022243
