~VERSION INFORMATION
#
#File created by GEO-data Geological Wellsite Services GmbH.
#Parts or all of this file may be confidential.
#
# This is a "LAS" file containing logging data in ascii form.
#
 VERS.        2.0             :CWLS LOG ASCII STANDARD - VERSION 2.0
 WRAP.        NO              :Single line per depth step
~WELL INFORMATION
#MNEM.UNIT        DATA              DESCRIPTION OF MNEMONIC
#---------    -------------         ------------------------
 STRT.M       193.00          :Start DEPTH
 STOP.M       2445.00         :End DEPTH
 STEP.M       1.00            :DEPTH step
 NULL.        -999.25         :NULL VALUE
 COMP.        CLG             :COMPANY
 WELL.        Cal-GT-05       :WELL
 FLD .        Californie      :FIELD
 LOC .        Californie      :LOCATION
 PROV.        <no data>       :PROVINCE
 CNTY.        <no data>       :COUNTY
 STAT.        Niederlande     :STATE
 CTRY.        Niederlande     :COUNTRY
 SRVC.        GeoService      :SERVICE COMPANY
 DATE.        19.04.2016      :DATE
 UWI .        {32CBF15E-C69E-4316-ABD5-8F1549ADA7B1}:UNIQUE WELL ID
 API .        <no data>       :API NUMBER
 LBEG.        No ID entered   :(LBEG) well code
~CURVE INFORMATION
#MNEM.UNIT      API CODE      CURVE DESCRIPTION
#---------    -------------   ------------------------------
 DEPTH.M                      :depth
 ROP .MINPERM                 :rop
 WOB .TONF                    :wob
 HOOKLOAD.TONF                :hookload
 RPM_BIT.RPM                  :rpm_bit
 RPM_STRING.RPM               :rpm_string
 TORQUE.DANM                  :torque
 PUMP_PRESSURE.BAR            :pump_pressure
 FLOW_IN.LPERMIN              :flow_in
 FLOW_OUT.LPERMIN             :flow_out
 C1  .VOLPERCENT              :c1
 C2  .VOLPERCENT              :c2
 C3  .VOLPERCENT              :c3
 IC4 .VOLPERCENT              :ic4
 NC4 .VOLPERCENT              :nc4
 IC5 .VOLPERCENT              :ic5
 NC5 .VOLPERCENT              :nc5
 C_TOTAL.VOLPERCENT           :c_total
 LAGTIME.MIN                  :lagtime
 MUDWEIGHT_IN.KGPERL          :mudweight_in
 MUDWEIGHT_OUT.KGPERL         :mudweight_out
 TEMP_IN.DEGRC                :temp_in
 TEMP_OUT.DEGRC               :temp_out
 CO2 .VOLPERCENT              :co2
 H2S_RIGFLOOR.PPM             :h2s_rigfloor
 H2S_PITS.PPM                 :h2s_pits
 H2S_SHAKERS.PPM              :h2s_shakers
 POREPRESSGRD.KGPERL          :porepressgrd
 ECD .KGPERL                  :ecd
 D_EXPONENT.NOUNIT            :d_exponent
 DC_EXPONENT.NOUNIT           :dc_exponent
 SIGMA.NOUNIT                 :sigma
 CTOOTH.NOUNIT                :ctooth
 CBEARING.NOUNIT              :cbearing
 REVS_BIT_TOTAL.NOUNIT        :revs_bit_total
 BIT_HOURS.HR                 :bit_hours
 CLOCKDATE.                   :Date/Time
~PARAMETER INFORMATION
#MNEM.UNIT        VALUE       DESCRIPTION OF MNEMONIC
#---------    -------------   ------------------------------
~OTHER INFORMATION
~ASCII Log data section
  193.00 -999.25 -999.25 -999.25 -999.25 -999.25  -999.25 -999.25  -999.25 -999.25 -999.2500 -999.2500 -999.2500 -999.2500 -999.2500 -999.2500 -999.2500 -999.2500 -999.25 -999.25 -999.25 -999.25 -999.25    0.000 -999.25 -999.25 -999.25 -999.250 -999.25 -999.250 -999.250 -999.250 -999.25 -999.25    -999.25 -999.25      -999.250000
  194.00 -999.25 -999.25 -999.25 -999.25 -999.25  -999.25 -999.25  -999.25 -999.25 -999.2500 -999.2500 -999.2500 -999.2500 -999.2500 -999.2500 -999.2500 -999.2500 -999.25 -999.25 -999.25 -999.25 -999.25    0.000 -999.25 -999.25 -999.25 -999.250 -999.25 -999.250 -999.250 -999.250 -999.25 -999.25    -999.25 -999.25      -999.250000
  195.00 -999.25 -999.25 -999.25 -999.25 -999.25  -999.25 -999.25  -999.25 -999.25 -999.2500 -999.2500 -999.2500 -999.2500 -999.2500 -999.2500 -999.2500 -999.2500 -999.25 -999.25 -999.25 -999.25 -999.25    0.000 -999.25 -999.25 -999.25 -999.250 -999.25 -999.250 -999.250 -999.250 -999.25 -999.25    -999.25 -999.25      -999.250000
  196.00    2.62    0.70   48.04  184.21   27.23   123.04   58.72  2242.49    0.00    0.0000    0.0000    0.0000    0.0000    0.0000    0.0000    0.0000    0.0037   21.89    1.16    1.15   10.82    9.84    0.000    0.00    0.00    0.00    1.030    1.15    0.615    0.461    0.240    0.00    0.00    1332.00   19.98  20160207.023207
  197.00    2.78    0.62   47.53  184.11   27.23   116.61   63.29  2241.17    0.00    0.0000    0.0000    0.0000    0.0000    0.0000    0.0000    0.0000    0.0034   21.91    1.15    1.15   10.68   10.19    0.000    0.00    0.00    0.00    1.030    1.15    0.682    0.491    0.259    0.00    0.00    1847.00   20.02  20160207.023455
  198.00    4.04    2.12   47.40  184.41   27.61   172.31   61.45  2240.05    0.00    0.0000    0.0000    0.0000    0.0000    0.0000    0.0000    0.0000    0.0035   21.96    1.14    1.15   10.50   10.28    0.000    0.00    0.00    0.00    1.030    1.15    0.855    0.746    0.327    0.00    0.00    2604.00   20.09  20160207.023951
  199.00    4.29    1.26   45.62  188.63   31.98   174.10   61.86  2237.97    0.00    0.0000    0.0000    0.0000    0.0000    0.0000    0.0000    0.0000    0.0033   21.90    1.15    1.15   10.91   10.58    0.000    0.00    0.00    0.00    1.030    1.15    0.888    0.797    0.321    0.01    0.00    3397.00   20.16  20160207.024403
  200.00    3.86    0.80   46.00  188.95   31.96   205.98   61.61  2242.78    0.00    0.0000    0.0000    0.0000    0.0000    0.0000    0.0000    0.0000    0.0035   21.90    1.15    1.15   10.77   10.77    0.000    0.00    0.00    0.00    1.030    1.15    0.793    0.687    0.288    0.01    0.00    4124.00   20.22  20160207.024754
  201.00    4.00    1.00   45.74  188.92   31.89   201.17   60.91  2243.34    0.00    0.0000    0.0000    0.0000    0.0000    0.0000    0.0000    0.0000    0.0036   21.87    1.15    1.15   10.72   10.92    0.000    0.00    0.00    0.00    1.030    1.15    0.823    0.735    0.300    0.01    0.00    4883.00   20.29  20160207.025155
  202.00    4.75    1.66   45.05  189.01   31.92   216.59   61.10  2244.15    0.00    0.0000    0.0000    0.0000    0.0000    0.0000    0.0000    0.0000    0.0036   21.89    1.15    1.15   10.67   11.06    0.000    0.00    0.00    0.00    1.030    1.15    0.930    0.833    0.339    0.01    0.00    5778.00    0.36  20160207.025639
  203.00    5.20    1.99   44.73  189.04   31.95   251.41   61.10  2244.13    0.00    0.0000    0.0000    0.0000    0.0000    0.0000    0.0000    0.0000    0.0038   21.88    1.15    1.15   10.75   11.21    0.000    0.00    0.00    0.00    1.030    1.15    0.978    0.876    0.357    0.02    0.00    6764.00    0.45  20160207.030152
  204.00    5.60    2.25   44.45  189.01   31.96   249.14   60.87  2243.62    0.00    0.0000    0.0000    0.0000    0.0000    0.0000    0.0000    0.0000    0.0039   21.89    1.15    1.15   10.89   11.35    0.000    0.00    0.00    0.00    1.030    1.15    1.008    0.902    0.369    0.02    0.00    7822.00    0.54  20160207.030728
  205.00    5.71    2.11   46.60  189.04   31.97   218.69   59.15  2243.86    0.00    0.0000    0.0000    0.0000    0.0000    0.0000    0.0000    0.0000    0.0061   21.87    1.16    1.15   11.07   11.52    0.000    0.00    0.00    0.00    1.030    1.15    0.970    0.784    0.353    0.03    0.00    8900.00    0.64  20160207.031310
  206.00    2.95    0.00   46.91  189.16   32.00    85.15   59.23  2245.21    0.00    0.0000    0.0000    0.0000    0.0000    0.0000    0.0000    0.0000    0.0076   21.87    1.16    1.15   11.23   11.61 -999.250    0.00    0.00    0.00    1.030    1.15    0.000    0.000    0.000    0.03    0.00    9458.00    0.69  20160207.031607
  207.00    4.47    0.00   46.73  189.17   31.97    83.73   59.40  2245.69    0.00    0.0000    0.0000    0.0000    0.0000    0.0000    0.0000    0.0000    0.0098   21.84    1.16    1.15   11.31   11.71 -999.250    0.00    0.00    0.00    1.030    1.15    0.000    0.000    0.000    0.03    0.00   10306.00    0.76  20160207.032036
  208.00    6.32    0.05   46.87  188.22   31.46    81.12   52.91  2239.39    0.00    0.0000    0.0000    0.0000    0.0000    0.0000    0.0000    0.0000    0.0089   22.32    1.16    1.15   11.63   12.03    0.000    0.00    0.00    0.00    1.030    1.15    0.003    0.001    0.001    0.03    0.00   11535.00    0.87  20160207.035449
  209.00    3.31    0.00   47.15  186.69   30.40    79.83   52.49  2232.89    0.00    0.0000    0.0000    0.0000    0.0000    0.0000    0.0000    0.0000    0.0067   22.14    1.16    1.14   12.16   12.89    0.000    0.00    0.00    0.00    1.030    1.15    0.000    0.000    0.000    0.03    0.00   12154.00    0.93  20160207.035808
  210.00    3.30    0.00   47.08  186.90   30.40    91.32   50.00  2235.74    0.00    0.0000    0.0000    0.0000    0.0000    0.0000    0.0000    0.0000    0.0100   22.14    1.16    1.14   12.23   12.97    0.000    0.00    0.00    0.00    1.030    1.15    0.031    0.005    0.013    0.03    0.00   12771.00    0.98  20160207.040126
  211.00    3.31    0.26   47.34  187.25   30.40   121.52   53.20  2240.61    0.00    0.0000    0.0000    0.0000    0.0000    0.0000    0.0000    0.0000    0.0132   22.24    1.16    1.15   12.21   13.04    0.000    0.00    0.00    0.00    1.030    1.15    0.164    0.130    0.062    0.03    0.00   13392.00    1.04  20160207.040445
  212.00    9.18    0.78   45.94  187.29   30.41   166.64   56.40  2241.19    0.00    0.0000    0.0000    0.0000    0.0000    0.0000    0.0000    0.0000    0.0185   22.20    1.16    1.14   12.38   13.21    0.000    0.00    0.00    0.00    1.030    1.15    0.881    0.750    0.302    0.03    0.00   15109.00    1.19  20160207.041355
  213.00    5.92    0.47   46.92  187.93   30.40   124.26   55.62  2250.46    0.00    0.0000    0.0000    0.0000    0.0000    0.0000    0.0000    0.0000    0.0198   22.27    1.16    1.15   12.48   13.44 -999.250    0.00    0.00    0.00    1.030    1.15    0.671    0.453    0.234    0.03    0.00   16221.00    1.29  20160207.041950
  214.00    4.98    1.07   46.48  187.98   30.40   127.86   52.96  2251.14    0.00    0.0000    0.0000    0.0000    0.0000    0.0000    0.0000    0.0000    0.0140   22.35    1.16    1.16   12.73   13.62    0.000    0.00    0.00    0.00    1.030    1.15    0.877    0.785    0.313    0.04    0.00   17158.00    1.37  20160207.042449
  215.00    4.93    0.95   46.69  187.99   30.40   118.17   53.38  2251.26    0.00    0.0000    0.0000    0.0000    0.0000    0.0000    0.0000    0.0000    0.0150   22.41    1.16    1.15   13.03   13.74    0.000    0.00    0.00    0.00    1.030    1.15    0.858    0.769    0.305    0.04    0.00   18082.00    1.45  20160207.042944
  216.00    4.37    1.34   46.41  188.05   30.40   153.23   52.42  2252.20    0.00    0.0000    0.0000    0.0000    0.0000    0.0000    0.0000    0.0000    0.0169   22.46    1.16    1.15   13.21   13.87    0.000    0.00    0.00    0.00    1.030    1.15    0.885    0.792    0.321    0.04    0.00   18906.00    1.53  20160207.043407
  217.00    8.14    1.67   47.48  189.47   31.58   131.00   51.31  2255.64    0.00    0.0000    0.0000    0.0000    0.0000    0.0000    0.0000    0.0000    0.0185   22.53    1.15    1.14   12.90   14.29    0.000    0.00    0.00    0.00    1.030    1.15    0.998    0.894    0.357    0.05    0.00   20444.00    1.66  20160207.045917
