~VERSION INFORMATION
#
#File created by GEO-data Geological Wellsite Services GmbH.
#Parts or all of this file may be confidential.
#
# This is a "LAS" file containing logging data in ascii form.
#
 VERS.        2.0             :CWLS LOG ASCII STANDARD - VERSION 2.0
 WRAP.        NO              :Single line per depth step
~WELL INFORMATION
#MNEM.UNIT        DATA              DESCRIPTION OF MNEMONIC
#---------    -------------         ------------------------
 STRT.M       193.00          :Start DEPTH
 STOP.M       2445.00         :End DEPTH
 STEP.M       1.00            :DEPTH step
 NULL.        -999.25         :NULL VALUE
 COMP.        CLG             :COMPANY
 WELL.        Cal-GT-05       :WELL
 FLD .        Californie      :FIELD
 LOC .        Californie      :LOCATION
 PROV.        <no data>       :PROVINCE
 CNTY.        <no data>       :COUNTY
 STAT.        Niederlande     :STATE
 CTRY.        Niederlande     :COUNTRY
 SRVC.        GeoService      :SERVICE COMPANY
 DATE.        19.04.2016      :DATE
 UWI .        {32CBF15E-C69E-4316-ABD5-8F1549ADA7B1}:UNIQUE WELL ID
 API .        <no data>       :API NUMBER
 LBEG.        No ID entered   :(LBEG) well code
~CURVE INFORMATION
#MNEM.UNIT      API CODE      CURVE DESCRIPTION
#---------    -------------   ------------------------------
 DEPTH.M                      :depth
 ROP .MINPERM                 :rop
 WOB .TONF                    :wob
 HOOKLOAD.TONF                :hookload
 RPM_BIT.RPM                  :rpm_bit
 RPM_STRING.RPM               :rpm_string
 TORQUE.DANM                  :torque
 PUMP_PRESSURE.BAR            :pump_pressure
 FLOW_IN.LPERMIN              :flow_in
 FLOW_OUT.LPERMIN             :flow_out
 C1  .VOLPERCENT              :c1
 C2  .VOLPERCENT              :c2
 C3  .VOLPERCENT              :c3
 IC4 .VOLPERCENT              :ic4
 NC4 .VOLPERCENT              :nc4
 IC5 .VOLPERCENT              :ic5
 NC5 .VOLPERCENT              :nc5
 C_TOTAL.VOLPERCENT           :c_total
 LAGTIME.MIN                  :lagtime
 MUDWEIGHT_IN.KGPERL          :mudweight_in
 MUDWEIGHT_OUT.KGPERL         :mudweight_out
 TEMP_IN.DEGRC                :temp_in
 TEMP_OUT.DEGRC               :temp_out
 CO2 .VOLPERCENT              :co2
 H2S_RIGFLOOR.PPM             :h2s_rigfloor
 H2S_PITS.PPM                 :h2s_pits
 H2S_SHAKERS.PPM              :h2s_shakers
 POREPRESSGRD.KGPERL          :porepressgrd
 ECD .KGPERL                  :ecd
 D_EXPONENT.NOUNIT            :d_exponent
 DC_EXPONENT.NOUNIT           :dc_exponent
 SIGMA.NOUNIT                 :sigma
 CTOOTH.NOUNIT                :ctooth
 CBEARING.NOUNIT              :cbearing
 REVS_BIT_TOTAL.NOUNIT        :revs_bit_total
 BIT_HOURS.HR                 :bit_hours
 CLOCKDATE.                   :Date/Time
~PARAMETER INFORMATION
#MNEM.UNIT        VALUE       DESCRIPTION OF MNEMONIC
#---------    -------------   ------------------------------
~OTHER INFORMATION
~ASCII Log data section
# ...
 1243.00    8.90   10.06   54.55  121.08  121.08  1347.08  125.55  2988.05    0.00    0.0000    0.0000    0.0000    0.0000    0.0000    0.0000    0.0000    0.0431   27.95    1.15    1.15   52.57   51.73    0.000    0.00    0.00    0.00    1.030    1.15    1.462    1.311    0.710    1.32    0.75  369404.00   57.28  20160217.152850
 1244.00    4.74   11.05   53.60  112.23  112.23  1581.00  126.32  2987.94    0.00    0.0000    0.0000    0.0000    0.0000    0.0000    0.0000    0.0000    0.0443   27.97    1.15    1.15   52.60   51.77    0.000    0.00    0.00    0.00    1.030    1.15    1.344    1.205    0.659    1.33    0.75  369931.00   57.36  20160217.153334
 1245.00    3.50   11.36   51.29  114.85  114.85  1659.39  124.88  2987.99    0.00    0.0000    0.0000    0.0000    0.0000    0.0000    0.0000    0.0000    0.0460   27.99    1.15    1.15   52.54   51.81    0.000    0.00    0.00    0.00    1.030    1.15    1.297    1.161    0.639    1.33    0.76  370333.00   57.42  20160217.153704
 1246.00    8.28   11.37   54.05  120.08  120.08  1582.16  128.36  2987.65    0.00    0.0000    0.0000    0.0000    0.0000    0.0000    0.0000    0.0000    0.0495   28.04    1.12    1.15   52.75   51.74    0.000    0.00    0.00    0.00    1.030    1.15    1.308    1.171    0.643    1.33    0.76  371315.00   57.56  20160217.155352
 1247.00    5.37   11.74   52.26  117.77  117.77  1476.85  128.47  2986.74    0.00    0.0000    0.0000    0.0000    0.0000    0.0000    0.0000    0.0000    0.0110   28.07    0.97    1.15   52.78   51.57    0.000    0.00    0.00    0.00    1.030    1.15    1.535    1.377    0.758    1.33    0.76  371947.00   57.65  20160217.155914
 1248.00    3.74   12.49   51.19  117.83  117.83  1625.39  128.44  2986.75    0.00    0.0000    0.0000    0.0000    0.0000    0.0000    0.0000    0.0000    0.0167   28.08    0.97    1.15   52.97   51.47    0.000    0.00    0.00    0.00    1.030    1.15    1.356    1.214    0.671    1.34    0.76  372387.00   57.71  20160217.160258
 1249.00    3.66   13.02   51.38  117.94  117.94  1688.44  128.55  2986.86    0.00    0.0000    0.0000    0.0000    0.0000    0.0000    0.0000    0.0000    0.0233   28.10    0.96    1.15   53.03   51.32    0.000    0.00    0.00    0.00    1.030    1.15    1.358    1.217    0.676    1.34    0.76  372819.00   57.77  20160217.160638
 1250.00    7.10   12.61   56.09  112.48  112.48  1544.82  130.59  2995.97    0.00    0.0000    0.0000    0.0000    0.0000    0.0000    0.0000    0.0000    0.0414   27.96    0.92    1.15   53.03   51.31    0.000    0.00    0.00    0.00    1.030    1.15    1.429    1.281    0.715    1.34    0.77  373541.00   57.89  20160217.163305
 1251.00    3.56   12.45   54.69  117.28  117.28  1616.11  130.57  3011.31    0.00    0.0000    0.0000    0.0000    0.0000    0.0000    0.0000    0.0000    0.0434   27.92    0.93    1.15   53.18   51.37 -999.250    0.00    0.00    0.00    1.030    1.15    1.340    1.201    0.664    1.35    0.77  373959.00   57.95  20160217.163639
 1252.00    4.55   11.15   54.91  119.54  119.54  1519.56  127.53  3015.19    0.00    0.0000    0.0000    0.0000    0.0000    0.0000    0.0000    0.0000    0.0474   27.94    1.05    1.16   52.89   51.47    0.000    0.00    0.00    0.00    1.030    1.15    1.368    1.225    0.668    1.35    0.77  374505.00   58.03  20160217.164113
 1253.00    2.98   12.28   52.11  119.49  119.49  1758.02  127.94  3014.45    0.00    0.0000    0.0000    0.0000    0.0000    0.0000    0.0000    0.0000    0.0507   27.95    1.17    1.16   52.75   51.49 -999.250    0.00    0.00    0.00    1.030    1.15    1.291    1.157    0.643    1.35    0.77  374861.00   58.08  20160217.164412
 1254.00    9.50   10.40   53.87  119.55  119.55  1336.44  128.69  3018.74    0.00    0.0000    0.0000    0.0000    0.0000    0.0000    0.0000    0.0000    0.0567   27.90    1.17    1.15   52.62   51.63    0.000    0.00    0.00    0.00    1.030    1.15    1.437    1.287    0.698    1.35    0.77  375997.00   58.23  20160217.165411
 1255.00   17.15    9.78   55.63  110.26  110.26  1251.98  128.84  3022.48    0.00    0.0000    0.0000    0.0000    0.0000    0.0000    0.0000    0.0000    0.0847   27.92    1.16    1.16   52.66   51.64    0.000    0.00    0.00    0.00    1.030    1.15    1.559    1.397    0.759    1.36    0.78  377821.00   58.52  20160217.172223
 1256.00   14.63   10.60   53.77  100.72  100.72  1276.41   93.76  2722.85    0.00    0.0000    0.0000    0.0000    0.0000    0.0000    0.0000    0.0000    0.1434   33.81    1.16    1.15   52.66   51.45    0.000    0.00    0.00    0.00    1.030    1.15    1.640    1.470    0.804    1.37    0.78  379295.00   58.76  20160217.173701
 1257.00   12.80    7.44   53.71  100.72  100.72  1375.53   93.76  2717.63    0.00    0.0000    0.0000    0.0000    0.0000    0.0000    0.0000    0.0000    0.2196   33.63    1.15    1.15   52.59   51.31    0.000    0.00    0.00    0.00    1.030    1.15    1.396    1.251    0.654    1.37    0.79  380584.00   58.98  20160217.174949
 1258.00   16.43    6.13   53.45  108.98  108.98  1423.41  127.32  2629.46    0.00    0.0000    0.0000    0.0000    0.0000    0.0000    0.0000    0.0000    0.3550   27.91    1.15    1.15   52.49   50.71    0.000    0.00    0.00    0.00    1.030    1.15    1.387    1.244    0.645    1.38    0.79  382448.00   59.25  20160217.180615
 1259.00    2.92    7.51   52.34  119.50  119.50  1709.30  127.51  3032.21    0.00    0.0000    0.0000    0.0000    0.0000    0.0000    0.0000    0.0000    0.3540   27.93    1.14    1.15   52.48   50.78 -999.250    0.00    0.00    0.00    1.030    1.15    1.130    1.012    0.542    1.38    0.79  382797.00   59.30  20160217.180910
 1260.00    4.61    7.25   53.14  119.55  119.55  1550.56  128.26  3032.51    0.00    0.0000    0.0000    0.0000    0.0000    0.0000    0.0000    0.0000    0.1728   27.96    1.14    1.15   52.64   50.65 -999.250    0.00    0.00    0.00    1.030    1.15    1.183    1.059    0.559    1.38    0.79  383347.00   59.38  20160217.181346
 1261.00    2.85    7.20   52.70  119.52  119.52  1707.12  128.51  3032.31    0.00    0.0000    0.0000    0.0000    0.0000    0.0000    0.0000    0.0000    0.0451   27.97    1.15    1.15   52.61   50.96    0.000    0.00    0.00    0.00    1.030    1.15    1.150    1.031    0.547    1.38    0.80  383687.00   59.42  20160217.181637
 1262.00    2.88    7.25   52.05  119.53  119.53  1696.56  129.22  3031.21    0.00    0.0000    0.0000    0.0000    0.0000    0.0000    0.0000    0.0000    0.0401   28.03    1.17    1.15   52.58   51.14    0.000    0.00    0.00    0.00    1.030    1.15    1.122    1.005    0.537    1.39    0.80  384032.00   59.47  20160217.181930
 1263.00    3.22    7.30   51.76  119.52  119.52  1661.54  129.24  3030.37    0.00    0.0000    0.0000    0.0000    0.0000    0.0000    0.0000    0.0000    0.0442   28.03    1.17    1.15   52.55   51.26    0.000    0.00    0.00    0.00    1.030    1.15    1.123    1.006    0.538    1.39    0.80  384416.00   59.53  20160217.182243
 1264.00    5.62    5.86   57.46  111.39  111.39  1469.79  130.11  3028.65    0.00    0.0000    0.0000    0.0000    0.0000    0.0000    0.0000    0.0000    0.0510   28.10    1.16    1.15   52.68   51.41    0.000    0.00    0.00    0.00    1.030    1.15    1.122    1.004    0.522    1.39    0.80  384992.00   59.62  20160217.184607
 1265.00    5.13    5.60   53.46  121.08  121.08  1430.84  129.17  3025.20    0.00    0.0000    0.0000    0.0000    0.0000    0.0000    0.0000    0.0000    0.0423   28.14    1.16    1.15   53.01   51.58    0.000    0.00    0.00    0.00    1.030    1.15    1.222    1.095    0.557    1.39    0.80  385614.00   59.70  20160217.185115
 1266.00    5.25    5.43   53.80  121.08  121.08  1439.26  129.34  3024.70    0.00    0.0000    0.0000    0.0000    0.0000    0.0000    0.0000    0.0000    0.0441   28.18    1.16    1.15   52.83   51.61    0.000    0.00    0.00    0.00    1.030    1.15    1.184    1.061    0.539    1.39    0.80  386249.00   59.79  20160217.185630
 1267.00    5.25    5.33   54.40  121.08  121.08  1446.05  131.23  3027.81    0.00    0.0000    0.0000    0.0000    0.0000    0.0000    0.0000    0.0000    0.0502   28.21    1.16    1.15   52.70   51.65 -999.250    0.00    0.00    0.00    1.030    1.15    1.179    1.055    0.535    1.40    0.80  386885.00   59.88  20160217.190145
