~VERSION INFORMATION
#
#File created by GEO-data Geological Wellsite Services GmbH.
#Parts or all of this file may be confidential.
#
# This is a "LAS" file containing logging data in ascii form.
#
 VERS.        2.0             :CWLS LOG ASCII STANDARD - VERSION 2.0
 WRAP.        NO              :Single line per depth step
~WELL INFORMATION
#MNEM.UNIT        DATA              DESCRIPTION OF MNEMONIC
#---------    -------------         ------------------------
 STRT.M       193.00          :Start DEPTH
 STOP.M       2445.00         :End DEPTH
 STEP.M       1.00            :DEPTH step
 NULL.        -999.25         :NULL VALUE
 COMP.        CLG             :COMPANY
 WELL.        Cal-GT-05       :WELL
 FLD .        Californie      :FIELD
 LOC .        Californie      :LOCATION
 PROV.        <no data>       :PROVINCE
 CNTY.        <no data>       :COUNTY
 STAT.        Niederlande     :STATE
 CTRY.        Niederlande     :COUNTRY
 SRVC.        GeoService      :SERVICE COMPANY
 DATE.        19.04.2016      :DATE
 UWI .        {32CBF15E-C69E-4316-ABD5-8F1549ADA7B1}:UNIQUE WELL ID
 API .        <no data>       :API NUMBER
 LBEG.        No ID entered   :(LBEG) well code
~CURVE INFORMATION
#MNEM.UNIT      API CODE      CURVE DESCRIPTION
#---------    -------------   ------------------------------
 DEPTH.M                      :depth
 ROP .MINPERM                 :rop
 WOB .TONF                    :wob
 HOOKLOAD.TONF                :hookload
 RPM_BIT.RPM                  :rpm_bit
 RPM_STRING.RPM               :rpm_string
 TORQUE.DANM                  :torque
 PUMP_PRESSURE.BAR            :pump_pressure
 FLOW_IN.LPERMIN              :flow_in
 FLOW_OUT.LPERMIN             :flow_out
 C1  .VOLPERCENT              :c1
 C2  .VOLPERCENT              :c2
 C3  .VOLPERCENT              :c3
 IC4 .VOLPERCENT              :ic4
 NC4 .VOLPERCENT              :nc4
 IC5 .VOLPERCENT              :ic5
 NC5 .VOLPERCENT              :nc5
 C_TOTAL.VOLPERCENT           :c_total
 LAGTIME.MIN                  :lagtime
 MUDWEIGHT_IN.KGPERL          :mudweight_in
 MUDWEIGHT_OUT.KGPERL         :mudweight_out
 TEMP_IN.DEGRC                :temp_in
 TEMP_OUT.DEGRC               :temp_out
 CO2 .VOLPERCENT              :co2
 H2S_RIGFLOOR.PPM             :h2s_rigfloor
 H2S_PITS.PPM                 :h2s_pits
 H2S_SHAKERS.PPM              :h2s_shakers
 POREPRESSGRD.KGPERL          :porepressgrd
 ECD .KGPERL                  :ecd
 D_EXPONENT.NOUNIT            :d_exponent
 DC_EXPONENT.NOUNIT           :dc_exponent
 SIGMA.NOUNIT                 :sigma
 CTOOTH.NOUNIT                :ctooth
 CBEARING.NOUNIT              :cbearing
 REVS_BIT_TOTAL.NOUNIT        :revs_bit_total
 BIT_HOURS.HR                 :bit_hours
 CLOCKDATE.                   :Date/Time
~PARAMETER INFORMATION
#MNEM.UNIT        VALUE       DESCRIPTION OF MNEMONIC
#---------    -------------   ------------------------------
~OTHER INFORMATION
~ASCII Log data section
# ...
 1518.00   16.15    9.21   58.50  110.45  110.45  1470.48  140.47  3022.69    0.00    0.0000    0.0000    0.0000    0.0000    0.0000    0.0000    0.0000    0.0990   34.52    1.16    1.15   52.71   56.39    0.014    0.00    0.00    0.00    1.030    1.15    1.582    1.417    0.761    2.13    1.28  573582.00   90.45  20160219.083647
 1519.00   14.44    9.34   57.54  116.77  116.77  1444.12  139.36  3015.49    0.00    0.0000    0.0000    0.0000    0.0000    0.0000    0.0000    0.0000    0.1005   34.55    1.16    1.15   52.67   56.47    0.006    0.00    0.00    0.00    1.030    1.15    1.586    1.421    0.767    2.13    1.28  575337.00   90.70  20160219.085145
 1520.00   14.08    9.61   55.61   97.71   97.71  1481.60  139.61  3014.84    0.00    0.0000    0.0000    0.0000    0.0000    0.0000    0.0000    0.0000    0.1450   34.56    1.16    1.15   52.88   56.54    0.010    0.00    0.00    0.00    1.030    1.15    1.537    1.377    0.741    2.14    1.28  576620.00   90.92  20160219.090533
 1521.00    9.05   10.09   54.90   95.98   95.98  1618.92  139.23  3015.75    0.00    0.0000    0.0000    0.0000    0.0000    0.0000    0.0000    0.0000    0.1440   34.57    1.16    1.15   52.95   56.57    0.009    0.00    0.00    0.00    1.030    1.15    1.478    1.323    0.712    2.14    1.29  577489.00   91.07  20160219.091436
 1522.00   12.93    9.75   55.99   95.99   95.99  1551.01  139.64  3015.68    0.00    0.0000    0.0000    0.0000    0.0000    0.0000    0.0000    0.0000    0.0958   34.61    1.16    1.15   53.15   56.59    0.034    0.00    0.00    0.00    1.030    1.15    1.472    1.318    0.707    2.15    1.29  578730.00   91.29  20160219.092732
 1523.00   16.00    9.61   55.92  110.90  110.90  1530.33  139.24  3016.50    0.00    0.0000    0.0000    0.0000    0.0000    0.0000    0.0000    0.0000    0.1338   34.64    1.16    1.15   53.45   56.21    0.033    0.00    0.00    0.00    1.030    1.15    1.647    1.475    0.800    2.16    1.30  580505.00   91.56  20160219.094332
 1524.00   10.80    8.93   56.10  111.73  111.73  1554.93  138.70  3015.84    0.00    0.0000    0.0000    0.0000    0.0000    0.0000    0.0000    0.0000    0.1185   34.67    1.16    1.15   53.67   56.23    0.027    0.00    0.00    0.00    1.030    1.15    1.498    1.342    0.714    2.16    1.30  581712.00   91.74  20160219.095420
 1525.00   10.67    9.38   56.94  111.73  111.73  1548.37  137.79  3015.56    0.00    0.0000    0.0000    0.0000    0.0000    0.0000    0.0000    0.0000    0.1213   34.67    1.16    1.15   53.83   56.32    0.040    0.00    0.00    0.00    1.030    1.15    1.489    1.334    0.713    2.17    1.30  582903.00   91.91  20160219.100500
 1526.00   15.03   10.27   55.55  105.67  105.67  1499.36  135.44  3016.44    0.00    0.0000    0.0000    0.0000    0.0000    0.0000    0.0000    0.0000    0.1373   34.68    1.16    1.15   53.76   56.35    0.063    0.00    0.00    0.00    1.030    1.15    1.593    1.426    0.773    2.17    1.31  584474.00   92.16  20160219.102002
 1527.00   13.52   10.67   54.60  119.98  119.98  1526.76  138.57  3017.64    0.00    0.0000    0.0000    0.0000    0.0000    0.0000    0.0000    0.0000    0.1494   34.73    1.16    1.15   53.58   56.37    0.065    0.00    0.00    0.00    1.030    1.15    1.646    1.475    0.806    2.18    1.31  586096.00   92.39  20160219.103333
 1528.00   21.12   10.29   55.02  121.02  121.02  1482.25  138.92  3015.22    0.00    0.0000    0.0000    0.0000    0.0000    0.0000    0.0000    0.0000    0.2392   34.77    1.16    1.15   53.54   56.44    0.046    0.00    0.00    0.00    1.030    1.15    1.651    1.479    0.811    2.19    1.32  588652.00   92.74  20160219.105440
 1529.00   18.47    9.68   56.20  121.03  121.03  1458.73  138.26  3016.54    0.00    0.0000    0.0000    0.0000    0.0000    0.0000    0.0000    0.0000    0.2430   34.77    1.16    1.15   53.43   56.33    0.072    0.00    0.00    0.00    1.030    1.15    1.710    1.532    0.844    2.20    1.33  590888.00   93.05  20160219.111308
 1530.00   20.85    9.88   55.76  111.70  111.70  1486.96  103.22  2874.76    0.00    0.0000    0.0000    0.0000    0.0000    0.0000    0.0000    0.0000    0.0847   41.34    1.15    1.15   53.49   55.54    0.017    0.00    0.00    0.00    1.030    1.15    1.694    1.518    0.831    2.21    1.34  593226.00   93.40  20160219.113359
 1531.00   14.00   10.97   54.90  103.62  103.62  1583.52  102.77  2539.36    0.00    0.0000    0.0000    0.0000    0.0000    0.0000    0.0000    0.0000    0.0829   41.35    1.15    1.15   53.47   55.38    0.092    0.00    0.00    0.00    1.030    1.15    1.569    1.405    0.767    2.22    1.34  594679.00   93.63  20160219.114759
 1532.00   15.87   11.08   56.88  110.22  110.22  1536.64  132.40  2867.30    0.00    0.0000    0.0000    0.0000    0.0000    0.0000    0.0000    0.0000    0.0852   34.93    1.16    1.15   52.94   55.03    0.075    0.00    0.00    0.00    1.030    1.15    1.675    1.501    0.825    2.23    1.35  596407.00   93.89  20160219.122147
 1533.00   18.62   11.61   54.61  113.97  113.97  1493.30  103.89  2726.15    0.00    0.0000    0.0000    0.0000    0.0000    0.0000    0.0000    0.0000    0.0716   41.06    1.16    1.15   52.09   55.11    0.084    0.00    0.00    0.00    1.030    1.15    1.711    1.533    0.847    2.23    1.35  598529.00   94.20  20160219.124024
 1534.00   17.35   11.70   54.42  114.01  114.01  1493.99  105.67  2561.67    0.00    0.0000    0.0000    0.0000    0.0000    0.0000    0.0000    0.0000    0.0776   41.08    1.15    1.15   52.87   55.13    0.069    0.00    0.00    0.00    1.030    1.15    1.759    1.575    0.878    2.24    1.36  600507.00   94.49  20160219.125745
 1535.00   17.85   11.35   55.63  114.16  114.16  1521.61  105.04  2563.89    0.00    0.0000    0.0000    0.0000    0.0000    0.0000    0.0000    0.0000    0.0794   41.09    1.16    1.15   52.97   55.02    0.086    0.00    0.00    0.00    1.030    1.15    1.733    1.552    0.860    2.25    1.37  602545.00   94.79  20160219.131536
 1536.00   13.47   11.30   54.84  120.94  120.94  1545.57  104.52  2562.58    0.00    0.0000    0.0000    0.0000    0.0000    0.0000    0.0000    0.0000    0.0759   41.14    1.16    1.15   53.01   55.01    0.091    0.00    0.00    0.00    1.030    1.15    1.676    1.501    0.826    2.26    1.37  604174.00   95.02  20160219.132904
 1537.00   24.53   10.76   56.54  121.05  121.05  1463.66   70.28  2563.11    0.00    0.0000    0.0000    0.0000    0.0000    0.0000    0.0000    0.0000    0.0675   40.87    1.16    1.15   53.11   54.95    0.091    0.00    0.00    0.00    1.030    1.15    1.773    1.587    0.884    2.27    1.38  607144.00   95.42  20160219.135336
 1538.00   17.50   11.21   56.59  121.02  121.02  1509.46  103.79  2563.12    0.00    0.0000    0.0000    0.0000    0.0000    0.0000    0.0000    0.0000    0.0658   41.20    1.18    1.15   53.16   54.72    0.094    0.00    0.00    0.00    1.030    1.15    1.749    1.567    0.869    2.28    1.39  609262.00   95.72  20160219.141106
 1539.00   27.03   11.36   55.01  121.06  121.06  1415.61  104.73  2563.61    0.00    0.0000    0.0000    0.0000    0.0000    0.0000    0.0000    0.0000    0.0694   41.20    1.16    1.16   52.94   54.76    0.069    0.00    0.00    0.00    1.030    1.15    1.849    1.656    0.936    2.30    1.40  612534.00   96.17  20160219.143808
 1540.00   24.52   11.33   55.42  120.38  120.38  1455.42  135.06  2583.18    0.00    0.0000    0.0000    0.0000    0.0000    0.0000    0.0000    0.0000    0.0806   35.23    1.16    1.16   52.80   54.92    0.136    0.00    0.00    0.00    1.030    1.15    1.802    1.613    0.904    2.31    1.41  615479.00   96.58  20160219.150239
 1541.00   26.98   11.18   54.49  117.95  117.95  1409.50  135.97  3001.40    0.00    0.0000    0.0000    0.0000    0.0000    0.0000    0.0000    0.0000    0.0786   35.24    1.16    1.16   52.64   55.10    0.154    0.00    0.00    0.00    1.030    1.15    1.854    1.661    0.939    2.32    1.42  618662.00   97.02  20160219.152938
 1542.00   23.97   11.63   54.50  120.85  120.85  1453.74  135.47  3001.55    0.00    0.0000    0.0000    0.0000    0.0000    0.0000    0.0000    0.0000    0.0578   35.23    1.16    1.16   52.81   55.20    0.168    0.00    0.00    0.00    1.030    1.15    1.835    1.643    0.926    2.34    1.43  621558.00   97.42  20160219.155336
