~VERSION INFORMATION
#
#File created by GEO-data Geological Wellsite Services GmbH.
#Parts or all of this file may be confidential.
#
# This is a "LAS" file containing logging data in ascii form.
#
 VERS.        2.0             :CWLS LOG ASCII STANDARD - VERSION 2.0
 WRAP.        NO              :Single line per depth step
~WELL INFORMATION
#MNEM.UNIT        DATA              DESCRIPTION OF MNEMONIC
#---------    -------------         ------------------------
 STRT.M       193.00          :Start DEPTH
 STOP.M       2445.00         :End DEPTH
 STEP.M       1.00            :DEPTH step
 NULL.        -999.25         :NULL VALUE
 COMP.        CLG             :COMPANY
 WELL.        Cal-GT-05       :WELL
 FLD .        Californie      :FIELD
 LOC .        Californie      :LOCATION
 PROV.        <no data>       :PROVINCE
 CNTY.        <no data>       :COUNTY
 STAT.        Niederlande     :STATE
 CTRY.        Niederlande     :COUNTRY
 SRVC.        GeoService      :SERVICE COMPANY
 DATE.        19.04.2016      :DATE
 UWI .        {32CBF15E-C69E-4316-ABD5-8F1549ADA7B1}:UNIQUE WELL ID
 API .        <no data>       :API NUMBER
 LBEG.        No ID entered   :(LBEG) well code
~CURVE INFORMATION
#MNEM.UNIT      API CODE      CURVE DESCRIPTION
#---------    -------------   ------------------------------
 DEPTH.M                      :depth
 ROP .MINPERM                 :rop
 WOB .TONF                    :wob
 HOOKLOAD.TONF                :hookload
 RPM_BIT.RPM                  :rpm_bit
 RPM_STRING.RPM               :rpm_string
 TORQUE.DANM                  :torque
 PUMP_PRESSURE.BAR            :pump_pressure
 FLOW_IN.LPERMIN              :flow_in
 FLOW_OUT.LPERMIN             :flow_out
 C1  .VOLPERCENT              :c1
 C2  .VOLPERCENT              :c2
 C3  .VOLPERCENT              :c3
 IC4 .VOLPERCENT              :ic4
 NC4 .VOLPERCENT              :nc4
 IC5 .VOLPERCENT              :ic5
 NC5 .VOLPERCENT              :nc5
 C_TOTAL.VOLPERCENT           :c_total
 LAGTIME.MIN                  :lagtime
 MUDWEIGHT_IN.KGPERL          :mudweight_in
 MUDWEIGHT_OUT.KGPERL         :mudweight_out
 TEMP_IN.DEGRC                :temp_in
 TEMP_OUT.DEGRC               :temp_out
 CO2 .VOLPERCENT              :co2
 H2S_RIGFLOOR.PPM             :h2s_rigfloor
 H2S_PITS.PPM                 :h2s_pits
 H2S_SHAKERS.PPM              :h2s_shakers
 POREPRESSGRD.KGPERL          :porepressgrd
 ECD .KGPERL                  :ecd
 D_EXPONENT.NOUNIT            :d_exponent
 DC_EXPONENT.NOUNIT           :dc_exponent
 SIGMA.NOUNIT                 :sigma
 CTOOTH.NOUNIT                :ctooth
 CBEARING.NOUNIT              :cbearing
 REVS_BIT_TOTAL.NOUNIT        :revs_bit_total
 BIT_HOURS.HR                 :bit_hours
 CLOCKDATE.                   :Date/Time
~PARAMETER INFORMATION
#MNEM.UNIT        VALUE       DESCRIPTION OF MNEMONIC
#---------    -------------   ------------------------------
~OTHER INFORMATION
~ASCII Log data section
# ...
 1093.00    3.75    8.37   51.17  105.45  105.45  1274.50  121.02  3014.53    0.00    0.0000    0.0000    0.0000    0.0000    0.0000    0.0000    0.0000    0.0069   23.98    1.14    1.17   54.37   52.90    0.000    0.00    0.00    0.00    1.030    1.15    1.189    1.065    0.573    0.87    0.45  253096.00   39.30  20160216.162535
 1094.00    3.56    8.11   51.19  105.44  105.44  1268.03  121.89  3014.05    0.00    0.0000    0.0000    0.0000    0.0000    0.0000    0.0000    0.0000    0.0080   24.00    1.14    1.16   54.16   52.92    0.000    0.00    0.00    0.00    1.030    1.15    1.175    1.053    0.565    0.87    0.45  253473.00   39.36  20160216.162909
 1095.00    6.70    7.60   55.35  103.17  103.17  1165.04  119.15  3007.82    0.00    0.0000    0.0000    0.0000    0.0000    0.0000    0.0000    0.0000    0.0080   24.12    1.15    1.14   54.33   52.93    0.000    0.00    0.00    0.00    1.030    1.15    1.246    1.116    0.591    0.87    0.45  254162.00   39.47  20160216.164717
 1096.00    4.85    8.03   51.69  100.73  100.73  1236.46  119.74  3002.30    0.00    0.0000    0.0000    0.0000    0.0000    0.0000    0.0000    0.0000    0.0080   24.15    1.14    1.14   54.26   52.90    0.000    0.00    0.00    0.00    1.030    1.15    1.240    1.111    0.589    0.87    0.46  254651.00   39.55  20160216.165208
 1097.00    3.45    7.91   51.80  100.73  100.73  1270.48  119.87  3002.44    0.00    0.0000    0.0000    0.0000    0.0000    0.0000    0.0000    0.0000    0.0082   24.17    1.15    1.14   54.30   52.88    0.000    0.00    0.00    0.00    1.030    1.15    1.164    1.043    0.559    0.88    0.46  254998.00   39.61  20160216.165535
 1098.00    3.13    7.77   52.04  100.73  100.73  1274.81  119.71  3002.61    0.00    0.0000    0.0000    0.0000    0.0000    0.0000    0.0000    0.0000    0.0084   24.19    1.14    1.14   54.22   52.86    0.000    0.00    0.00    0.00    1.030    1.15    1.109    0.993    0.537    0.88    0.46  255314.00   39.66  20160216.165843
 1099.00    3.28    8.02   51.73  100.73  100.73  1308.68  119.31  3002.63    0.00    0.0000    0.0000    0.0000    0.0000    0.0000    0.0000    0.0000    0.0089   24.22    1.15    1.14   54.11   52.87    0.000    0.00    0.00    0.00    1.030    1.15    1.139    1.020    0.551    0.88    0.46  255645.00   39.72  20160216.170200
 1100.00    5.00    7.73   52.33  100.73  100.73  1258.36  119.45  3001.57    0.00    0.0000    0.0000    0.0000    0.0000    0.0000    0.0000    0.0000    0.0092   24.26    1.14    1.14   53.77   52.90    0.000    0.00    0.00    0.00    1.030    1.15    1.215    1.088    0.576    0.88    0.46  256148.00   39.80  20160216.170700
 1101.00    3.40    7.82   52.27  100.73  100.73  1284.35  119.84  2999.62    0.00    0.0000    0.0000    0.0000    0.0000    0.0000    0.0000    0.0000    0.0096   24.29    1.14    1.14   53.78   52.91    0.000    0.00    0.00    0.00    1.030    1.15    1.149    1.029    0.552    0.88    0.46  256491.00   39.86  20160216.171024
 1102.00    3.42    8.72   51.34  100.73  100.73  1334.33  119.56  2999.26    0.00    0.0000    0.0000    0.0000    0.0000    0.0000    0.0000    0.0000    0.0094   24.31    1.14    1.14   53.75   52.92    0.000    0.00    0.00    0.00    1.030    1.15    1.165    1.043    0.567    0.88    0.46  256835.00   39.91  20160216.171349
 1103.00    5.33    7.73   52.55  100.73  100.73  1231.14  119.70  2998.75    0.00    0.0000    0.0000    0.0000    0.0000    0.0000    0.0000    0.0000    0.0098   24.35    1.14    1.14   53.75   52.92    0.000    0.00    0.00    0.00    1.030    1.15    1.232    1.104    0.584    0.88    0.46  257372.00   40.00  20160216.171909
 1104.00    3.77    8.09   51.60  100.73  100.73  1278.33  120.00  2998.79    0.00    0.0000    0.0000    0.0000    0.0000    0.0000    0.0000    0.0000    0.0097   24.38    1.14    1.14   53.77   52.89    0.000    0.00    0.00    0.00    1.030    1.15    1.170    1.048    0.563    0.89    0.46  257752.00   40.07  20160216.172255
 1105.00    4.82    8.69   51.54  100.73  100.73  1238.88  120.33  2998.96    0.00    0.0000    0.0000    0.0000    0.0000    0.0000    0.0000    0.0000    0.0099   24.39    1.14    1.14   53.82   52.86    0.000    0.00    0.00    0.00    1.030    1.15    1.236    1.107    0.594    0.89    0.46  258237.00   40.15  20160216.172744
 1106.00    4.33    8.23   51.41  100.73  100.73  1206.00  120.28  2999.47    0.00    0.0000    0.0000    0.0000    0.0000    0.0000    0.0000    0.0000    0.0099   24.41    1.14    1.15   53.78   52.85    0.000    0.00    0.00    0.00    1.030    1.15    1.226    1.098    0.586    0.89    0.47  258673.00   40.22  20160216.173204
 1107.00    4.48    8.47   51.16  100.73  100.73  1243.02  120.79  2999.68    0.00    0.0000    0.0000    0.0000    0.0000    0.0000    0.0000    0.0000    0.0099   24.45    1.14    1.14   53.88   52.86 -999.250    0.00    0.00    0.00    1.030    1.15    1.223    1.095    0.587    0.89    0.47  259125.00   40.29  20160216.173633
 1108.00   10.47    7.89   52.04  100.73  100.73  1154.89  118.90  3001.36    0.00    0.0000    0.0000    0.0000    0.0000    0.0000    0.0000    0.0000    0.0098   24.46    1.14    1.14   53.76   52.76 -999.250    0.00    0.00    0.00    1.030    1.15    1.341    1.200    0.632    0.89    0.47  260179.00   40.47  20160216.174701
 1109.00   12.70    7.36   54.73  100.84  100.84  1093.56  122.44  3002.14    0.00    0.0000    0.0000    0.0000    0.0000    0.0000    0.0000    0.0000    0.0085   24.33    1.15    1.14   53.79   52.63    0.000    0.00    0.00    0.00    1.030    1.15    1.429    1.280    0.667    0.90    0.47  261460.00   40.68  20160216.182614
 1110.00    5.82    9.37   52.25  102.30  102.30  1259.91  122.70  3020.30    0.00    0.0000    0.0000    0.0000    0.0000    0.0000    0.0000    0.0000    0.0093   24.35    1.15    1.14   54.02   52.70    0.000    0.00    0.00    0.00    1.030    1.15    1.393    1.249    0.668    0.90    0.47  262055.00   40.78  20160216.183203
 1111.00    6.53    9.78   51.95  102.30  102.30  1248.78  122.34  3021.01    0.00    0.0000    0.0000    0.0000    0.0000    0.0000    0.0000    0.0000    0.0111   24.36    1.14    1.14   53.68   52.71    0.000    0.00    0.00    0.00    1.030    1.15    1.353    1.211    0.652    0.90    0.48  262724.00   40.88  20160216.183835
 1112.00   11.40    8.84   53.19  102.30  102.30  1114.93  122.97  3027.53    0.00    0.0000    0.0000    0.0000    0.0000    0.0000    0.0000    0.0000    0.0142   24.33    1.15    1.14   53.44   52.74    0.000    0.00    0.00    0.00    1.030    1.15    1.464    1.311    0.696    0.91    0.48  263890.00   41.07  20160216.184959
 1113.00   10.30    8.43   52.71  102.30  102.30  1087.93   97.61  3027.00    0.00    0.0000    0.0000    0.0000    0.0000    0.0000    0.0000    0.0000    0.0143   24.29    1.15    1.14   53.73   52.87    0.000    0.00    0.00    0.00    1.030    1.15    1.413    1.266    0.668    0.91    0.48  264944.00   41.25  20160216.190017
 1114.00   12.07    8.53   52.64  102.30  102.30  1048.42  122.24  3020.93    0.00    0.0000    0.0000    0.0000    0.0000    0.0000    0.0000    0.0000    0.0152   24.46    1.15    1.14   54.01   52.98    0.000    0.00    0.00    0.00    1.030    1.15    1.493    1.337    0.710    0.92    0.48  266178.00   41.45  20160216.191221
 1115.00   13.50    8.83   52.26  102.30  102.30  1038.60  122.19  3019.63    0.00    0.0000    0.0000    0.0000    0.0000    0.0000    0.0000    0.0000    0.0157   24.47    1.15    1.14   54.04   53.04    0.000    0.00    0.00    0.00    1.030    1.15    1.494    1.338    0.712    0.92    0.49  267559.00   41.67  20160216.192551
 1116.00   10.70    9.67   51.76  102.30  102.30  1113.38  122.49  3019.39    0.00    0.0000    0.0000    0.0000    0.0000    0.0000    0.0000    0.0000    0.0160   24.52    1.15    1.14   54.04   53.08    0.000    0.00    0.00    0.00    1.030    1.15    1.503    1.346    0.722    0.93    0.49  268654.00   41.85  20160216.193633
 1117.00   11.05    9.66   52.38  102.30  102.30  1124.01  122.37  3019.19    0.00    0.0000    0.0000    0.0000    0.0000    0.0000    0.0000    0.0000    0.0170   24.54    1.15    1.15   54.05   53.11    0.000    0.00    0.00    0.00    1.030    1.15    1.536    1.376    0.739    0.93    0.50  269784.00   42.04  20160216.194736
