~VERSION INFORMATION
#
#File created by GEO-data Geological Wellsite Services GmbH.
#Parts or all of this file may be confidential.
#
# This is a "LAS" file containing logging data in ascii form.
#
 VERS.        2.0             :CWLS LOG ASCII STANDARD - VERSION 2.0
 WRAP.        NO              :Single line per depth step
~WELL INFORMATION
#MNEM.UNIT        DATA              DESCRIPTION OF MNEMONIC
#---------    -------------         ------------------------
 STRT.M       193.00          :Start DEPTH
 STOP.M       2445.00         :End DEPTH
 STEP.M       1.00            :DEPTH step
 NULL.        -999.25         :NULL VALUE
 COMP.        CLG             :COMPANY
 WELL.        Cal-GT-05       :WELL
 FLD .        Californie      :FIELD
 LOC .        Californie      :LOCATION
 PROV.        <no data>       :PROVINCE
 CNTY.        <no data>       :COUNTY
 STAT.        Niederlande     :STATE
 CTRY.        Niederlande     :COUNTRY
 SRVC.        GeoService      :SERVICE COMPANY
 DATE.        19.04.2016      :DATE
 UWI .        {32CBF15E-C69E-4316-ABD5-8F1549ADA7B1}:UNIQUE WELL ID
 API .        <no data>       :API NUMBER
 LBEG.        No ID entered   :(LBEG) well code
~CURVE INFORMATION
#MNEM.UNIT      API CODE      CURVE DESCRIPTION
#---------    -------------   ------------------------------
 DEPTH.M                      :depth
 ROP .MINPERM                 :rop
 WOB .TONF                    :wob
 HOOKLOAD.TONF                :hookload
 RPM_BIT.RPM                  :rpm_bit
 RPM_STRING.RPM               :rpm_string
 TORQUE.DANM                  :torque
 PUMP_PRESSURE.BAR            :pump_pressure
 FLOW_IN.LPERMIN              :flow_in
 FLOW_OUT.LPERMIN             :flow_out
 C1  .VOLPERCENT              :c1
 C2  .VOLPERCENT              :c2
 C3  .VOLPERCENT              :c3
 IC4 .VOLPERCENT              :ic4
 NC4 .VOLPERCENT              :nc4
 IC5 .VOLPERCENT              :ic5
 NC5 .VOLPERCENT              :nc5
 C_TOTAL.VOLPERCENT           :c_total
 LAGTIME.MIN                  :lagtime
 MUDWEIGHT_IN.KGPERL          :mudweight_in
 MUDWEIGHT_OUT.KGPERL         :mudweight_out
 TEMP_IN.DEGRC                :temp_in
 TEMP_OUT.DEGRC               :temp_out
 CO2 .VOLPERCENT              :co2
 H2S_RIGFLOOR.PPM             :h2s_rigfloor
 H2S_PITS.PPM                 :h2s_pits
 H2S_SHAKERS.PPM              :h2s_shakers
 POREPRESSGRD.KGPERL          :porepressgrd
 ECD .KGPERL                  :ecd
 D_EXPONENT.NOUNIT            :d_exponent
 DC_EXPONENT.NOUNIT           :dc_exponent
 SIGMA.NOUNIT                 :sigma
 CTOOTH.NOUNIT                :ctooth
 CBEARING.NOUNIT              :cbearing
 REVS_BIT_TOTAL.NOUNIT        :revs_bit_total
 BIT_HOURS.HR                 :bit_hours
 CLOCKDATE.                   :Date/Time
~PARAMETER INFORMATION
#MNEM.UNIT        VALUE       DESCRIPTION OF MNEMONIC
#---------    -------------   ------------------------------
~OTHER INFORMATION
~ASCII Log data section
# ...
 1668.00   19.60   14.51   50.34  188.66   40.09  1066.90  109.64  2007.70    0.00    0.0000    0.0000    0.0000    0.0000    0.0000    0.0000    0.0000    0.1850   36.44    1.25    1.17   45.37   45.90    0.000    0.00    0.00    0.00    1.030    1.15    2.280    2.042    1.464    3.99    3.70  469150.00   44.94  20160305.004132
 1669.00   21.70   14.59   50.44  188.73   40.09  1067.70  109.13  2008.70    0.00    0.0000    0.0000    0.0000    0.0000    0.0000    0.0000    0.0000    0.1793   36.40    1.25    1.17   45.60   45.96    0.000    0.00    0.00    0.00    1.030    1.15    2.295    2.055    1.478    4.02    3.73  473245.00   45.31  20160305.010314
 1670.00   21.45   14.54   50.29  188.71   40.09  1060.59  107.59  2008.36    0.00    0.0000    0.0000    0.0000    0.0000    0.0000    0.0000    0.0000    0.1527   36.39    1.25    1.17   45.72   46.05    0.000    0.00    0.00    0.00    1.030    1.15    2.299    2.059    1.482    4.06    3.76  477293.00   45.66  20160305.012441
 1671.00   21.28   14.52   50.46  188.74   40.08  1072.46  108.96  2008.85    0.00    0.0000    0.0000    0.0000    0.0000    0.0000    0.0000    0.0000    0.1533   36.42    1.25    1.17   45.73   46.14    0.000    0.00    0.00    0.00    1.030    1.15    2.293    2.054    1.476    4.10    3.80  481310.00   46.02  20160305.014558
 1672.00   22.42   14.58   50.31  188.77   40.09  1071.43  108.78  2009.19    0.00    0.0000    0.0000    0.0000    0.0000    0.0000    0.0000    0.0000    0.1499   36.44    1.25    1.17   45.77   46.16    0.000    0.00    0.00    0.00    1.030    1.15    2.311    2.070    1.494    4.13    3.83  485542.00   46.39  20160305.020823
 1673.00   21.20   14.52   50.36  188.77   40.09  1082.28  109.61  2009.19    0.00    0.0000    0.0000    0.0000    0.0000    0.0000    0.0000    0.0000    0.0971   36.46    1.25    1.17   45.53   45.97 -999.250    0.00    0.00    0.00    1.030    1.15    2.300    2.060    1.483    4.17    3.86  489544.00   46.75  20160305.022935
 1674.00   23.88   14.97   53.01  162.74   13.45   472.55  116.11  2017.48    0.00    0.0000    0.0000    0.0000    0.0000    0.0000    0.0000    0.0000    0.1117   36.23    1.25    1.17   45.00   46.20    0.000    0.00    0.00    0.00    1.030    1.15    2.331    2.088    1.512    4.20    3.89  491548.00   46.94  20160305.034511
 1675.00   24.46   15.53   44.45  149.66    0.08   170.62  114.89  2021.33    0.00    0.0000    0.0000    0.0000    0.0000    0.0000    0.0000    0.0000    0.0886   36.23    1.25    1.17   45.02   46.21 -999.250    0.00    0.00    0.00    1.030    1.15    2.317    2.075    1.493    4.20    3.89  491897.00   46.98  20160305.034731
 1676.00   23.33   15.50   44.69  149.74    0.10    81.52  115.26  2022.20    0.00    0.0000    0.0000    0.0000    0.0000    0.0000    0.0000    0.0000    0.0911   36.23    1.25    1.17   44.85   46.25    0.000    0.00    0.00    0.00    1.030    1.15    2.294    2.055    1.471    4.22    3.91  495391.00   47.37  20160305.041051
 1677.00   23.45   14.31   44.67  149.79    0.09    20.00  116.21  2023.04    0.00    0.0000    0.0000    0.0000    0.0000    0.0000    0.0000    0.0000    0.0904   36.24    1.26    1.17   44.78   46.30    0.000    0.00    0.00    0.00    1.030    1.15    2.243    2.009    1.429    4.25    3.94  498904.00   47.76  20160305.043418
 1678.00   21.83   14.81   44.60  149.76    0.10    15.13  116.67  2022.42    0.00    0.0000    0.0000    0.0000    0.0000    0.0000    0.0000    0.0000    0.0999   36.30    1.26    1.17   44.79   46.36    0.000    0.00    0.00    0.00    1.030    1.15    2.245    2.011    1.428    4.28    3.96  502174.00   48.12  20160305.045608
 1679.00   23.05   15.25   43.29  149.68    0.10    21.34  116.13  2021.36    0.00    0.0000    0.0000    0.0000    0.0000    0.0000    0.0000    0.0000    0.0972   36.30    1.26    1.17   44.95   46.41    0.000    0.00    0.00    0.00    1.030    1.15    2.277    2.039    1.456    4.31    3.99  505624.00   48.51  20160305.051911
 1680.00   22.23   15.35   50.27  157.32    7.67   212.88  121.86  2022.35    0.00    0.0000    0.0000    0.0000    0.0000    0.0000    0.0000    0.0000    0.1083   36.29    1.26    1.17   45.31   46.41    0.000    0.00    0.00    0.00    1.030    1.15    2.296    2.056    1.474    4.34    4.02  509116.00   48.88  20160305.054640
 1681.00   22.28   15.73   50.26  190.91   41.33  1111.61  119.89  2021.29    0.00    0.0000    0.0000    0.0000    0.0000    0.0000    0.0000    0.0000    0.1330   36.32    1.26    1.17   45.01   46.41    0.000    0.00    0.00    0.00    1.030    1.15    2.373    2.126    1.548    4.38    4.05  513370.00   49.25  20160305.060857
 1682.00   20.45   15.68   52.75  190.69   41.32  1111.65  124.28  2018.51    0.00    0.0000    0.0000    0.0000    0.0000    0.0000    0.0000    0.0000    0.1356   36.41    1.27    1.17   44.76   46.54    0.000    0.00    0.00    0.00    1.030    1.15    2.346    2.101    1.521    4.42    4.09  517270.00   49.59  20160305.064155
 1683.00   20.66   15.78   50.16  190.79   41.32  1121.15  125.18  2019.76    0.00    0.0000    0.0000    0.0000    0.0000    0.0000    0.0000    0.0000    0.1219   36.42    1.27    1.17   44.63   46.23    0.000    0.00    0.00    0.00    1.030    1.15    2.352    2.107    1.526    4.46    4.12  521216.00   49.94  20160305.070236
 1684.00   19.91   15.25   53.64  206.27   47.62  1117.00  132.29  2143.91    0.00    0.0000    0.0000    0.0000    0.0000    0.0000    0.0000    0.0000    0.1152   33.31    1.24    1.17   43.83   46.61    0.000    0.00    0.00    0.00    1.030    1.15    2.341    2.097    1.519    4.50    4.16  525314.00   50.27  20160305.072843
 1685.00   20.93   15.32   50.81  214.07   50.74  1126.01  133.33  2207.04    0.00    0.0000    0.0000    0.0000    0.0000    0.0000    0.0000    0.0000    0.1014   33.32    1.24    1.17   44.09   46.80    0.000    0.00    0.00    0.00    1.030    1.15    2.366    2.119    1.544    4.54    4.20  529795.00   50.62  20160305.074939
 1686.00   22.15   15.41   50.81  213.85   50.75  1131.05  138.59  2204.08    0.00    0.0000    0.0000    0.0000    0.0000    0.0000    0.0000    0.0000    0.0365   33.43    1.23    1.16   44.52   46.89    0.000    0.00    0.00    0.00    1.030    1.15    2.392    2.142    1.570    4.58    4.24  534532.00   50.99  20160305.081148
 1687.00   22.12   15.42   50.79  213.67   50.75  1132.89  141.55  2201.70    0.00    0.0000    0.0000    0.0000    0.0000    0.0000    0.0000    0.0000    0.0497   33.45    1.23    1.16   44.42   47.04    0.000    0.00    0.00    0.00    1.030    1.15    2.395    2.145    1.573    4.63    4.28  539258.00   51.35  20160305.083355
 1688.00   23.70   15.70   50.98  209.61   46.48  1116.64  132.63  2204.48    0.00    0.0000    0.0000    0.0000    0.0000    0.0000    0.0000    0.0000    0.0713   33.42    1.20    1.15   45.52   47.44    0.000    0.00    0.00    0.00    1.030    1.15    2.413    2.161    1.589    4.67    4.33  544220.00   51.75  20160305.085737
 1689.00   23.25   16.56   52.48  204.03   41.03  1110.26  137.56  2202.62    0.00    0.0000    0.0000    0.0000    0.0000    0.0000    0.0000    0.0000    0.0670   33.43    1.14    1.15   46.65   47.89    0.000    0.00    0.00    0.00    1.030    1.15    2.464    2.207    1.636    4.72    4.38  548964.00   52.14  20160305.093234
 1690.00   21.30   17.59   49.69  204.29   41.26  1128.19  142.68  2203.08    0.00    0.0000    0.0000    0.0000    0.0000    0.0000    0.0000    0.0000    0.0961   33.44    1.10    1.16   47.02   48.16    0.000    0.00    0.00    0.00    1.030    1.15    2.474    2.215    1.635    4.78    4.42  553315.00   52.49  20160305.095352
 1691.00   21.15   17.51   49.69  204.29   41.27  1127.36  138.68  2202.97    0.00    0.0000    0.0000    0.0000    0.0000    0.0000    0.0000    0.0000    0.1156   33.45    1.11    1.16   47.30   48.38    0.000    0.00    0.00    0.00    1.030    1.15    2.473    2.215    1.635    4.83    4.47  557636.00   52.84  20160305.101501
 1692.00   21.48   17.65   49.59  204.25   41.27  1119.43  141.01  2202.40    0.00    0.0000    0.0000    0.0000    0.0000    0.0000    0.0000    0.0000    0.1283   33.53    1.09    1.16   47.73   48.69    0.000    0.00    0.00    0.00    1.030    1.15    2.472    2.214    1.633    4.89    4.51  562024.00   53.20  20160305.103630
