~VERSION INFORMATION
#
#File created by GEO-data Geological Wellsite Services GmbH.
#Parts or all of this file may be confidential.
#
# This is a "LAS" file containing logging data in ascii form.
#
 VERS.        2.0             :CWLS LOG ASCII STANDARD - VERSION 2.0
 WRAP.        NO              :Single line per depth step
~WELL INFORMATION
#MNEM.UNIT        DATA              DESCRIPTION OF MNEMONIC
#---------    -------------         ------------------------
 STRT.M       193.00          :Start DEPTH
 STOP.M       2445.00         :End DEPTH
 STEP.M       1.00            :DEPTH step
 NULL.        -999.25         :NULL VALUE
 COMP.        CLG             :COMPANY
 WELL.        Cal-GT-05       :WELL
 FLD .        Californie      :FIELD
 LOC .        Californie      :LOCATION
 PROV.        <no data>       :PROVINCE
 CNTY.        <no data>       :COUNTY
 STAT.        Niederlande     :STATE
 CTRY.        Niederlande     :COUNTRY
 SRVC.        GeoService      :SERVICE COMPANY
 DATE.        19.04.2016      :DATE
 UWI .        {32CBF15E-C69E-4316-ABD5-8F1549ADA7B1}:UNIQUE WELL ID
 API .        <no data>       :API NUMBER
 LBEG.        No ID entered   :(LBEG) well code
~CURVE INFORMATION
#MNEM.UNIT      API CODE      CURVE DESCRIPTION
#---------    -------------   ------------------------------
 DEPTH.M                      :depth
 ROP .MINPERM                 :rop
 WOB .TONF                    :wob
 HOOKLOAD.TONF                :hookload
 RPM_BIT.RPM                  :rpm_bit
 RPM_STRING.RPM               :rpm_string
 TORQUE.DANM                  :torque
 PUMP_PRESSURE.BAR            :pump_pressure
 FLOW_IN.LPERMIN              :flow_in
 FLOW_OUT.LPERMIN             :flow_out
 C1  .VOLPERCENT              :c1
 C2  .VOLPERCENT              :c2
 C3  .VOLPERCENT              :c3
 IC4 .VOLPERCENT              :ic4
 NC4 .VOLPERCENT              :nc4
 IC5 .VOLPERCENT              :ic5
 NC5 .VOLPERCENT              :nc5
 C_TOTAL.VOLPERCENT           :c_total
 LAGTIME.MIN                  :lagtime
 MUDWEIGHT_IN.KGPERL          :mudweight_in
 MUDWEIGHT_OUT.KGPERL         :mudweight_out
 TEMP_IN.DEGRC                :temp_in
 TEMP_OUT.DEGRC               :temp_out
 CO2 .VOLPERCENT              :co2
 H2S_RIGFLOOR.PPM             :h2s_rigfloor
 H2S_PITS.PPM                 :h2s_pits
 H2S_SHAKERS.PPM              :h2s_shakers
 POREPRESSGRD.KGPERL          :porepressgrd
 ECD .KGPERL                  :ecd
 D_EXPONENT.NOUNIT            :d_exponent
 DC_EXPONENT.NOUNIT           :dc_exponent
 SIGMA.NOUNIT                 :sigma
 CTOOTH.NOUNIT                :ctooth
 CBEARING.NOUNIT              :cbearing
 REVS_BIT_TOTAL.NOUNIT        :revs_bit_total
 BIT_HOURS.HR                 :bit_hours
 CLOCKDATE.                   :Date/Time
~PARAMETER INFORMATION
#MNEM.UNIT        VALUE       DESCRIPTION OF MNEMONIC
#---------    -------------   ------------------------------
~OTHER INFORMATION
~ASCII Log data section
# ...
 1818.00   18.90   16.12   42.16  162.26    0.09     4.68  138.72  2191.50    0.00    0.0000    0.0000    0.0000    0.0000    0.0000    0.0000    0.0000    0.0419   35.25    1.23    1.18   52.69   51.43    0.000    0.00    0.00    0.00    1.030    1.15    2.279    2.041    1.453    4.98    4.58  508695.00   45.19  20160308.062454
 1819.00   17.93   16.09   42.07  162.27    0.09     0.53  137.63  2191.72    0.00    0.0000    0.0000    0.0000    0.0000    0.0000    0.0000    0.0000    0.0466   35.23    1.23    1.18   52.75   51.43    0.000    0.00    0.00    0.00    1.030    1.15    2.278    2.040    1.452    5.01    4.61  511597.00   45.49  20160308.064247
 1820.00   17.78   16.08   42.23  162.26    0.09     0.58  137.59  2191.62    0.00    0.0000    0.0000    0.0000    0.0000    0.0000    0.0000    0.0000    0.0572   35.25    1.23    1.18   52.74   51.50    0.000    0.00    0.00    0.00    1.030    1.15    2.259    2.023    1.435    5.04    4.64  514483.00   45.79  20160308.070034
 1821.00   16.91   16.02   42.24  162.27    0.09     0.53  139.27  2191.70    0.00    0.0000    0.0000    0.0000    0.0000    0.0000    0.0000    0.0000    0.0801   35.28    1.23    1.18   51.54   51.61    0.000    0.00    0.00    0.00    1.030    1.15    2.245    2.010    1.422    5.06    4.66  517231.00   46.07  20160308.071730
 1822.00   16.88   16.01   42.51  162.26    0.09    14.35  140.16  2191.54    0.00    0.0000    0.0000    0.0000    0.0000    0.0000    0.0000    0.0000    0.0936   35.29    1.23    1.18   52.70   51.68    0.000    0.00    0.00    0.00    1.030    1.15    2.266    2.030    1.442    5.09    4.69  519968.00   46.35  20160308.073422
 1823.00   19.40   15.62   54.36  193.16   30.94  1013.61  136.83  2192.11    0.00    0.0000    0.0000    0.0000    0.0000    0.0000    0.0000    0.0000    0.0938   35.30    1.23    1.18   52.73   51.75    0.000    0.00    0.00    0.00    1.030    1.15    2.292    2.053    1.471    5.12    4.72  523698.00   46.67  20160308.080430
 1824.00   14.74   15.67   52.76  195.75   33.47  1181.12  139.35  2193.02    0.00    0.0000    0.0000    0.0000    0.0000    0.0000    0.0000    0.0000    0.0943   35.14    1.22    1.18   52.74   51.80    0.000    0.00    0.00    0.00    1.030    1.15    2.279    2.042    1.457    5.15    4.75  526588.00   46.92  20160308.081916
 1825.00   16.90   15.84   52.63  196.50   33.46  1158.19  135.89  2203.23    0.00    0.0000    0.0000    0.0000    0.0000    0.0000    0.0000    0.0000    0.1102   35.14    1.23    1.18   53.05   51.84    0.000    0.00    0.00    0.00    1.030    1.15    2.255    2.019    1.434    5.19    4.78  529890.00   47.20  20160308.083604
 1826.00   20.24   16.00   52.29  196.53   33.46  1140.03  136.43  2203.67    0.00    0.0000    0.0000    0.0000    0.0000    0.0000    0.0000    0.0000    0.1184   35.14    1.23    1.18   52.06   51.91    0.000    0.00    0.00    0.00    1.030    1.15    2.367    2.120    1.540    5.22    4.82  533876.00   47.54  20160308.085621
 1827.00   18.60   15.91   52.21  196.73   33.46  1142.37  137.51  2206.43    0.00    0.0000    0.0000    0.0000    0.0000    0.0000    0.0000    0.0000    0.1238   35.11    1.22    1.18   51.62   52.02    0.000    0.00    0.00    0.00    1.030    1.15    2.325    2.083    1.499    5.26    4.85  537542.00   47.85  20160308.091459
 1828.00   19.61   15.96   52.19  196.79   33.46  1133.60  136.34  2207.20    0.00    0.0000    0.0000    0.0000    0.0000    0.0000    0.0000    0.0000    0.1231   35.12    1.22    1.18   51.29   52.10    0.000    0.00    0.00    0.00    1.030    1.15    2.363    2.116    1.536    5.30    4.89  541402.00   48.17  20160308.093436
 1829.00   15.61   15.71   52.63  196.71   33.48  1168.13  136.68  2205.76    0.00    0.0000    0.0000    0.0000    0.0000    0.0000    0.0000    0.0000    0.1152   35.16    1.22    1.18   51.14   52.04 -999.250    0.00    0.00    0.00    1.030    1.15    2.281    2.043    1.458    5.34    4.93  544471.00   48.43  20160308.095012
 1830.00   19.83   15.28   53.31  194.07   30.96  1045.89  132.47  2204.28    0.00    0.0000    0.0000    0.0000    0.0000    0.0000    0.0000    0.0000    0.0407   35.25    1.22    1.17   50.47   52.15    0.000    0.00    0.00    0.00    1.030    1.15    2.288    2.049    1.466    5.37    4.96  548300.00   48.76  20160308.103130
 1831.00   15.65   13.68   49.63  162.76    0.10    55.46  136.53  2198.10    0.00    0.0000    0.0000    0.0000    0.0000    0.0000    0.0000    0.0000    0.0443   35.37    1.22    1.17   52.62   52.24    0.000    0.00    0.00    0.00    1.030    1.15    2.111    1.891    1.310    5.40    4.99  550842.00   49.02  20160308.104707
 1832.00   21.14   14.93   43.41  155.12    0.09    39.22  135.67  2094.93    0.00    0.0000    0.0000    0.0000    0.0000    0.0000    0.0000    0.0000    0.0451   35.29    1.22    1.17   53.42   52.26    0.000    0.00    0.00    0.00    1.030    1.15    2.245    2.011    1.428    5.42    5.01  554121.00   49.38  20160308.110819
 1833.00   17.43   14.73   43.54  162.96    0.09    20.09  135.61  2200.91    0.00    0.0000    0.0000    0.0000    0.0000    0.0000    0.0000    0.0000    0.0435   35.25    1.23    1.18   53.31   52.32    0.000    0.00    0.00    0.00    1.030    1.15    2.184    1.956    1.372    5.45    5.03  556957.00   49.67  20160308.112543
 1834.00   19.91   14.86   43.50  162.93    0.09     8.11  135.28  2200.56    0.00    0.0000    0.0000    0.0000    0.0000    0.0000    0.0000    0.0000    0.0388   35.27    1.23    1.17   53.30   52.38    0.000    0.00    0.00    0.00    1.030    1.15    2.233    2.000    1.417    5.48    5.06  560210.00   50.00  20160308.114541
 1835.00   19.22   14.78   43.54  162.86    0.09    24.76  136.94  2199.68    0.00    0.0000    0.0000    0.0000    0.0000    0.0000    0.0000    0.0000    0.0437   35.33    1.23    1.17   53.35   52.43    0.000    0.00    0.00    0.00    1.030    1.15    2.244    2.010    1.428    5.51    5.08  563334.00   50.32  20160308.120452
 1836.00   15.14   14.49   43.87  162.84    0.10    74.05  136.21  2199.32    0.00    0.0000    0.0000    0.0000    0.0000    0.0000    0.0000    0.0000    0.0480   35.35    1.23    1.18   53.30   52.45    0.000    0.00    0.00    0.00    1.030    1.15    2.112    1.891    1.309    5.53    5.10  565788.00   50.57  20160308.121956
 1837.00   25.56   15.46   51.84  171.07    8.27   303.01  136.27  2199.90    0.00    0.0000    0.0000    0.0000    0.0000    0.0000    0.0000    0.0000    0.0479   35.33    1.23    1.18   52.88   52.39    0.000    0.00    0.00    0.00    1.030    1.15    2.386    2.137    1.565    5.57    5.13  570091.00   51.00  20160308.125553
 1838.00   22.26   13.94   57.59  195.18   32.34  1141.05  134.67  2200.52    0.00    0.0000    0.0000    0.0000    0.0000    0.0000    0.0000    0.0000    0.0459   35.32    1.24    1.18   51.85   52.29    0.000    0.00    0.00    0.00    1.030    1.15    2.233    2.000    1.422    5.60    5.16  574466.00   51.37  20160308.132343
 1839.00   22.12   16.57   51.67  194.86   31.98  1112.05  138.54  2200.99    0.00    0.0000    0.0000    0.0000    0.0000    0.0000    0.0000    0.0000    0.0457   35.36    1.24    1.17   51.61   52.54    0.000    0.00    0.00    0.00    1.030    1.15    2.430    2.177    1.600    5.65    5.20  578746.00   51.74  20160308.134541
 1840.00   18.17   16.33   52.09  194.82   31.98  1137.29  137.16  2200.59    0.00    0.0000    0.0000    0.0000    0.0000    0.0000    0.0000    0.0000    0.0403   35.38    1.24    1.17   51.53   52.60    0.000    0.00    0.00    0.00    1.030    1.15    2.311    2.069    1.483    5.68    5.24  582308.00   52.04  20160308.140358
 1841.00   15.04   16.11   52.17  194.81   31.98  1166.65  137.81  2200.37    0.00    0.0000    0.0000    0.0000    0.0000    0.0000    0.0000    0.0000    0.0414   35.40    1.24    1.17   51.37   52.65    0.000    0.00    0.00    0.00    1.030    1.15    2.306    2.066    1.481    5.72    5.28  585218.00   52.29  20160308.141854
 1842.00   16.83   16.25   51.95  194.89   31.98  1151.31  136.50  2201.43    0.00    0.0000    0.0000    0.0000    0.0000    0.0000    0.0000    0.0000    0.0563   35.38    1.24    1.17   51.42   52.69    0.000    0.00    0.00    0.00    1.030    1.15    2.297    2.057    1.470    5.75    5.31  588492.00   52.57  20160308.143542
