~VERSION INFORMATION
#
#File created by GEO-data Geological Wellsite Services GmbH.
#Parts or all of this file may be confidential.
#
# This is a "LAS" file containing logging data in ascii form.
#
 VERS.        2.0             :CWLS LOG ASCII STANDARD - VERSION 2.0
 WRAP.        NO              :Single line per depth step
~WELL INFORMATION
#MNEM.UNIT        DATA              DESCRIPTION OF MNEMONIC
#---------    -------------         ------------------------
 STRT.M       193.00          :Start DEPTH
 STOP.M       2445.00         :End DEPTH
 STEP.M       1.00            :DEPTH step
 NULL.        -999.25         :NULL VALUE
 COMP.        CLG             :COMPANY
 WELL.        Cal-GT-05       :WELL
 FLD .        Californie      :FIELD
 LOC .        Californie      :LOCATION
 PROV.        <no data>       :PROVINCE
 CNTY.        <no data>       :COUNTY
 STAT.        Niederlande     :STATE
 CTRY.        Niederlande     :COUNTRY
 SRVC.        GeoService      :SERVICE COMPANY
 DATE.        19.04.2016      :DATE
 UWI .        {32CBF15E-C69E-4316-ABD5-8F1549ADA7B1}:UNIQUE WELL ID
 API .        <no data>       :API NUMBER
 LBEG.        No ID entered   :(LBEG) well code
~CURVE INFORMATION
#MNEM.UNIT      API CODE      CURVE DESCRIPTION
#---------    -------------   ------------------------------
 DEPTH.M                      :depth
 ROP .MINPERM                 :rop
 WOB .TONF                    :wob
 HOOKLOAD.TONF                :hookload
 RPM_BIT.RPM                  :rpm_bit
 RPM_STRING.RPM               :rpm_string
 TORQUE.DANM                  :torque
 PUMP_PRESSURE.BAR            :pump_pressure
 FLOW_IN.LPERMIN              :flow_in
 FLOW_OUT.LPERMIN             :flow_out
 C1  .VOLPERCENT              :c1
 C2  .VOLPERCENT              :c2
 C3  .VOLPERCENT              :c3
 IC4 .VOLPERCENT              :ic4
 NC4 .VOLPERCENT              :nc4
 IC5 .VOLPERCENT              :ic5
 NC5 .VOLPERCENT              :nc5
 C_TOTAL.VOLPERCENT           :c_total
 LAGTIME.MIN                  :lagtime
 MUDWEIGHT_IN.KGPERL          :mudweight_in
 MUDWEIGHT_OUT.KGPERL         :mudweight_out
 TEMP_IN.DEGRC                :temp_in
 TEMP_OUT.DEGRC               :temp_out
 CO2 .VOLPERCENT              :co2
 H2S_RIGFLOOR.PPM             :h2s_rigfloor
 H2S_PITS.PPM                 :h2s_pits
 H2S_SHAKERS.PPM              :h2s_shakers
 POREPRESSGRD.KGPERL          :porepressgrd
 ECD .KGPERL                  :ecd
 D_EXPONENT.NOUNIT            :d_exponent
 DC_EXPONENT.NOUNIT           :dc_exponent
 SIGMA.NOUNIT                 :sigma
 CTOOTH.NOUNIT                :ctooth
 CBEARING.NOUNIT              :cbearing
 REVS_BIT_TOTAL.NOUNIT        :revs_bit_total
 BIT_HOURS.HR                 :bit_hours
 CLOCKDATE.                   :Date/Time
~PARAMETER INFORMATION
#MNEM.UNIT        VALUE       DESCRIPTION OF MNEMONIC
#---------    -------------   ------------------------------
~OTHER INFORMATION
~ASCII Log data section
# ...
  643.00    2.65    1.97   58.26  306.32   39.74   320.45  149.88  3808.28    0.00    0.0000    0.0000    0.0000    0.0000    0.0000    0.0000    0.0000    0.0053   31.86    1.13    1.13   42.48   41.42    0.000    0.00    0.00    0.00    1.030    1.15    0.916    0.821    0.343    2.16    0.59  465911.00   34.87  20160209.052902
  644.00    2.11    3.17   55.91  266.86    0.20    55.78  149.67  3809.45    0.00    0.0000    0.0000    0.0000    0.0000    0.0000    0.0000    0.0000    0.0047   31.91    1.13    1.13   42.43   41.63    0.000    0.00    0.00    0.00    1.030    1.15    0.986    0.883    0.380    2.17    0.59  466476.00   34.90  20160209.053109
  645.00    1.99    2.33   57.38  266.75    0.09    11.45  149.57  3809.38    0.00    0.0000    0.0000    0.0000    0.0000    0.0000    0.0000    0.0000    0.0044   31.94    1.13    1.13   42.38   41.68    0.000    0.00    0.00    0.00    1.030    1.15    0.887    0.795    0.342    2.17    0.59  467005.00   34.93  20160209.053308
  646.00    2.04    2.59   57.29  266.84    0.16    36.38  149.85  3809.59    0.00    0.0000    0.0000    0.0000    0.0000    0.0000    0.0000    0.0000    0.0040   31.99    1.13    1.13   42.39   41.71    0.000    0.00    0.00    0.00    1.030    1.15    0.921    0.826    0.355    2.17    0.59  467552.00   34.97  20160209.053511
  647.00    2.04    2.60   55.83  266.77    0.09    19.14  150.96  3809.73    0.00    0.0000    0.0000    0.0000    0.0000    0.0000    0.0000    0.0000    0.0038   32.03    1.13    1.13   42.42   41.75 -999.250    0.00    0.00    0.00    1.030    1.15    0.921    0.825    0.356    2.17    0.59  468094.00   35.00  20160209.053713
  648.00    2.07    2.75   55.67  266.80    0.13    68.87  151.58  3809.56    0.00    0.0000    0.0000    0.0000    0.0000    0.0000    0.0000    0.0000    0.0037   32.09    1.13    1.13   42.47   41.75 -999.250    0.00    0.00    0.00    1.030    1.15    0.933    0.835    0.361    2.18    0.59  468646.00   35.04  20160209.053917
  649.00    2.15    3.01   55.58  266.74    0.09    91.57  152.83  3809.31    0.00    0.0000    0.0000    0.0000    0.0000    0.0000    0.0000    0.0000    0.0037   32.13    1.14    1.13   42.37   41.77    0.000    0.00    0.00    0.00    1.030    1.15    0.958    0.858    0.370    2.18    0.59  469219.00   35.07  20160209.054126
  650.00    2.30    3.33   55.42  266.74    0.08    26.35  153.53  3809.42    0.00    0.0000    0.0000    0.0000    0.0000    0.0000    0.0000    0.0000    0.0035   32.18    1.14    1.13   42.58   41.77    0.000    0.00    0.00    0.00    1.030    1.15    0.981    0.878    0.381    2.18    0.59  469833.00   35.11  20160209.054344
  651.00    2.26    2.90   55.98  266.77    0.09    30.00  151.53  3809.72    0.00    0.0000    0.0000    0.0000    0.0000    0.0000    0.0000    0.0000    0.0036   32.21    1.13    1.14   42.57   41.58    0.000    0.00    0.00    0.00    1.030    1.15    0.965    0.865    0.371    2.19    0.59  470433.00   35.15  20160209.054559
  652.00    2.17    2.61   55.91  266.77    0.09    30.00  151.06  3809.74    0.00    0.0000    0.0000    0.0000    0.0000    0.0000    0.0000    0.0000    0.0034   32.26    1.14    1.13   42.59   41.44    0.001    0.00    0.00    0.00    1.030    1.15    0.929    0.832    0.357    2.19    0.59  471015.00   35.19  20160209.054810
  653.00    2.39    3.36   55.66  266.77    0.09    63.21  151.50  3809.81    0.00    0.0000    0.0000    0.0000    0.0000    0.0000    0.0000    0.0000    0.0036   32.30    1.13    1.14   42.64   41.38    0.000    0.00    0.00    0.00    1.030    1.15    0.998    0.894    0.385    2.19    0.59  471651.00   35.22  20160209.055033
  654.00    2.14    2.50   56.02  266.79    0.09    24.82  152.32  3810.08    0.00    0.0000    0.0000    0.0000    0.0000    0.0000    0.0000    0.0000    0.0037   32.34    1.14    1.14   42.49   41.35    0.000    0.00    0.00    0.00    1.030    1.15    0.926    0.830    0.355    2.19    0.59  472225.00   35.26  20160209.055242
  655.00    2.76    3.54   56.58  270.24    3.53    54.97  159.94  3810.12    0.00    0.0000    0.0000    0.0000    0.0000    0.0000    0.0000    0.0000    0.0040   32.39    1.14    1.14   42.40   41.35    0.000    0.00    0.00    0.00    1.030    1.15    0.986    0.882    0.384    2.20    0.59  472978.00   35.31  20160209.055631
  656.00    2.81    8.37   51.75  315.48   48.84   580.20  163.42  3809.09    0.00    0.0000    0.0000    0.0000    0.0000    0.0000    0.0000    0.0000    0.0044   32.44    1.14    1.14   42.23   41.36    0.000    0.00    0.00    0.00    1.030    1.15    1.298    1.163    0.526    2.20    0.59  473861.00   35.35  20160209.055919
  657.00    3.02    8.89   51.45  315.64   48.84   574.52  163.41  3811.38    0.00    0.0000    0.0000    0.0000    0.0000    0.0000    0.0000    0.0000    0.0040   32.46    1.14    1.14   42.49   41.45    0.000    0.00    0.00    0.00    1.030    1.15    1.311    1.174    0.534    2.21    0.60  474813.00   35.40  20160209.060220
  658.00    4.30    8.61   55.17  309.34   42.45   516.64  159.66  3812.72    0.00    0.0000    0.0000    0.0000    0.0000    0.0000    0.0000    0.0000    0.0039   32.49    1.14    1.14   42.49   41.54    0.000    0.00    0.00    0.00    1.030    1.15    1.319    1.182    0.536    2.22    0.60  476124.00   35.48  20160209.061129
  659.00    4.33    7.99   51.64  266.20    0.11   145.32  161.72  3801.26    0.00    0.0000    0.0000    0.0000    0.0000    0.0000    0.0000    0.0000    0.0037   32.67    1.15    1.14   42.79   41.81    0.000    0.00    0.00    0.00    1.030    1.15    1.355    1.214    0.544    2.23    0.60  477278.00   35.55  20160209.061549
  660.00    3.58    8.84   49.90  266.07    0.09   178.77  157.17  3799.80    0.00    0.0000    0.0000    0.0000    0.0000    0.0000    0.0000    0.0000    0.0036   32.69    1.15    1.14   42.73   42.06 -999.250    0.00    0.00    0.00    1.030    1.15    1.312    1.175    0.534    2.23    0.60  478231.00   35.61  20160209.061924
  661.00    3.43    8.62   50.43  266.16    0.09   179.00  155.68  3800.98    0.00    0.0000    0.0000    0.0000    0.0000    0.0000    0.0000    0.0000    0.0036   32.73    1.15    1.14   42.68   42.30 -999.250    0.00    0.00    0.00    1.030    1.15    1.303    1.167    0.529    2.24    0.60  479145.00   35.66  20160209.062250
  662.00    3.15    8.17   50.48  266.02    0.09   178.93  154.10  3799.05    0.00    0.0000    0.0000    0.0000    0.0000    0.0000    0.0000    0.0000    0.0034   32.77    1.15    1.14   42.55   42.45 -999.250    0.00    0.00    0.00    1.030    1.15    1.258    1.126    0.510    2.25    0.61  479983.00   35.72  20160209.062559
  663.00    3.22    8.21   50.75  266.09    0.10   223.85  154.23  3799.83    0.00    0.0000    0.0000    0.0000    0.0000    0.0000    0.0000    0.0000    0.0033   32.82    1.15    1.14   42.51   42.52 -999.250    0.00    0.00    0.00    1.030    1.15    1.271    1.139    0.516    2.25    0.61  480839.00   35.77  20160209.062912
  664.00    3.27    8.28   50.64  266.05    0.08   230.00  154.73  3799.52    0.00    0.0000    0.0000    0.0000    0.0000    0.0000    0.0000    0.0000    0.0013   32.87    1.15    1.14   42.60   42.13    0.008    0.00    0.00    0.00    1.030    1.15    1.267    1.135    0.515    2.25    0.61  481708.00   35.83  20160209.063228
  665.00    3.87    8.86   50.33  265.87    0.09   230.00  155.88  3796.86    0.00    0.0000    0.0000    0.0000    0.0000    0.0000    0.0000    0.0000    0.0000   32.95    1.16    1.14   42.76   42.03    0.000    0.00    0.00    0.00    1.030    1.15    1.329    1.190    0.541    2.26    0.61  482736.00   35.89  20160209.063620
  666.00    4.08    9.14   49.79  265.82    0.09   230.00  156.99  3796.23    0.00    0.0000    0.0000    0.0000    0.0000    0.0000    0.0000    0.0000    0.0000   32.97    1.15    1.13   43.22   41.89    0.000    0.00    0.00    0.00    1.030    1.15    1.347    1.207    0.549    2.27    0.61  483821.00   35.96  20160209.064025
  667.00    4.28    9.38   49.25  265.88    0.09   230.00  153.67  3797.00    0.00    0.0000    0.0000    0.0000    0.0000    0.0000    0.0000    0.0000    0.0000   33.03    1.15    1.13   43.49   41.73    0.000    0.00    0.00    0.00    1.030    1.15    1.371    1.228    0.560    2.27    0.61  484960.00   36.03  20160209.064442
