~VERSION INFORMATION
#
#File created by GEO-data Geological Wellsite Services GmbH.
#Parts or all of this file may be confidential.
#
# This is a "LAS" file containing logging data in ascii form.
#
 VERS.        2.0             :CWLS LOG ASCII STANDARD - VERSION 2.0
 WRAP.        NO              :Single line per depth step
~WELL INFORMATION
#MNEM.UNIT        DATA              DESCRIPTION OF MNEMONIC
#---------    -------------         ------------------------
 STRT.M       193.00          :Start DEPTH
 STOP.M       2445.00         :End DEPTH
 STEP.M       1.00            :DEPTH step
 NULL.        -999.25         :NULL VALUE
 COMP.        CLG             :COMPANY
 WELL.        Cal-GT-05       :WELL
 FLD .        Californie      :FIELD
 LOC .        Californie      :LOCATION
 PROV.        <no data>       :PROVINCE
 CNTY.        <no data>       :COUNTY
 STAT.        Niederlande     :STATE
 CTRY.        Niederlande     :COUNTRY
 SRVC.        GeoService      :SERVICE COMPANY
 DATE.        19.04.2016      :DATE
 UWI .        {32CBF15E-C69E-4316-ABD5-8F1549ADA7B1}:UNIQUE WELL ID
 API .        <no data>       :API NUMBER
 LBEG.        No ID entered   :(LBEG) well code
~CURVE INFORMATION
#MNEM.UNIT      API CODE      CURVE DESCRIPTION
#---------    -------------   ------------------------------
 DEPTH.M                      :depth
 ROP .MINPERM                 :rop
 WOB .TONF                    :wob
 HOOKLOAD.TONF                :hookload
 RPM_BIT.RPM                  :rpm_bit
 RPM_STRING.RPM               :rpm_string
 TORQUE.DANM                  :torque
 PUMP_PRESSURE.BAR            :pump_pressure
 FLOW_IN.LPERMIN              :flow_in
 FLOW_OUT.LPERMIN             :flow_out
 C1  .VOLPERCENT              :c1
 C2  .VOLPERCENT              :c2
 C3  .VOLPERCENT              :c3
 IC4 .VOLPERCENT              :ic4
 NC4 .VOLPERCENT              :nc4
 IC5 .VOLPERCENT              :ic5
 NC5 .VOLPERCENT              :nc5
 C_TOTAL.VOLPERCENT           :c_total
 LAGTIME.MIN                  :lagtime
 MUDWEIGHT_IN.KGPERL          :mudweight_in
 MUDWEIGHT_OUT.KGPERL         :mudweight_out
 TEMP_IN.DEGRC                :temp_in
 TEMP_OUT.DEGRC               :temp_out
 CO2 .VOLPERCENT              :co2
 H2S_RIGFLOOR.PPM             :h2s_rigfloor
 H2S_PITS.PPM                 :h2s_pits
 H2S_SHAKERS.PPM              :h2s_shakers
 POREPRESSGRD.KGPERL          :porepressgrd
 ECD .KGPERL                  :ecd
 D_EXPONENT.NOUNIT            :d_exponent
 DC_EXPONENT.NOUNIT           :dc_exponent
 SIGMA.NOUNIT                 :sigma
 CTOOTH.NOUNIT                :ctooth
 CBEARING.NOUNIT              :cbearing
 REVS_BIT_TOTAL.NOUNIT        :revs_bit_total
 BIT_HOURS.HR                 :bit_hours
 CLOCKDATE.                   :Date/Time
~PARAMETER INFORMATION
#MNEM.UNIT        VALUE       DESCRIPTION OF MNEMONIC
#---------    -------------   ------------------------------
~OTHER INFORMATION
~ASCII Log data section
# ...
 1368.00    4.07    5.41   56.95  121.05  121.05  1468.47  101.91  2576.09    0.00    0.0000    0.0000    0.0000    0.0000    0.0000    0.0000    0.0000    0.0566   36.01    1.13    1.12   51.04   49.89    0.000    0.00    0.00    0.00    1.030    1.15    1.072    0.960    0.499    1.64    0.94  456909.00   71.53  20160218.095932
 1369.00    3.68    5.12   56.79  121.04  121.04  1520.03  102.14  2578.99    0.00    0.0000    0.0000    0.0000    0.0000    0.0000    0.0000    0.0000    0.0595   36.03    1.14    1.12   51.03   49.90    0.000    0.00    0.00    0.00    1.030    1.15    1.117    1.001    0.511    1.65    0.94  457355.00   71.59  20160218.100313
 1370.00    4.28    5.28   56.48  121.05  121.05  1464.96  101.74  2578.97    0.00    0.0000    0.0000    0.0000    0.0000    0.0000    0.0000    0.0000    0.0630   36.06    1.14    1.12   50.94   49.89    0.000    0.00    0.00    0.00    1.030    1.15    1.123    1.006    0.515    1.65    0.94  457874.00   71.66  20160218.100730
 1371.00    3.43    5.31   56.67  121.06  121.06  1555.46  101.78  2578.91    0.00    0.0000    0.0000    0.0000    0.0000    0.0000    0.0000    0.0000    0.0649   36.08    1.13    1.12   50.99   49.88    0.000    0.00    0.00    0.00    1.030    1.15    1.087    0.974    0.502    1.65    0.95  458289.00   71.72  20160218.101056
 1372.00   13.67    5.69   56.27  121.05  121.05  1481.57  101.66  2579.00    0.00    0.0000    0.0000    0.0000    0.0000    0.0000    0.0000    0.0000    0.0680   36.12    1.14    1.12   50.97   49.85    0.000    0.00    0.00    0.00    1.030    1.15    1.223    1.095    0.565    1.65    0.95  459944.00   71.94  20160218.102436
 1373.00   16.73    5.41   57.06  121.06  121.06  1425.30  102.38  2578.92    0.00    0.0000    0.0000    0.0000    0.0000    0.0000    0.0000    0.0000    0.0666   36.15    1.14    1.12   50.99   49.77    0.000    0.00    0.00    0.00    1.030    1.15    1.464    1.312    0.672    1.66    0.95  461969.00   72.22  20160218.104120
 1374.00   10.05    6.10   56.64  121.06  121.06  1416.33  102.09  2578.89    0.00    0.0000    0.0000    0.0000    0.0000    0.0000    0.0000    0.0000    0.0389   36.18    1.14    1.12   50.95   49.60    0.000    0.00    0.00    0.00    1.030    1.15    1.270    1.137    0.588    1.66    0.95  463186.00   72.39  20160218.105123
 1375.00   13.08    5.21   57.33  121.07  121.07  1328.68  101.63  2579.12    0.00    0.0000    0.0000    0.0000    0.0000    0.0000    0.0000    0.0000    0.0511   36.19    1.14    1.12   50.85   49.68    0.000    0.00    0.00    0.00    1.030    1.15    1.337    1.198    0.600    1.67    0.96  464770.00   72.61  20160218.110428
 1376.00    7.41    6.48   57.09  121.06  121.06  1470.60  101.74  2573.85    0.00    0.0000    0.0000    0.0000    0.0000    0.0000    0.0000    0.0000    0.0557   36.31    1.14    1.12   50.90   49.67    0.000    0.00    0.00    0.00    1.030    1.15    1.355    1.215    0.627    1.67    0.96  465668.00   72.73  20160218.111153
 1377.00    5.41    5.05   57.98  112.88  112.88  1453.79  100.72  2566.50    0.00    0.0000    0.0000    0.0000    0.0000    0.0000    0.0000    0.0000    0.0563   36.53    1.14    1.12   51.03   49.62    0.000    0.00    0.00    0.00    1.030    1.15    1.115    0.999    0.508    1.68    0.96  466264.00   72.82  20160218.112958
 1378.00    6.12    5.44   56.83  111.72  111.72  1376.76  100.44  2559.89    0.00    0.0000    0.0000    0.0000    0.0000    0.0000    0.0000    0.0000    0.0524   36.55    1.14    1.12   50.91   49.57    0.000    0.00    0.00    0.00    1.030    1.15    1.177    1.054    0.536    1.68    0.96  466947.00   72.92  20160218.113605
 1379.00    7.62    4.99   57.24  111.72  111.72  1379.32  112.52  2704.81    0.00    0.0000    0.0000    0.0000    0.0000    0.0000    0.0000    0.0000    0.0612   34.28    1.14    1.12   50.81   49.54    0.000    0.00    0.00    0.00    1.030    1.15    1.215    1.089    0.547    1.68    0.96  467798.00   73.05  20160218.114342
 1380.00    7.45    5.10   57.36  111.73  111.73  1385.34  111.68  2726.49    0.00    0.0000    0.0000    0.0000    0.0000    0.0000    0.0000    0.0000    0.0642   34.41    1.13    1.11   50.92   49.57    0.000    0.00    0.00    0.00    1.030    1.15    1.201    1.075    0.542    1.68    0.96  468631.00   73.17  20160218.115109
 1381.00   19.35    5.45   56.60  115.42  115.42  1355.67   98.18  2665.96    0.00    0.0000    0.0000    0.0000    0.0000    0.0000    0.0000    0.0000    0.0765   37.22    1.13    1.12   50.85   49.83    0.000    0.00    0.00    0.00    1.030    1.15    1.261    1.129    0.575    1.69    0.97  470913.00   73.50  20160218.121030
 1382.00   18.38    7.98   55.05  119.53  119.53  1316.52  132.06  2650.40    0.00    0.0000    0.0000    0.0000    0.0000    0.0000    0.0000    0.0000    0.0686   31.06    1.14    1.11   50.54   49.85    0.000    0.00    0.00    0.00    1.030    1.15    1.634    1.464    0.788    1.70    0.97  473111.00   73.80  20160218.122853
 1383.00   13.08    8.93   54.69  123.84  123.84  1500.14   98.48  2960.23    0.00    0.0000    0.0000    0.0000    0.0000    0.0000    0.0000    0.0000    0.0633   37.14    1.14    1.11   50.74   49.98    0.000    0.00    0.00    0.00    1.030    1.15    1.566    1.403    0.753    1.71    0.98  474728.00   74.02  20160218.124158
 1384.00    2.98    7.18   54.85  124.16  124.16  1746.26   98.45  2529.80    0.00    0.0000    0.0000    0.0000    0.0000    0.0000    0.0000    0.0000    0.0610   37.17    1.14    1.12   50.83   50.11 -999.250    0.00    0.00    0.00    1.030    1.15    1.191    1.068    0.563    1.71    0.98  475098.00   74.07  20160218.124457
 1385.00    2.30    7.24   54.40  124.19  124.19  1682.05   98.97  2529.33    0.00    0.0000    0.0000    0.0000    0.0000    0.0000    0.0000    0.0000    0.0175   37.21    1.14    1.12   50.89   49.50 -999.250    0.00    0.00    0.00    1.030    1.15    1.076    0.964    0.521    1.71    0.98  475386.00   74.11  20160218.124716
 1386.00    2.38    8.00   54.04  124.20  124.20  1642.75  130.87  2790.27    0.00    0.0000    0.0000    0.0000    0.0000    0.0000    0.0000    0.0000    0.0216   31.70    1.14    1.12   50.90   49.45    0.000    0.00    0.00    0.00    1.030    1.15    1.101    0.986    0.537    1.71    0.98  475680.00   74.15  20160218.124938
 1387.00    3.24    7.69   55.10  124.16  124.16  1724.90  130.14  2972.98    0.00    0.0000    0.0000    0.0000    0.0000    0.0000    0.0000    0.0000    0.0301   31.71    1.14    1.12   50.83   49.86    0.001    0.00    0.00    0.00    1.030    1.15    1.135    1.018    0.548    1.71    0.98  476081.00   74.20  20160218.125252
 1388.00    3.25    8.24   55.42  123.99  123.99  1742.39  129.95  2973.78    0.00    0.0000    0.0000    0.0000    0.0000    0.0000    0.0000    0.0000    0.0447   31.73    1.14    1.12   50.83   50.00    0.003    0.00    0.00    0.00    1.030    1.15    1.172    1.050    0.565    1.71    0.98  476486.00   74.26  20160218.125608
 1389.00    2.45    7.92   53.55  124.04  124.04  1819.97  130.19  2973.97    0.00    0.0000    0.0000    0.0000    0.0000    0.0000    0.0000    0.0000    0.0534   31.77    1.14    1.12   50.79   50.07    0.000    0.00    0.00    0.00    1.030    1.15    1.138    1.020    0.550    1.72    0.98  476790.00   74.30  20160218.125835
 1390.00    2.33    7.93   53.52  124.20  124.20  1766.35  131.32  2974.00    0.00    0.0000    0.0000    0.0000    0.0000    0.0000    0.0000    0.0000    0.0614   31.77    1.14    1.12   50.82   50.12    0.000    0.00    0.00    0.00    1.030    1.15    1.101    0.987    0.537    1.72    0.98  477080.00   74.34  20160218.130055
 1391.00   14.66    8.80   58.44  118.95  118.95  1528.45  131.78  2988.75    0.00    0.0000    0.0000    0.0000    0.0000    0.0000    0.0000    0.0000    0.0735   31.54    1.14    1.12   51.24   50.13    0.000    0.00    0.00    0.00    1.030    1.15    1.499    1.344    0.725    1.72    0.99  478786.00   74.58  20160218.133417
 1392.00    4.00    9.02   54.48  121.36  121.36  1772.05  126.88  2998.86    0.00    0.0000    0.0000    0.0000    0.0000    0.0000    0.0000    0.0000    0.0718   31.56    1.14    1.12   51.44   50.15    0.001    0.00    0.00    0.00    1.030    1.15    1.206    1.080    0.588    1.72    0.99  479271.00   74.65  20160218.133817
