~VERSION INFORMATION
#
#File created by GEO-data Geological Wellsite Services GmbH.
#Parts or all of this file may be confidential.
#
# This is a "LAS" file containing logging data in ascii form.
#
 VERS.        2.0             :CWLS LOG ASCII STANDARD - VERSION 2.0
 WRAP.        NO              :Single line per depth step
~WELL INFORMATION
#MNEM.UNIT        DATA              DESCRIPTION OF MNEMONIC
#---------    -------------         ------------------------
 STRT.M       193.00          :Start DEPTH
 STOP.M       2445.00         :End DEPTH
 STEP.M       1.00            :DEPTH step
 NULL.        -999.25         :NULL VALUE
 COMP.        CLG             :COMPANY
 WELL.        Cal-GT-05       :WELL
 FLD .        Californie      :FIELD
 LOC .        Californie      :LOCATION
 PROV.        <no data>       :PROVINCE
 CNTY.        <no data>       :COUNTY
 STAT.        Niederlande     :STATE
 CTRY.        Niederlande     :COUNTRY
 SRVC.        GeoService      :SERVICE COMPANY
 DATE.        19.04.2016      :DATE
 UWI .        {32CBF15E-C69E-4316-ABD5-8F1549ADA7B1}:UNIQUE WELL ID
 API .        <no data>       :API NUMBER
 LBEG.        No ID entered   :(LBEG) well code
~CURVE INFORMATION
#MNEM.UNIT      API CODE      CURVE DESCRIPTION
#---------    -------------   ------------------------------
 DEPTH.M                      :depth
 ROP .MINPERM                 :rop
 WOB .TONF                    :wob
 HOOKLOAD.TONF                :hookload
 RPM_BIT.RPM                  :rpm_bit
 RPM_STRING.RPM               :rpm_string
 TORQUE.DANM                  :torque
 PUMP_PRESSURE.BAR            :pump_pressure
 FLOW_IN.LPERMIN              :flow_in
 FLOW_OUT.LPERMIN             :flow_out
 C1  .VOLPERCENT              :c1
 C2  .VOLPERCENT              :c2
 C3  .VOLPERCENT              :c3
 IC4 .VOLPERCENT              :ic4
 NC4 .VOLPERCENT              :nc4
 IC5 .VOLPERCENT              :ic5
 NC5 .VOLPERCENT              :nc5
 C_TOTAL.VOLPERCENT           :c_total
 LAGTIME.MIN                  :lagtime
 MUDWEIGHT_IN.KGPERL          :mudweight_in
 MUDWEIGHT_OUT.KGPERL         :mudweight_out
 TEMP_IN.DEGRC                :temp_in
 TEMP_OUT.DEGRC               :temp_out
 CO2 .VOLPERCENT              :co2
 H2S_RIGFLOOR.PPM             :h2s_rigfloor
 H2S_PITS.PPM                 :h2s_pits
 H2S_SHAKERS.PPM              :h2s_shakers
 POREPRESSGRD.KGPERL          :porepressgrd
 ECD .KGPERL                  :ecd
 D_EXPONENT.NOUNIT            :d_exponent
 DC_EXPONENT.NOUNIT           :dc_exponent
 SIGMA.NOUNIT                 :sigma
 CTOOTH.NOUNIT                :ctooth
 CBEARING.NOUNIT              :cbearing
 REVS_BIT_TOTAL.NOUNIT        :revs_bit_total
 BIT_HOURS.HR                 :bit_hours
 CLOCKDATE.                   :Date/Time
~PARAMETER INFORMATION
#MNEM.UNIT        VALUE       DESCRIPTION OF MNEMONIC
#---------    -------------   ------------------------------
~OTHER INFORMATION
~ASCII Log data section
# ...
 2118.00    8.95   13.84   62.48  193.79   30.36  1619.52   95.40  2208.52    0.00    0.0000    0.0000    0.0000    0.0000    0.0000    0.0000    0.0000    0.0300   37.99    1.10    1.09   35.82   35.73    0.007    0.00    0.00    0.00    1.030    1.15    1.983    1.776    1.203    0.34    0.32   40138.00    3.72  20160314.033943
 2119.00    9.05   15.07   59.56  193.84   30.36  1595.37   95.22  2209.26    0.00    0.0000    0.0000    0.0000    0.0000    0.0000    0.0000    0.0000    0.0320   37.97    1.10    1.10   36.75   36.10    0.006    0.00    0.00    0.00    1.030    1.15    2.042    1.829    1.249    0.36    0.33   41892.00    3.87  20160314.034846
 2120.00    8.98   15.05   59.48  193.84   30.36  1589.17   94.84  2209.27    0.00    0.0000    0.0000    0.0000    0.0000    0.0000    0.0000    0.0000    0.0260   38.01    1.10    1.09   37.24   36.40    0.032    0.00    0.00    0.00    1.030    1.15    2.043    1.830    1.251    0.38    0.34   43634.00    4.02  20160314.035745
 2121.00    9.83   15.24   59.34  193.81   30.36  1594.57   94.43  2208.84    0.00    0.0000    0.0000    0.0000    0.0000    0.0000    0.0000    0.0000    0.0220   38.12    1.10    1.09   37.19   36.67    0.016    0.00    0.00    0.00    1.030    1.15    2.104    1.885    1.300    0.40    0.36   45540.00    4.18  20160314.040735
 2122.00    8.30   14.09   62.17  195.24   32.16  1643.04   93.76  2203.74    0.00    0.0000    0.0000    0.0000    0.0000    0.0000    0.0000    0.0000    0.0180   38.12    1.10    1.09   37.35   36.87    0.023    0.00    0.00    0.00    1.030    1.15    1.987    1.780    1.206    0.41    0.37   47160.00    4.32  20160314.041553
 2123.00    7.05   13.02   61.71  198.06   34.95  1674.58   93.20  2204.25    0.00    0.0000    0.0000    0.0000    0.0000    0.0000    0.0000    0.0000    0.0200   38.13    1.10    1.09   37.42   37.04    0.000    0.00    0.00    0.00    1.030    1.15    1.888    1.691    1.129    0.43    0.38   48557.00    4.44  20160314.042256
 2124.00    6.90   12.97   61.32  198.03   34.89  1681.74   93.61  2204.59    0.00    0.0000    0.0000    0.0000    0.0000    0.0000    0.0000    0.0000    0.0230   38.13    1.10    1.10   37.64   37.18 -999.250    0.00    0.00    0.00    1.030    1.15    1.876    1.680    1.119    0.44    0.39   49923.00    4.55  20160314.042950
 2125.00    9.67   13.69   60.70  198.08   34.88  1649.87   93.96  2205.34    0.00    0.0000    0.0000    0.0000    0.0000    0.0000    0.0000    0.0000    0.0200   38.15    1.10    1.09   37.76   37.35    0.014    0.00    0.00    0.00    1.030    1.15    1.998    1.790    1.215    0.45    0.40   51838.00    4.71  20160314.043930
 2126.00   11.95   12.52   63.40  191.36   28.24  1336.82   91.42  2204.31    0.00    0.0000    0.0000    0.0000    0.0000    0.0000    0.0000    0.0000    0.0140   38.13    1.10    1.09   38.04   37.67    0.009    0.00    0.00    0.00    1.030    1.15    2.015    1.806    1.227    0.47    0.42   54212.00    4.92  20160314.051402
 2127.00    8.25   13.24   53.98  163.22    0.10    49.56   94.09  2204.43    0.00    0.0000    0.0000    0.0000    0.0000    0.0000    0.0000    0.0000    0.0080   38.17    1.10    1.09   38.75   38.27    0.009    0.00    0.00    0.00    1.030    1.15    1.827    1.635    1.089    0.49    0.43   55559.00    5.05  20160314.052217
 2128.00   13.65   14.28   49.84  163.26    0.09    71.30   93.00  2205.00    0.00    0.0000    0.0000    0.0000    0.0000    0.0000    0.0000    0.0000    0.0058   38.14    1.10    1.09   38.92   38.48    0.004    0.00    0.00    0.00    1.030    1.15    2.051    1.837    1.258    0.50    0.44   57787.00    5.28  20160314.053556
 2129.00   16.69   14.47   49.54  163.36    0.09    71.29   91.94  2206.33    0.00    0.0000    0.0000    0.0000    0.0000    0.0000    0.0000    0.0000    0.0000   38.17    1.10    1.09   39.23   38.76    0.003    0.00    0.00    0.00    1.030    1.15    2.167    1.941    1.358    0.53    0.46   60513.00    5.56  20160314.055237
 2130.00   13.03   14.14   50.08  163.41    0.09    71.33   92.86  2207.12    0.00    0.0000    0.0000    0.0000    0.0000    0.0000    0.0000    0.0000    0.0049   38.15    1.09    1.09   39.47   39.02 -999.250    0.00    0.00    0.00    1.030    1.15    2.103    1.884    1.302    0.55    0.48   62643.00    5.78  20160314.060539
 2131.00   11.48   13.96   49.95  163.43    0.09    71.30   93.34  2207.27    0.00    0.0000    0.0000    0.0000    0.0000    0.0000    0.0000    0.0000    0.0000   38.19    1.10    1.09   39.59   39.11    0.044    0.00    0.00    0.00    1.030    1.15    2.013    1.803    1.227    0.56    0.50   64519.00    5.97  20160314.061708
 2132.00   12.60   13.71   62.58  170.53    7.46   427.65   91.73  2203.67    0.00    0.0000    0.0000    0.0000    0.0000    0.0000    0.0000    0.0000    0.0000   38.50    1.10    1.09   39.97   39.41    0.030    0.00    0.00    0.00    1.030    1.15    2.059    1.844    1.265    0.58    0.51   66654.00    6.18  20160314.065556
 2133.00   12.87   12.71   62.14  195.30   33.33  1686.80   92.75  2188.82    0.00    0.0000    0.0000    0.0000    0.0000    0.0000    0.0000    0.0000    0.0000   38.53    1.09    1.09   40.52   39.92    0.024    0.00    0.00    0.00    1.030    1.15    2.044    1.830    1.253    0.60    0.53   69167.00    6.39  20160314.070848
 2134.00   11.25   12.59   62.11  195.16   33.31  1671.80   93.72  2187.20    0.00    0.0000    0.0000    0.0000    0.0000    0.0000    0.0000    0.0000    0.0000   38.58    1.09    1.09   40.64   40.15    0.023    0.00    0.00    0.00    1.030    1.15    2.003    1.794    1.219    0.62    0.54   71346.00    6.58  20160314.072037
 2135.00   15.23   12.96   61.61  195.23   33.31  1642.78   93.16  2188.11    0.00    0.0000    0.0000    0.0000    0.0000    0.0000    0.0000    0.0000    0.0000   38.54    1.09    1.09   40.89   40.38    0.027    0.00    0.00    0.00    1.030    1.15    2.105    1.886    1.307    0.63    0.56   74320.00    6.83  20160314.073551
 2136.00   16.32   13.03   61.46  195.25   33.30  1675.27   92.99  2188.39    0.00    0.0000    0.0000    0.0000    0.0000    0.0000    0.0000    0.0000    0.0000   38.62    1.09    1.09   41.08   40.64    0.043    0.00    0.00    0.00    1.030    1.15    2.153    1.928    1.349    0.66    0.58   77506.00    7.10  20160314.075210
 2137.00   14.84   12.91   61.79  195.23   33.30  1679.72   94.11  2188.25    0.00    0.0000    0.0000    0.0000    0.0000    0.0000    0.0000    0.0000    0.0122   38.57    1.09    1.09   41.39   40.85    0.078    0.00    0.00    0.00    1.030    1.15    2.115    1.894    1.315    0.68    0.60   80386.00    7.35  20160314.080655
 2138.00   11.00   12.51   61.99  195.21   33.30  1710.40   94.04  2188.09    0.00    0.0000    0.0000    0.0000    0.0000    0.0000    0.0000    0.0000    0.0131   38.59    1.09    1.09   41.61   41.00    0.133    0.00    0.00    0.00    1.030    1.15    1.999    1.791    1.216    0.70    0.61   82533.00    7.53  20160314.081755
 2139.00   12.63   12.62   62.33  195.26   33.29  1704.60   92.77  2188.82    0.00    0.0000    0.0000    0.0000    0.0000    0.0000    0.0000    0.0000    0.0137   38.59    1.09    1.09   41.72   41.15    0.132    0.00    0.00    0.00    1.030    1.15    2.013    1.803    1.229    0.72    0.63   85000.00    7.74  20160314.083033
 2140.00   15.00   12.91   61.85  195.21   33.29  1730.02   92.88  2188.14    0.00    0.0000    0.0000    0.0000    0.0000    0.0000    0.0000    0.0000    0.0134   38.66    1.09    1.09   41.92   41.34    0.127    0.00    0.00    0.00    1.030    1.15    2.123    1.901    1.323    0.74    0.65   87929.00    7.99  20160314.084533
 2141.00   11.72   12.63   62.01  195.09   33.29  1730.75   93.68  2186.47    0.00    0.0000    0.0000    0.0000    0.0000    0.0000    0.0000    0.0000    0.0121   38.70    1.09    1.09   42.10   41.52    0.140    0.00    0.00    0.00    1.030    1.15    2.027    1.816    1.239    0.76    0.66   90214.00    8.19  20160314.085716
 2142.00    7.33   11.41   63.99  195.07   33.29  1776.16   92.63  2186.15    0.00    0.0000    0.0000    0.0000    0.0000    0.0000    0.0000    0.0000    0.0120   38.68    1.09    1.09   42.23   41.66    0.125    0.00    0.00    0.00    1.030    1.15    1.850    1.657    1.100    0.78    0.67   91645.00    8.31  20160314.090436
