~VERSION INFORMATION
#
#File created by GEO-data Geological Wellsite Services GmbH.
#Parts or all of this file may be confidential.
#
# This is a "LAS" file containing logging data in ascii form.
#
 VERS.        2.0             :CWLS LOG ASCII STANDARD - VERSION 2.0
 WRAP.        NO              :Single line per depth step
~WELL INFORMATION
#MNEM.UNIT        DATA              DESCRIPTION OF MNEMONIC
#---------    -------------         ------------------------
 STRT.M       193.00          :Start DEPTH
 STOP.M       2445.00         :End DEPTH
 STEP.M       1.00            :DEPTH step
 NULL.        -999.25         :NULL VALUE
 COMP.        CLG             :COMPANY
 WELL.        Cal-GT-05       :WELL
 FLD .        Californie      :FIELD
 LOC .        Californie      :LOCATION
 PROV.        <no data>       :PROVINCE
 CNTY.        <no data>       :COUNTY
 STAT.        Niederlande     :STATE
 CTRY.        Niederlande     :COUNTRY
 SRVC.        GeoService      :SERVICE COMPANY
 DATE.        19.04.2016      :DATE
 UWI .        {32CBF15E-C69E-4316-ABD5-8F1549ADA7B1}:UNIQUE WELL ID
 API .        <no data>       :API NUMBER
 LBEG.        No ID entered   :(LBEG) well code
~CURVE INFORMATION
#MNEM.UNIT      API CODE      CURVE DESCRIPTION
#---------    -------------   ------------------------------
 DEPTH.M                      :depth
 ROP .MINPERM                 :rop
 WOB .TONF                    :wob
 HOOKLOAD.TONF                :hookload
 RPM_BIT.RPM                  :rpm_bit
 RPM_STRING.RPM               :rpm_string
 TORQUE.DANM                  :torque
 PUMP_PRESSURE.BAR            :pump_pressure
 FLOW_IN.LPERMIN              :flow_in
 FLOW_OUT.LPERMIN             :flow_out
 C1  .VOLPERCENT              :c1
 C2  .VOLPERCENT              :c2
 C3  .VOLPERCENT              :c3
 IC4 .VOLPERCENT              :ic4
 NC4 .VOLPERCENT              :nc4
 IC5 .VOLPERCENT              :ic5
 NC5 .VOLPERCENT              :nc5
 C_TOTAL.VOLPERCENT           :c_total
 LAGTIME.MIN                  :lagtime
 MUDWEIGHT_IN.KGPERL          :mudweight_in
 MUDWEIGHT_OUT.KGPERL         :mudweight_out
 TEMP_IN.DEGRC                :temp_in
 TEMP_OUT.DEGRC               :temp_out
 CO2 .VOLPERCENT              :co2
 H2S_RIGFLOOR.PPM             :h2s_rigfloor
 H2S_PITS.PPM                 :h2s_pits
 H2S_SHAKERS.PPM              :h2s_shakers
 POREPRESSGRD.KGPERL          :porepressgrd
 ECD .KGPERL                  :ecd
 D_EXPONENT.NOUNIT            :d_exponent
 DC_EXPONENT.NOUNIT           :dc_exponent
 SIGMA.NOUNIT                 :sigma
 CTOOTH.NOUNIT                :ctooth
 CBEARING.NOUNIT              :cbearing
 REVS_BIT_TOTAL.NOUNIT        :revs_bit_total
 BIT_HOURS.HR                 :bit_hours
 CLOCKDATE.                   :Date/Time
~PARAMETER INFORMATION
#MNEM.UNIT        VALUE       DESCRIPTION OF MNEMONIC
#---------    -------------   ------------------------------
~OTHER INFORMATION
~ASCII Log data section
# ...
  793.00   13.11   14.24   54.00  310.98   47.44  1201.30  152.49  3765.04    0.00    0.0000    0.0000    0.0000    0.0000    0.0000    0.0000    0.0000    0.0080   38.55    1.14    1.12   40.51   40.46    0.000    0.00    0.00    0.00    1.030    1.15    1.860    1.667    0.823    3.28    1.04  656089.00   48.92  20160210.025010
  794.00    5.13   12.66   52.23  313.10   47.59  1139.34  152.87  3792.98    0.00    0.0000    0.0000    0.0000    0.0000    0.0000    0.0000    0.0000    0.0081   38.61    1.14    1.12   40.59   40.60    0.000    0.00    0.00    0.00    1.030    1.15    1.545    1.385    0.651    3.31    1.05  657702.00   49.00  20160210.025519
  795.00    8.98   13.90   52.24  312.92   47.59   996.70  159.31  3790.41    0.00    0.0000    0.0000    0.0000    0.0000    0.0000    0.0000    0.0000    0.0052   38.70    1.14    1.12   40.73   40.70    0.000    0.00    0.00    0.00    1.030    1.15    1.702    1.524    0.735    3.33    1.05  660513.00   49.15  20160210.030418
  796.00    4.79   11.87   56.98  312.27   47.21  1096.84  154.74  3786.53    0.00    0.0000    0.0000    0.0000    0.0000    0.0000    0.0000    0.0000    0.0050   38.73    1.14    1.12   40.76   40.82    0.000    0.00    0.00    0.00    1.030    1.15    1.512    1.355    0.632    3.35    1.06  662012.00   49.23  20160210.031730
  797.00    8.12   10.32   53.86  265.37    0.11    16.55  158.97  3789.35    0.00    0.0000    0.0000    0.0000    0.0000    0.0000    0.0000    0.0000    0.0046   38.77    1.14    1.12   40.91   41.19    0.000    0.00    0.00    0.00    1.030    1.15    1.550    1.388    0.642    3.36    1.06  664161.00   49.37  20160210.032536
  798.00    6.84    9.92   50.81  265.50    0.09     2.10  158.40  3791.58    0.00    0.0000    0.0000    0.0000    0.0000    0.0000    0.0000    0.0000    0.0040   38.77    1.14    1.13   41.02   41.46    0.000    0.00    0.00    0.00    1.030    1.15    1.491    1.335    0.613    3.38    1.07  665971.00   49.48  20160210.033225
  799.00   16.21   12.59   50.64  257.13    0.09     0.24  140.69  3671.88    0.00    0.0000    0.0000    0.0000    0.0000    0.0000    0.0000    0.0000    0.0054   41.53    1.14    1.13   41.27   41.81    0.000    0.00    0.00    0.00    1.030    1.15    1.714    1.535    0.737    3.39    1.08  670120.00   49.75  20160210.035330
  800.00   10.66   12.77   49.06  248.33    0.09     0.17  144.20  3546.28    0.00    0.0000    0.0000    0.0000    0.0000    0.0000    0.0000    0.0000    0.0020   41.57    1.14    1.12   42.06   42.08    0.000    0.00    0.00    0.00    1.030    1.15    1.680    1.505    0.720    3.42    1.09  672761.00   49.93  20160210.040408
  801.00    6.93   12.35   48.70  248.36    0.12    20.48  145.61  3546.30    0.00    0.0000    0.0000    0.0000    0.0000    0.0000    0.0000    0.0000    0.0021   41.62    1.13    1.12   41.71   42.18    0.000    0.00    0.00    0.00    1.030    1.15    1.601    1.434    0.675    3.43    1.09  674487.00   50.05  20160210.041105
  802.00    9.07   12.74   48.94  248.33    0.09     0.25  146.21  3546.32    0.00    0.0000    0.0000    0.0000    0.0000    0.0000    0.0000    0.0000    0.0019   41.67    1.13    1.12   41.01   42.28    0.000    0.00    0.00    0.00    1.030    1.15    1.647    1.476    0.699    3.44    1.10  676735.00   50.20  20160210.042008
  803.00    7.64   12.49   48.97  248.33    0.09     0.21  144.06  3546.33    0.00    0.0000    0.0000    0.0000    0.0000    0.0000    0.0000    0.0000    0.0186   41.71    1.13    1.12   40.37   42.37    0.000    0.00    0.00    0.00    1.030    1.15    1.563    1.399    0.657    3.46    1.11  678630.00   50.32  20160210.042746
  804.00    7.21   12.06   51.63  248.34    0.10     5.87  145.39  3546.31    0.00    0.0000    0.0000    0.0000    0.0000    0.0000    0.0000    0.0000    0.0192   41.76    1.13    1.12   39.56   42.50 -999.250    0.00    0.00    0.00    1.030    1.15    1.589    1.423    0.667    3.47    1.11  680468.00   50.45  20160210.043944
  805.00    6.65   11.96   51.19  248.33    0.09     0.13  143.63  3546.29    0.00    0.0000    0.0000    0.0000    0.0000    0.0000    0.0000    0.0000    0.0033   41.81    1.13    1.12   38.79   42.63 -999.250    0.00    0.00    0.00    1.030    1.15    1.570    1.407    0.658    3.48    1.12  682061.00   50.55  20160210.044609
  806.00    9.13   12.37   54.70  248.76    0.52     9.20  144.79  3546.38    0.00    0.0000    0.0000    0.0000    0.0000    0.0000    0.0000    0.0000    0.0036   41.85    1.13    1.12   38.35   42.69 -999.250    0.00    0.00    0.00    1.030    1.15    1.553    1.390    0.656    3.49    1.12  684343.00   50.71  20160210.045701
  807.00    5.37   14.44   51.22  298.61   50.37  1287.13  143.97  3546.30    0.00    0.0000    0.0000    0.0000    0.0000    0.0000    0.0000    0.0000    0.0032   41.89    1.13    1.12   38.19   42.19 -999.250    0.00    0.00    0.00    1.030    1.15    1.659    1.486    0.712    3.50    1.13  685946.00   50.80  20160210.050223
  808.00    6.61   15.18   50.14  298.02   49.78  1268.65  143.21  3546.29    0.00    0.0000    0.0000    0.0000    0.0000    0.0000    0.0000    0.0000    0.0037   41.95    1.13    1.12   38.43   42.14    0.000    0.00    0.00    0.00    1.030    1.15    1.674    1.499    0.719    3.52    1.13  687906.00   50.91  20160210.050858
  809.00   12.59   13.34   57.67  254.77    5.80   120.95  139.69  3556.64    0.00    0.0000    0.0000    0.0000    0.0000    0.0000    0.0000    0.0000    0.0077   41.87    1.13    1.12   42.85   43.14    0.000    0.00    0.00    0.00    1.030    1.15    1.737    1.556    0.748    3.55    1.14  691172.00   51.12  20160210.060509
  810.00    6.14   12.55   54.45  249.11    0.12    15.45  139.47  3557.04    0.00    0.0000    0.0000    0.0000    0.0000    0.0000    0.0000    0.0000    0.0042   41.91    1.14    1.12   43.44   43.28    0.000    0.00    0.00    0.00    1.030    1.15    1.540    1.380    0.647    3.56    1.15  692692.00   51.22  20160210.061115
  811.00    8.06   14.46   49.35  249.05    0.11    13.20  140.99  3556.38    0.00    0.0000    0.0000    0.0000    0.0000    0.0000    0.0000    0.0000    0.0039   41.96    1.15    1.12   43.60   43.18    0.000    0.00    0.00    0.00    1.030    1.15    1.684    1.509    0.722    3.57    1.15  694709.00   51.35  20160210.061921
  812.00    4.98   14.57   50.41  248.92    0.09     0.32  141.36  3554.69    0.00    0.0000    0.0000    0.0000    0.0000    0.0000    0.0000    0.0000    0.0037   42.09    1.15    1.12   43.86   43.04    0.000    0.00    0.00    0.00    1.030    1.15    1.567    1.404    0.668    3.58    1.16  695954.00   51.44  20160210.062421
  813.00    7.11   14.02   51.89  248.52    0.09     0.20  143.50  3548.93    0.00    0.0000    0.0000    0.0000    0.0000    0.0000    0.0000    0.0000    0.0039   42.15    1.15    1.12   44.04   42.95    0.000    0.00    0.00    0.00    1.030    1.15    1.613    1.444    0.686    3.59    1.16  697706.00   51.56  20160210.063124
  814.00    4.90   16.56   47.53  248.47    0.09     0.29  147.36  3548.22    0.00    0.0000    0.0000    0.0000    0.0000    0.0000    0.0000    0.0000    0.0041   42.20    1.15    1.12   43.96   42.92    0.000    0.00    0.00    0.00    1.030    1.15    1.604    1.436    0.690    3.60    1.17  698923.00   51.64  20160210.063618
  815.00    6.47   16.10   51.58  248.31    0.09     0.24  148.04  3545.88    0.00    0.0000    0.0000    0.0000    0.0000    0.0000    0.0000    0.0000    0.0043   42.32    1.15    1.12   43.79   42.95 -999.250    0.00    0.00    0.00    1.030    1.15    1.614    1.445    0.694    3.61    1.17  700529.00   51.74  20160210.064246
  816.00    4.98   16.83   48.04  248.17    0.09     0.31  147.21  3543.94    0.00    0.0000    0.0000    0.0000    0.0000    0.0000    0.0000    0.0000    0.0039   42.35    1.15    1.12   43.59   43.03    0.000    0.00    0.00    0.00    1.030    1.15    1.586    1.421    0.686    3.62    1.18  701770.00   51.83  20160210.064746
  817.00    5.66   16.04   50.17  248.27    0.09     0.27  147.01  3545.37    0.00    0.0000    0.0000    0.0000    0.0000    0.0000    0.0000    0.0000    0.0042   42.37    1.14    1.12   43.42   43.09 -999.250    0.00    0.00    0.00    1.030    1.15    1.668    1.495    0.720    3.64    1.18  703172.00   51.92  20160210.065325
