~VERSION INFORMATION
#
#File created by GEO-data Geological Wellsite Services GmbH.
#Parts or all of this file may be confidential.
#
# This is a "LAS" file containing logging data in ascii form.
#
 VERS.        2.0             :CWLS LOG ASCII STANDARD - VERSION 2.0
 WRAP.        NO              :Single line per depth step
~WELL INFORMATION
#MNEM.UNIT        DATA              DESCRIPTION OF MNEMONIC
#---------    -------------         ------------------------
 STRT.M       193.00          :Start DEPTH
 STOP.M       2445.00         :End DEPTH
 STEP.M       1.00            :DEPTH step
 NULL.        -999.25         :NULL VALUE
 COMP.        CLG             :COMPANY
 WELL.        Cal-GT-05       :WELL
 FLD .        Californie      :FIELD
 LOC .        Californie      :LOCATION
 PROV.        <no data>       :PROVINCE
 CNTY.        <no data>       :COUNTY
 STAT.        Niederlande     :STATE
 CTRY.        Niederlande     :COUNTRY
 SRVC.        GeoService      :SERVICE COMPANY
 DATE.        19.04.2016      :DATE
 UWI .        {32CBF15E-C69E-4316-ABD5-8F1549ADA7B1}:UNIQUE WELL ID
 API .        <no data>       :API NUMBER
 LBEG.        No ID entered   :(LBEG) well code
~CURVE INFORMATION
#MNEM.UNIT      API CODE      CURVE DESCRIPTION
#---------    -------------   ------------------------------
 DEPTH.M                      :depth
 ROP .MINPERM                 :rop
 WOB .TONF                    :wob
 HOOKLOAD.TONF                :hookload
 RPM_BIT.RPM                  :rpm_bit
 RPM_STRING.RPM               :rpm_string
 TORQUE.DANM                  :torque
 PUMP_PRESSURE.BAR            :pump_pressure
 FLOW_IN.LPERMIN              :flow_in
 FLOW_OUT.LPERMIN             :flow_out
 C1  .VOLPERCENT              :c1
 C2  .VOLPERCENT              :c2
 C3  .VOLPERCENT              :c3
 IC4 .VOLPERCENT              :ic4
 NC4 .VOLPERCENT              :nc4
 IC5 .VOLPERCENT              :ic5
 NC5 .VOLPERCENT              :nc5
 C_TOTAL.VOLPERCENT           :c_total
 LAGTIME.MIN                  :lagtime
 MUDWEIGHT_IN.KGPERL          :mudweight_in
 MUDWEIGHT_OUT.KGPERL         :mudweight_out
 TEMP_IN.DEGRC                :temp_in
 TEMP_OUT.DEGRC               :temp_out
 CO2 .VOLPERCENT              :co2
 H2S_RIGFLOOR.PPM             :h2s_rigfloor
 H2S_PITS.PPM                 :h2s_pits
 H2S_SHAKERS.PPM              :h2s_shakers
 POREPRESSGRD.KGPERL          :porepressgrd
 ECD .KGPERL                  :ecd
 D_EXPONENT.NOUNIT            :d_exponent
 DC_EXPONENT.NOUNIT           :dc_exponent
 SIGMA.NOUNIT                 :sigma
 CTOOTH.NOUNIT                :ctooth
 CBEARING.NOUNIT              :cbearing
 REVS_BIT_TOTAL.NOUNIT        :revs_bit_total
 BIT_HOURS.HR                 :bit_hours
 CLOCKDATE.                   :Date/Time
~PARAMETER INFORMATION
#MNEM.UNIT        VALUE       DESCRIPTION OF MNEMONIC
#---------    -------------   ------------------------------
~OTHER INFORMATION
~ASCII Log data section
# ...
  493.00    4.30    2.71   53.50  219.08    8.13    42.09  101.91  3013.59    0.00    0.0000    0.0000    0.0000    0.0000    0.0000    0.0000    0.0000    0.0369   32.03    1.15    1.15   31.41   30.98    0.000    0.00    0.00    0.00    1.030    1.15    1.018    0.911    0.380    0.98    0.18  253481.00   19.76  20160208.075222
  494.00    4.09    3.13   52.42  211.03    0.09     9.68  101.33  3013.46    0.00    0.0000    0.0000    0.0000    0.0000    0.0000    0.0000    0.0000    0.0313   32.09    1.15    1.16   31.32   30.89 -999.250    0.00    0.00    0.00    1.030    1.15    1.041    0.932    0.393    0.99    0.18  254346.00   19.83  20160208.075628
  495.00    4.81    3.93   52.44  210.82    0.09     9.10  102.83  3010.39    0.00    0.0000    0.0000    0.0000    0.0000    0.0000    0.0000    0.0000    0.0140   32.18    1.15    1.17   31.24   30.76    0.000    0.00    0.00    0.00    1.030    1.15    1.097    0.982    0.419    0.99    0.18  255362.00   19.91  20160208.080117
  496.00    3.95    3.05   52.34  210.76    0.10    13.61  103.16  3009.42    0.00    0.0000    0.0000    0.0000    0.0000    0.0000    0.0000    0.0000    0.0185   32.24    1.15    1.16   31.35   30.84    0.000    0.00    0.00    0.00    1.030    1.15    1.045    0.936    0.393    0.99    0.18  256194.00   19.98  20160208.080514
  497.00    5.77    4.24   52.19  210.75    0.09    39.97  103.38  3009.38    0.00    0.0000    0.0000    0.0000    0.0000    0.0000    0.0000    0.0000    0.0216   32.30    1.15    1.14   31.33   30.87 -999.250    0.00    0.00    0.00    1.030    1.15    1.127    1.010    0.433    1.00    0.18  257403.00   20.07  20160208.081058
  498.00    8.58    3.44   54.07  222.54   11.84    70.14  104.42  3009.92    0.00    0.0000    0.0000    0.0000    0.0000    0.0000    0.0000    0.0000    0.0234   32.33    1.15    1.14   31.19   31.05    0.000    0.00    0.00    0.00    1.030    1.15    1.196    1.072    0.443    1.00    0.18  259303.00   20.21  20160208.083957
  499.00    4.88    2.93   54.11  260.16   49.31   260.52  103.61  3012.22    0.00    0.0000    0.0000    0.0000    0.0000    0.0000    0.0000    0.0000    0.0219   32.37    1.15    1.14   31.53   31.51    0.000    0.00    0.00    0.00    1.030    1.15    1.101    0.986    0.406    1.01    0.18  260569.00   20.30  20160208.084449
  500.00    4.99    3.36   54.67  213.74    2.81    13.56  103.70  3013.29    0.00    0.0000    0.0000    0.0000    0.0000    0.0000    0.0000    0.0000    0.0211   32.42    1.15    1.14   31.91   31.76    0.000    0.00    0.00    0.00    1.030    1.15    1.088    0.975    0.409    1.02    0.19  261649.00   20.38  20160208.085757
  501.00    2.88    3.99   52.92  211.02    0.09     0.47  104.82  3013.30    0.00    0.0000    0.0000    0.0000    0.0000    0.0000    0.0000    0.0000    0.0158   32.47    1.15    1.14   32.34   31.78 -999.250    0.00    0.00    0.00    1.030    1.15    1.022    0.915    0.400    1.02    0.19  262254.00   20.43  20160208.090049
  502.00    3.78    4.13   53.39  211.02    0.09     0.48  103.78  3013.28    0.00    0.0000    0.0000    0.0000    0.0000    0.0000    0.0000    0.0000    0.0128   32.53    1.16    1.14   32.20   31.72    0.000    0.00    0.00    0.00    1.030    1.15    1.057    0.946    0.411    1.02    0.19  263031.00   20.49  20160208.090442
  503.00    3.99    3.57   53.49  211.01    0.09     0.71  105.24  3013.26    0.00    0.0000    0.0000    0.0000    0.0000    0.0000    0.0000    0.0000    0.0213   32.58    1.16    1.14   32.08   31.82    0.000    0.00    0.00    0.00    1.030    1.15    1.067    0.955    0.406    1.02    0.19  263875.00   20.55  20160208.090842
  504.00    3.87    4.23   53.05  211.02    0.09     0.79  104.91  3013.24    0.00    0.0000    0.0000    0.0000    0.0000    0.0000    0.0000    0.0000    0.0272   32.64    1.16    1.14   32.08   31.89    0.000    0.00    0.00    0.00    1.030    1.15    1.090    0.976    0.421    1.03    0.19  264688.00   20.62  20160208.091233
  505.00    3.82    3.56   53.38  211.02    0.09     0.69  104.35  3013.27    0.00    0.0000    0.0000    0.0000    0.0000    0.0000    0.0000    0.0000    0.0298   32.69    1.16    1.14   32.12   31.94 -999.250    0.00    0.00    0.00    1.030    1.15    1.054    0.945    0.403    1.03    0.19  265500.00   20.68  20160208.091624
  506.00    3.57    3.49   53.29  211.02    0.09     0.67  104.17  3013.30    0.00    0.0000    0.0000    0.0000    0.0000    0.0000    0.0000    0.0000    0.0354   32.75    1.16    1.14   32.18   31.96 -999.250    0.00    0.00    0.00    1.030    1.15    1.038    0.930    0.397    1.03    0.19  266249.00   20.74  20160208.091957
  507.00    3.57    3.52   53.23  211.02    0.09     0.62  104.20  3013.29    0.00    0.0000    0.0000    0.0000    0.0000    0.0000    0.0000    0.0000    0.0384   32.80    1.16    1.15   32.31   31.98    0.000    0.00    0.00    0.00    1.030    1.15    1.038    0.930    0.398    1.04    0.19  267002.00   20.80  20160208.092331
  508.00    3.57    3.56   53.38  211.06    0.09     0.49  104.66  3013.88    0.00    0.0000    0.0000    0.0000    0.0000    0.0000    0.0000    0.0000    0.0430   32.86    1.16    1.14   32.34   31.98    0.000    0.00    0.00    0.00    1.030    1.15    1.040    0.932    0.399    1.04    0.19  267755.00   20.86  20160208.092705
  509.00    4.60    3.43   54.34  224.29   13.28    81.25  105.54  3014.47    0.00    0.0000    0.0000    0.0000    0.0000    0.0000    0.0000    0.0000    0.0445   32.92    1.15    1.14   32.41   32.00    0.000    0.00    0.00    0.00    1.030    1.15    1.074    0.962    0.406    1.04    0.19  268788.00   20.94  20160208.094334
  510.00    3.28    2.61   54.74  261.32   50.46   268.26  104.98  3012.36    0.00    0.0000    0.0000    0.0000    0.0000    0.0000    0.0000    0.0000    0.0448   32.99    1.16    1.14   32.17   32.06    0.000    0.00    0.00    0.00    1.030    1.15    1.015    0.909    0.378    1.05    0.19  269646.00   20.99  20160208.094651
  511.00    3.26    2.64   54.55  261.31   50.41   264.29  103.88  3012.84    0.00    0.0000    0.0000    0.0000    0.0000    0.0000    0.0000    0.0000    0.0443   33.02    1.16    1.15   32.34   31.95    0.000    0.00    0.00    0.00    1.030    1.15    1.007    0.902    0.376    1.05    0.19  270496.00   21.05  20160208.095006
  512.00    3.65    2.38   54.71  243.48   32.54   265.79  102.61  3013.37    0.00    0.0000    0.0000    0.0000    0.0000    0.0000    0.0000    0.0000    0.0458   33.03    1.16    1.14   32.64   31.82    0.000    0.00    0.00    0.00    1.030    1.15    0.971    0.867    0.362    1.05    0.19  270752.00   21.06  20160208.100128
  513.00    4.71    3.89   54.16  211.03    0.09   314.25  102.95  3013.40    0.00    0.0000    0.0000    0.0000    0.0000    0.0000    0.0000    0.0000    0.0132   33.13    1.17    1.15   32.73   31.57    0.000    0.00    0.00    0.00    1.030    1.15    1.113    0.996    0.423    1.06    0.19  271750.00   21.14  20160208.100612
  514.00    4.72    3.74   53.94  211.03    0.09   300.00  103.51  3013.43    0.00    0.0000    0.0000    0.0000    0.0000    0.0000    0.0000    0.0000    0.0180   33.19    1.17    1.14   32.66   32.01    0.000    0.00    0.00    0.00    1.030    1.15    1.103    0.988    0.419    1.06    0.19  272746.00   21.22  20160208.101055
  515.00    4.70    3.77   53.60  211.02    0.09   300.00  104.13  3013.40    0.00    0.0000    0.0000    0.0000    0.0000    0.0000    0.0000    0.0000    0.0228   33.25    1.17    1.14   32.78   32.33 -999.250    0.00    0.00    0.00    1.030    1.15    1.106    0.990    0.420    1.06    0.19  273738.00   21.30  20160208.101537
  516.00    4.72    3.94   53.39  211.07    0.09   300.00  101.25  3014.07    0.00    0.0000    0.0000    0.0000    0.0000    0.0000    0.0000    0.0000    0.0244   33.24    1.17    1.14   33.05   32.51    0.000    0.00    0.00    0.00    1.030    1.15    1.114    0.997    0.424    1.07    0.20  274733.00   21.38  20160208.102020
  517.00    5.63    4.57   53.08  211.23    0.10   205.48  100.66  3016.15    0.00    0.0000    0.0000    0.0000    0.0000    0.0000    0.0000    0.0000    0.0287   33.30    1.16    1.14   32.93   32.63    0.000    0.00    0.00    0.00    1.030    1.15    1.179    1.056    0.452    1.07    0.20  275923.00   21.47  20160208.102558
