~VERSION INFORMATION
#
#File created by GEO-data Geological Wellsite Services GmbH.
#Parts or all of this file may be confidential.
#
# This is a "LAS" file containing logging data in ascii form.
#
 VERS.        2.0             :CWLS LOG ASCII STANDARD - VERSION 2.0
 WRAP.        NO              :Single line per depth step
~WELL INFORMATION
#MNEM.UNIT        DATA              DESCRIPTION OF MNEMONIC
#---------    -------------         ------------------------
 STRT.M       193.00          :Start DEPTH
 STOP.M       2445.00         :End DEPTH
 STEP.M       1.00            :DEPTH step
 NULL.        -999.25         :NULL VALUE
 COMP.        CLG             :COMPANY
 WELL.        Cal-GT-05       :WELL
 FLD .        Californie      :FIELD
 LOC .        Californie      :LOCATION
 PROV.        <no data>       :PROVINCE
 CNTY.        <no data>       :COUNTY
 STAT.        Niederlande     :STATE
 CTRY.        Niederlande     :COUNTRY
 SRVC.        GeoService      :SERVICE COMPANY
 DATE.        19.04.2016      :DATE
 UWI .        {32CBF15E-C69E-4316-ABD5-8F1549ADA7B1}:UNIQUE WELL ID
 API .        <no data>       :API NUMBER
 LBEG.        No ID entered   :(LBEG) well code
~CURVE INFORMATION
#MNEM.UNIT      API CODE      CURVE DESCRIPTION
#---------    -------------   ------------------------------
 DEPTH.M                      :depth
 ROP .MINPERM                 :rop
 WOB .TONF                    :wob
 HOOKLOAD.TONF                :hookload
 RPM_BIT.RPM                  :rpm_bit
 RPM_STRING.RPM               :rpm_string
 TORQUE.DANM                  :torque
 PUMP_PRESSURE.BAR            :pump_pressure
 FLOW_IN.LPERMIN              :flow_in
 FLOW_OUT.LPERMIN             :flow_out
 C1  .VOLPERCENT              :c1
 C2  .VOLPERCENT              :c2
 C3  .VOLPERCENT              :c3
 IC4 .VOLPERCENT              :ic4
 NC4 .VOLPERCENT              :nc4
 IC5 .VOLPERCENT              :ic5
 NC5 .VOLPERCENT              :nc5
 C_TOTAL.VOLPERCENT           :c_total
 LAGTIME.MIN                  :lagtime
 MUDWEIGHT_IN.KGPERL          :mudweight_in
 MUDWEIGHT_OUT.KGPERL         :mudweight_out
 TEMP_IN.DEGRC                :temp_in
 TEMP_OUT.DEGRC               :temp_out
 CO2 .VOLPERCENT              :co2
 H2S_RIGFLOOR.PPM             :h2s_rigfloor
 H2S_PITS.PPM                 :h2s_pits
 H2S_SHAKERS.PPM              :h2s_shakers
 POREPRESSGRD.KGPERL          :porepressgrd
 ECD .KGPERL                  :ecd
 D_EXPONENT.NOUNIT            :d_exponent
 DC_EXPONENT.NOUNIT           :dc_exponent
 SIGMA.NOUNIT                 :sigma
 CTOOTH.NOUNIT                :ctooth
 CBEARING.NOUNIT              :cbearing
 REVS_BIT_TOTAL.NOUNIT        :revs_bit_total
 BIT_HOURS.HR                 :bit_hours
 CLOCKDATE.                   :Date/Time
~PARAMETER INFORMATION
#MNEM.UNIT        VALUE       DESCRIPTION OF MNEMONIC
#---------    -------------   ------------------------------
~OTHER INFORMATION
~ASCII Log data section
# ...
 2418.00   16.10   15.61   61.35  195.32   31.69  1908.12  106.04  2211.14    0.00    0.0000    0.0000    0.0000    0.0000    0.0000    0.0000    0.0000    0.0000   41.68    1.12    1.14   51.53   50.43    0.042    0.00    0.00    0.00    1.030    1.15    2.290    2.052    1.468    3.16    2.88  344163.00   28.55  20160318.220554
 2419.00   13.18   15.37   61.60  195.36   31.69  1910.79  106.11  2211.73    0.00    0.0000    0.0000    0.0000    0.0000    0.0000    0.0000    0.0000    0.0000   41.68    1.12    1.14   51.48   50.50    0.040    0.00    0.00    0.00    1.030    1.15    2.203    1.973    1.387    3.18    2.91  346739.00   28.76  20160318.221905
 2420.00   10.78   15.08   61.65  195.35   31.69  1927.30  106.27  2211.66    0.00    0.0000    0.0000    0.0000    0.0000    0.0000    0.0000    0.0000    0.0000   41.73    1.12    1.14   51.30   50.57    0.039    0.00    0.00    0.00    1.030    1.15    2.113    1.893    1.308    3.21    2.93  348845.00   28.94  20160318.222952
 2421.00   14.80   15.51   61.44  195.31   31.69  1904.53  105.63  2211.11    0.00    0.0000    0.0000    0.0000    0.0000    0.0000    0.0000    0.0000    0.0000   41.70    1.12    1.14   51.68   50.64    0.050    0.00    0.00    0.00    1.030    1.15    2.207    1.976    1.390    3.23    2.95  351736.00   29.19  20160318.224440
 2422.00   21.21   15.86   61.05  195.37   31.69  1895.71  105.60  2211.89    0.00    0.0000    0.0000    0.0000    0.0000    0.0000    0.0000    0.0000    0.0000   41.72    1.12    1.14   51.69   50.67    0.025    0.00    0.00    0.00    1.030    1.15    2.366    2.119    1.540    3.27    2.98  355881.00   29.54  20160318.230553
 2423.00   24.62   16.00   60.79  195.41   31.69  1876.35  105.38  2212.38    0.00    0.0000    0.0000    0.0000    0.0000    0.0000    0.0000    0.0000    0.0000   41.73    1.12    1.14   51.72   50.65    0.035    0.00    0.00    0.00    1.030    1.15    2.403    2.152    1.577    3.32    3.02  360691.00   29.95  20160318.233030
 2424.00   23.20   15.93   60.91  195.36   31.69  1891.04  105.88  2211.79    0.00    0.0000    0.0000    0.0000    0.0000    0.0000    0.0000    0.0000    0.0000   41.78    1.12    1.15   51.76   50.73    0.054    0.00    0.00    0.00    1.030    1.15    2.402    2.151    1.576    3.36    3.07  365224.00   30.34  20160318.235342
 2425.00   23.92   15.87   61.08  195.43   31.70  1890.25  105.32  2212.63    0.00    0.0000    0.0000    0.0000    0.0000    0.0000    0.0000    0.0000    0.0000   41.76    1.12    1.14   51.92   50.88    0.030    0.00    0.00    0.00    1.030    1.15    2.432    2.178    1.608    3.41    3.12  369898.00   30.74  20160319.001737
 2426.00   15.28   15.54   64.24  195.42   31.69  1895.68  108.30  2212.59    0.00    0.0000    0.0000    0.0000    0.0000    0.0000    0.0000    0.0000    0.0000   41.77    1.12    1.14   51.88   50.95    0.041    0.00    0.00    0.00    1.030    1.15    2.248    2.013    1.429    3.45    3.15  372885.00   31.00  20160319.004444
 2427.00   15.63   15.43   61.77  195.39   31.69  1888.53  107.76  2212.19    0.00    0.0000    0.0000    0.0000    0.0000    0.0000    0.0000    0.0000    0.0000   41.79    1.12    1.14   51.96   51.04    0.060    0.00    0.00    0.00    1.030    1.15    2.240    2.006    1.421    3.48    3.18  375939.00   31.26  20160319.010022
 2428.00   20.05   15.73   61.04  195.41   31.69  1903.90  108.50  2212.48    0.00    0.0000    0.0000    0.0000    0.0000    0.0000    0.0000    0.0000    0.0000   41.78    1.12    1.14   52.00   51.15    0.041    0.00    0.00    0.00    1.030    1.15    2.324    2.081    1.499    3.52    3.21  379857.00   31.59  20160319.012025
 2429.00   20.92   15.74   61.23  195.45   31.69  1925.92  108.21  2213.04    0.00    0.0000    0.0000    0.0000    0.0000    0.0000    0.0000    0.0000    0.0000   41.80    1.12    1.14   52.16   51.22    0.061    0.00    0.00    0.00    1.030    1.15    2.359    2.113    1.535    3.56    3.25  383946.00   31.94  20160319.014120
 2430.00   21.55   15.75   61.21  195.34   31.69  1897.99  107.47  2211.56    0.00    0.0000    0.0000    0.0000    0.0000    0.0000    0.0000    0.0000    0.0000   41.82    1.12    1.15   52.16   51.12 -999.250    0.00    0.00    0.00    1.030    1.15    2.400    2.150    1.576    3.60    3.29  388156.00   32.30  20160319.020253
 2431.00   13.90   15.30   61.34  195.28   31.69  1924.13  107.44  2210.76    0.00    0.0000    0.0000    0.0000    0.0000    0.0000    0.0000    0.0000    0.0000   41.85    1.12    1.14   52.28   51.00    0.047    0.00    0.00    0.00    1.030    1.15    2.206    1.976    1.390    3.64    3.32  390870.00   32.53  20160319.021647
 2432.00   19.85   14.89   64.70  195.11   31.69  1946.42  107.66  2208.33    0.00    0.0000    0.0000    0.0000    0.0000    0.0000    0.0000    0.0000    0.0000   41.92    1.13    1.15   52.25   51.14    0.424    0.00    0.00    0.00    1.030    1.15    2.300    2.060    1.482    3.67    3.35  394743.00   32.86  20160319.030927
 2433.00   21.83   15.01   63.55  195.00   31.70  1987.27  111.81  2206.86    0.00    0.0000    0.0000    0.0000    0.0000    0.0000    0.0000    0.0000    0.0000   41.96    1.13    1.15   52.36   51.04    0.475    0.00    0.00    0.00    1.030    1.15    2.302    2.062    1.484    3.71    3.38  399001.00   33.22  20160319.033117
 2434.00   19.10   15.59   64.47  194.32   31.62  2124.90    0.00  2198.67    0.00 -999.2500 -999.2500 -999.2500 -999.2500 -999.2500 -999.2500 -999.2500 -999.2500 -999.25    1.13 -999.25   52.25 -999.25 -999.250 -999.25 -999.25 -999.25    1.030    1.15    2.349    2.107    1.533    3.74    3.40  400122.00   33.32  20160319.040552
 2435.00 -999.25    0.00    0.00    0.10    0.10     0.00    0.00     0.00    0.00 -999.2500 -999.2500 -999.2500 -999.2500 -999.2500 -999.2500 -999.2500 -999.2500 -999.25    1.12 -999.25   49.72 -999.25 -999.250 -999.25 -999.25 -999.25    1.030    1.15   -4.643   -0.919    0.264    3.74    3.41  400122.00   33.32  20160319.040553
 2436.00 -999.25    0.00    0.00    0.09    0.09     0.00    0.00     0.00    0.00 -999.2500 -999.2500 -999.2500 -999.2500 -999.2500 -999.2500 -999.2500 -999.2500 -999.25    1.12 -999.25   49.72 -999.25 -999.250 -999.25 -999.25 -999.25    1.030    1.15   -4.740   -4.159    0.260    3.74    3.41  400122.00   33.32  20160319.040554
 2437.00 -999.25    0.00    0.00    0.07    0.07     0.00    0.00     0.00    0.00 -999.2500 -999.2500 -999.2500 -999.2500 -999.2500 -999.2500 -999.2500 -999.2500 -999.25    1.12 -999.25   49.72 -999.25 -999.250 -999.25 -999.25 -999.25    1.030    1.15   -4.844   -4.245    0.257    3.74    3.41  400122.00   33.32  20160319.040555
 2438.00 -999.25 -999.25 -999.25 -999.25 -999.25  -999.25 -999.25  -999.25 -999.25 -999.2500 -999.2500 -999.2500 -999.2500 -999.2500 -999.2500 -999.2500 -999.2500 -999.25 -999.25 -999.25 -999.25 -999.25 -999.250 -999.25 -999.25 -999.25 -999.250 -999.25 -999.250 -999.250 -999.250 -999.25 -999.25    -999.25 -999.25      -999.250000
 2439.00 -999.25    0.00    0.00    0.06    0.06     0.00    0.00     0.00    0.00 -999.2500 -999.2500 -999.2500 -999.2500 -999.2500 -999.2500 -999.2500 -999.2500 -999.25    1.12 -999.25   49.55 -999.25 -999.250 -999.25 -999.25 -999.25    1.030    1.15   -5.275   -4.338    0.248    3.74    3.41  400122.00   33.32  20160319.040556
 2440.00 -999.25    0.00    0.00    0.06    0.06     0.00    0.00     0.00    0.00 -999.2500 -999.2500 -999.2500 -999.2500 -999.2500 -999.2500 -999.2500 -999.2500 -999.25    1.12 -999.25   49.49 -999.25 -999.250 -999.25 -999.25 -999.25    1.030    1.15   -5.212   -4.725    0.249    3.75    3.41  400122.00   33.32  20160319.040557
 2441.00 -999.25 -999.25 -999.25 -999.25 -999.25  -999.25 -999.25  -999.25 -999.25 -999.2500 -999.2500 -999.2500 -999.2500 -999.2500 -999.2500 -999.2500 -999.2500 -999.25 -999.25 -999.25 -999.25 -999.25 -999.250 -999.25 -999.25 -999.25 -999.250 -999.25 -999.250 -999.250 -999.250 -999.25 -999.25    -999.25 -999.25      -999.250000
 2442.00 -999.25    0.00    0.00    0.10    0.10     0.00    0.00     0.00    0.00 -999.2500 -999.2500 -999.2500 -999.2500 -999.2500 -999.2500 -999.2500 -999.2500 -999.25    1.12 -999.25   49.49 -999.25 -999.250 -999.25 -999.25 -999.25    1.030    1.15   -4.904   -4.668    0.255    3.75    3.41  400122.00   33.32  20160319.040558
