~VERSION INFORMATION
VERS.                                                 2.0:   CWLS Log ASCII Standard-VERSION 2.0
WRAP.                                                  NO:   One line per depth step
~Well Information Block
STRT.M                                           745.5408:   Top Depth
STOP.M                                           861.6696:   Bottom Depth
STEP.M                                             .20000:   Depth Increment
NULL.                                            -999.250:   Null Value
FLD .                                         SCHOONEBEEK:   Field Name
WELL.                                      SCHOONEBEEK- 3:   NAME
EDF .m                                              15.12:   ELEV DRILL FLOOR
EPD .                                                   0:   ELEV PERM DATUM
EGL .m                                               12.8:   GROUND LEVEL
LMF .                                                  DF:   LOGS MEAS FROM
COMP.                                                BPME:   OPERATOR
PDAT.                                                 NAP:   PERM DATUM
SPUD.                                          2043/09/12:   SPUD DATE
UWBI.                                      11000074043001:   UWBI
WELL.                                      SCHOONEBEEK- 3:   HOLE NAME
~PARAMETER INFORMATION (log)
LNAM.                                RUN 02 RAW OH 7 3/5":   NAME
LTYP.                                                 02R:   LOG TYPE
LVSN.                                                   1:   LOG VERSION
BS  .3/5"                                               7:   BIT SIZE
BLI .M                                                862:   BOTTOM DEPTH LOGGED
BHIS.                                                MCCC:   BRIEF HISTORY
FHIS.                                     MERGE/COPY/COPY:   FULL HISTORY
MRT .                                                    :   MAX REC TEMP
DFD .                                                    :   MUD DENSITY
DFT .                                                 N/A:   MUD TYPE
RMS .                                                    :   RM
MST .                                                    :   RM TEMP
RMCS.                                                    :   RMC
MCST.                                                    :   RMC TEMP
RMFS.                                                    :   RMF
MFST.                                                    :   RMF TEMP
TCS .                                                 N/A:   TIME SINCE CIRCLN
TLI .M                                              745.5:   TOP DEPTH LOGGED
~Curve Information Block
#MNEM.UNIT                                        API CODE    No Description
#=========                                        ========    == ===========
DEPT.M                                       00 001 00 00:     1  DEPTH
ES.OHMM                                                  :     2  ELECTRICAL SURVEY
LN.OHMM                                                  :     3  LONG NORMAL
SN.OHMM                                                  :     4  SHORT NORMAL
SP.MV                                                    :     5  Spontaneous potential
~ASCII
# ...
  774.7408  -999.2500  -999.2500     2.3290    38.9730
  774.9408  -999.2500  -999.2500     2.3050    38.4040
  775.1408  -999.2500  -999.2500     2.2820    38.0640
  775.3408  -999.2500  -999.2500     2.2530    38.6680
  775.5408  -999.2500  -999.2500     2.2530    38.6330
  775.7408  -999.2500  -999.2500     2.2530    37.8590
  775.9408  -999.2500  -999.2500     2.2860    36.9430
  776.1408  -999.2500  -999.2500     2.3980    35.0480
  776.3408  -999.2500  -999.2500     2.4590    34.1810
  776.5408  -999.2500  -999.2500     2.5220    33.6740
  776.7408  -999.2500  -999.2500     2.5780    33.7710
  776.9408  -999.2500  -999.2500     2.5780    33.8570
  777.1408  -999.2500  -999.2500     2.5780    33.8730
  777.3408  -999.2500  -999.2500     2.6310    32.9460
  777.5408  -999.2500  -999.2500     2.7170    32.2590
  777.7408  -999.2500  -999.2500     2.8050    32.9890
  777.9408  -999.2500  -999.2500     2.7560    32.3940
  778.1408  -999.2500  -999.2500     2.6270    31.7570
  778.3408  -999.2500  -999.2500     2.4950    31.6610
  778.5408  -999.2500  -999.2500     2.3030    33.6730
  778.7408  -999.2500  -999.2500     2.2910    34.8060
  778.9408  -999.2500  -999.2500     2.3610    34.9370
  779.1408  -999.2500  -999.2500     2.4660    33.1480
  779.3408  -999.2500  -999.2500     2.6580    32.2470
  779.5408  -999.2500  -999.2500     2.6780    32.7260
  779.7408  -999.2500  -999.2500     2.6390    33.2800
  779.9408  -999.2500  -999.2500     2.4370    33.6480
  780.1408  -999.2500  -999.2500     2.3480    32.4010
  780.3408  -999.2500  -999.2500     2.2670    31.0880
  780.5408  -999.2500  -999.2500     2.2030    30.3350
  780.7408  -999.2500  -999.2500     2.2290    31.4660
  780.9408  -999.2500  -999.2500     2.2850    33.0660
  781.1408  -999.2500  -999.2500     2.2580    36.9310
  781.3408  -999.2500  -999.2500     2.1440    39.0110
  781.5408  -999.2500  -999.2500     2.1280    38.5710
  781.7408  -999.2500  -999.2500     2.2100    35.0840
  781.9408  -999.2500  -999.2500     2.3040    37.1510
  782.1408  -999.2500  -999.2500     2.3810    37.2680
  782.3408  -999.2500  -999.2500     2.4480    34.8330
  782.5408  -999.2500  -999.2500     2.5460    30.8290
  782.7408  -999.2500  -999.2500     2.5410    32.0510
  782.9408  -999.2500  -999.2500     2.5230    33.1260
  783.1408  -999.2500  -999.2500     2.4490    29.9370
  783.3408  -999.2500  -999.2500     2.4250    30.4400
  783.5408  -999.2500  -999.2500     2.4030    32.4030
  783.7408  -999.2500  -999.2500     2.4200    38.9940
  783.9408  -999.2500  -999.2500     2.4680    38.8060
  784.1408  -999.2500  -999.2500     2.5190    36.5200
  784.3408  -999.2500  -999.2500     2.6480    32.2590
  784.5408  -999.2500  -999.2500     2.7570    33.9070
  784.7408  -999.2500  -999.2500     2.8760    35.4420
  784.9408  -999.2500  -999.2500     3.1560    30.7890
  785.1408  -999.2500  -999.2500     3.2760    28.2030
  785.3408  -999.2500  -999.2500     3.3200    28.1830
  785.5408  -999.2500  -999.2500     3.3010    28.5780
  785.7408  -999.2500  -999.2500     3.1000    28.3700
  785.9408  -999.2500  -999.2500     2.9770    28.0020
  786.1408  -999.2500  -999.2500     2.8540    27.7800
  786.3408  -999.2500  -999.2500     2.6720    28.6060
  786.5408  -999.2500  -999.2500     2.6320    29.0790
  786.7408  -999.2500  -999.2500     2.5950    29.5530
  786.9408  -999.2500  -999.2500     2.5410    29.4000
  787.1408  -999.2500  -999.2500     2.5160    28.1070
  787.3408  -999.2500  -999.2500     2.4860    27.6900
  787.5408  -999.2500  -999.2500     2.4170    27.8400
  787.7408  -999.2500  -999.2500     2.3890    28.2550
  787.9408     1.5280  -999.2500     2.3650    29.2030
  788.1408     1.5280  -999.2500     2.3190    31.0490
  788.3408     1.5280  -999.2500     2.2960    31.4650
  788.5408     1.5280  -999.2500     2.2680    31.6610
  788.7408     1.5280  -999.2500     2.2460    31.9230
  788.9408     1.5280  -999.2500     2.2130    33.0400
  789.1408     1.5280  -999.2500     2.1990    32.9830
  789.3408     1.5280  -999.2500     2.1910    32.0850
  789.5408     1.5280  -999.2500     2.1780    30.4850
  789.7408     1.5280  -999.2500     2.1780    29.8200
  789.9408     1.5280  -999.2500     2.1920    29.1890
  790.1408     1.5280  -999.2500     2.2450    26.0970
  790.3408     1.5280  -999.2500     2.2530    27.2810
  790.5408     1.5280  -999.2500     2.2940    28.2520
  790.7408     1.5280  -999.2500     2.5300    27.1260
  790.9408     1.5280  -999.2500     2.5470    26.5380
  791.1408     1.5280  -999.2500     2.5210    27.4350
  791.3408     1.5280  -999.2500     2.4140    29.9980
  791.5408     1.5280     1.4150     2.3870    31.6090
  791.7408     1.5280     1.5480     2.4310    33.3330
  791.9408     1.5280     1.6730     2.5090    34.8910
  792.1408     1.5280     1.6540     2.4860    29.4770
  792.3408     1.5280     1.6120     2.3820    26.5830
  792.5408     1.5280     1.6530     2.2650    27.1060
  792.7408     1.5280     2.0040     2.0740    36.1130
  792.9408     1.5280     2.2540     2.0390    34.0500
  793.1408     1.5280     2.1610     2.0560    31.9870
  793.3408     1.5280     1.7130     2.2750    37.5880
  793.5408     1.5280     1.8080     2.4260    40.3490
  793.7408     1.5280     1.8660     2.5690    40.4550
  793.9408     1.5280     1.6850     2.5690    40.3580
  794.1408     1.5280     1.6000     2.4650    40.4390
  794.3408     1.5280     1.5310     2.4010    40.4730
  794.5408     1.5280     1.6730     2.3780    41.5920
  794.7408     1.5280     1.8880     2.3780    43.2980
  794.9408     1.5280     2.0610     2.3970    44.0780
  795.1408     1.5280     2.2480     2.4590    42.5230
  795.3408     1.5280     1.9410     2.6490    43.8340
  795.5408     1.5280     1.7340     2.6960    45.8200
  795.7408     1.5280     1.6370     2.6840    48.7380
  795.9408     1.5280     1.7380     2.5730    52.5490
  796.1408     1.5280     1.6940     2.5090    52.0500
  796.3408     1.5280     1.8060     2.4600    52.5600
  796.5408     1.5280     2.0630     2.5640    56.4450
  796.7408     1.5280     1.8000     2.5470    54.7110
  796.9408     1.5280     1.5830     2.5370    52.7580
  797.1408     1.5280     1.7440     2.6880    54.1870
  797.3408     1.5280     1.6820     2.6710    55.1860
  797.5408     1.5280     1.6270     2.6230    54.9920
  797.7408     1.5280     1.5820     2.6030    53.0450
  797.9408     1.5280     1.7750     2.7210    52.0880
  798.1408     1.5280     1.9880     2.8320    51.8730
  798.3408     1.5280     2.2300     2.9270    53.3830
  798.5408     1.5280     2.0940     2.9780    57.3790
  798.7408     1.5280     1.7270     2.9090    57.6770
  798.9408     1.5280     1.6330     2.8110    56.7390
  799.1408     1.5280     2.3970     2.7030    54.8440
  799.3408     1.5280     2.0780     2.7150    55.6450
  799.5408     1.5280     1.7480     2.7640    57.0900
  799.7408     1.5280     1.0730     3.0100    56.3440
  799.9408     1.5280     1.0930     3.1230    55.5960
  800.1408     1.5280     1.3990     3.0260    56.6920
  800.3408     2.1640     2.1830     2.9280    56.9610
  800.5408     2.6740     2.4640     3.0330    55.1980
  800.7408     2.2930     2.2920     3.0480    52.9380
  800.9408     1.9100     2.0960     3.0460    50.9050
  801.1408     2.1640     2.4030     3.0990    51.3530
  801.3408     2.8650     2.7520     3.1870    50.6120
  801.5408     3.1840     3.0350     3.3150    51.0900
  801.7408     2.5470     2.4460     4.3350    51.2020
  801.9408     2.0370     2.1080     5.2660    50.6840
  802.1408     2.7380     2.4550     5.9840    50.0620
  802.3408     6.1130     5.8510    11.3100    50.7060
  802.5408     6.6210     7.7050    14.1800    50.7740
  802.7408     8.1480     9.1730    17.0000    50.6740
  802.9408    15.6640    17.0390    48.6390    52.1680
  803.1408  1872.0000    18.8270    63.1520    54.3000
  803.3408    25.4690    63.2020    72.6510    54.4250
  803.5408    63.6880   237.0790    92.6710    58.7500
  803.7408   286.5000   218.1630   106.9280    64.5850
