~VERSION INFORMATION
VERS.                                                 2.0:   CWLS Log ASCII Standard-VERSION 2.0
WRAP.                                                  NO:   One line per depth step
~Well Information Block
STRT.M                                           745.5408:   Top Depth
STOP.M                                           861.6696:   Bottom Depth
STEP.M                                             .20000:   Depth Increment
NULL.                                            -999.250:   Null Value
FLD .                                         SCHOONEBEEK:   Field Name
WELL.                                      SCHOONEBEEK- 3:   NAME
EDF .m                                              15.12:   ELEV DRILL FLOOR
EPD .                                                   0:   ELEV PERM DATUM
EGL .m                                               12.8:   GROUND LEVEL
LMF .                                                  DF:   LOGS MEAS FROM
COMP.                                                BPME:   OPERATOR
PDAT.                                                 NAP:   PERM DATUM
SPUD.                                          2043/09/12:   SPUD DATE
UWBI.                                      11000074043001:   UWBI
WELL.                                      SCHOONEBEEK- 3:   HOLE NAME
~PARAMETER INFORMATION (log)
LNAM.                                RUN 02 RAW OH 7 3/5":   NAME
LTYP.                                                 02R:   LOG TYPE
LVSN.                                                   1:   LOG VERSION
BS  .3/5"                                               7:   BIT SIZE
BLI .M                                                862:   BOTTOM DEPTH LOGGED
BHIS.                                                MCCC:   BRIEF HISTORY
FHIS.                                     MERGE/COPY/COPY:   FULL HISTORY
MRT .                                                    :   MAX REC TEMP
DFD .                                                    :   MUD DENSITY
DFT .                                                 N/A:   MUD TYPE
RMS .                                                    :   RM
MST .                                                    :   RM TEMP
RMCS.                                                    :   RMC
MCST.                                                    :   RMC TEMP
RMFS.                                                    :   RMF
MFST.                                                    :   RMF TEMP
TCS .                                                 N/A:   TIME SINCE CIRCLN
TLI .M                                              745.5:   TOP DEPTH LOGGED
~Curve Information Block
#MNEM.UNIT                                        API CODE    No Description
#=========                                        ========    == ===========
DEPT.M                                       00 001 00 00:     1  DEPTH
ES.OHMM                                                  :     2  ELECTRICAL SURVEY
LN.OHMM                                                  :     3  LONG NORMAL
SN.OHMM                                                  :     4  SHORT NORMAL
SP.MV                                                    :     5  Spontaneous potential
~ASCII
# ...
  803.9408   146.3750   136.1830   123.1640    70.4200
  804.1408   254.7500   320.7500   150.6700    65.0770
  804.3408   528.5000   426.5330   156.2410    60.2990
  804.5408   585.5000   535.0920   161.8490    56.6270
  804.7408   515.5000   527.5490   173.6880    58.4470
  804.9408   496.7500   552.2350   175.8790    63.4310
  805.1408   643.0000   624.7700   161.6430    63.4180
  805.3408   719.5000   697.3040   176.1500    61.8520
  805.5408   821.5000   842.3740   200.3310    66.3020
  805.7408   917.0000   914.9080   206.9810    69.1270
  805.9408   987.0000   981.3170   214.7370    66.7360
  806.1408   929.5000   984.7900   238.1940    67.8250
  806.3408  1019.0000  1067.9670   244.6020    66.1770
  806.5408  1178.0000  1131.9860   246.9450    67.5260
  806.7408  1184.0000  1124.1320   254.6270    66.1890
  806.9408  1127.0000  1149.3320   260.3440    65.2860
  807.1408  1242.0000  1197.3430   265.9060    68.2030
  807.3408  1280.0000  1226.1281   252.2730    72.6690
  807.5408  1178.0000  1168.8740   260.0510    74.4680
  807.7408  1165.0000  1210.2450   274.5730    76.6250
  807.9408  1299.0000  1265.3920   260.7140    78.9950
  808.1408  1184.0000  1163.1270   248.2050    80.3710
  808.3408  1171.0000  1172.1520   254.3510    79.4230
  808.5408  1197.0000  1137.8610   244.8210    79.5770
  808.7408  1063.0000  1031.7531   240.5790    81.9910
  808.9408  1019.0000  1019.7090   219.7920    82.5240
  809.1408  1038.0000   982.3080   200.3800    81.8160
  809.3408   847.0000   831.8520   206.9680    81.7960
  809.5408   777.0000   823.1980   220.3100    82.5550
  809.7408   668.5000   728.8340   200.5980    83.2980
  809.9408   617.5000   616.0170   160.6180    83.1390
  810.1408   624.0000   610.4610   150.2250    83.4180
  810.3408   624.0000   615.6390   142.9560    84.4370
  810.5408   624.0000   606.8930   148.4680    86.5000
  810.7408   598.5000   593.3720   139.7160    87.1320
  810.9408   554.0000   572.4060   130.4800    87.3230
  811.1408   503.0000   547.9750   121.5860    87.1630
  811.3408   477.5000   496.5220   109.5200    86.5460
  811.5408   464.7500   472.9270   105.7280    86.6320
  811.7408   477.5000   460.5890   100.0110    86.9900
  811.9408   445.7500   455.6010    95.2580    87.0310
  812.1408   407.5000   420.2160   101.1970    86.5170
  812.3408   363.0000   383.8040   105.2630    85.5930
  812.5408   331.0000   329.1800    93.0570    86.6640
  812.7408   292.7500   298.9020    85.6080    88.3480
  812.9408   254.7500   272.5000    78.2090    86.9110
  813.1408   216.5000   224.8030    79.0190    87.9110
  813.3408   222.8750   214.4300    85.3530    89.2720
  813.5408   222.8750   222.0660    78.1740    89.5330
  813.7408   229.2500   226.4910    64.8760    89.0200
  813.9408   229.2500   213.6500    64.9860    89.7040
  814.1408   178.2500   188.8550    64.6180    90.2730
  814.3408   165.5000   165.4680    61.8220    90.8660
  814.5408   152.7500   149.3240    53.7350    89.6410
  814.7408   146.3750   143.0470    50.9870    88.0500
  814.9408   133.7500   135.7050    49.6730    88.3430
  815.1408   127.3750   122.6820    48.0690    91.9410
  815.3408   121.0000   117.4760    47.3740    89.6550
  815.5408   114.6250   111.5680    46.6060    88.1480
  815.7408   108.2500   100.3620    43.7250    89.0610
  815.9408   101.8750    93.8010    40.4360    89.7860
  816.1408    99.9380    86.9480    42.4410    90.1310
  816.3408    85.9380    91.1060    38.4770    90.1590
  816.5408    92.9380    80.9860    36.3840    89.7730
  816.7408    76.0620    70.8950    38.2440    88.9850
  816.9408    68.1250    67.1260    39.9260    86.5920
  817.1408    66.1880    60.3110    37.0990    87.4300
  817.3408    55.4060    53.3040    34.3190    87.8050
  817.5408    52.5310    50.6860    31.5620    86.7550
  817.7408    47.7500    47.4930    30.1980    84.9340
  817.9408    48.0620    46.3990    31.3400    84.0240
  818.1408    45.2190    44.1860    30.0270    85.5850
  818.3408    38.1880    46.6530    26.4290    86.4090
  818.5408    48.4060    49.5640    27.7900    82.3850
  818.7408    51.9060    43.4450    28.9470    80.8770
  818.9408    33.4380    39.3880    28.3560    85.3510
  819.1408    47.4380    45.5750    29.1860    87.3300
  819.3408    35.0310    35.2880    30.1560    85.6260
  819.5408    34.6880    37.4240    28.2800    80.7360
  819.7408    36.2810    34.1030    26.3070    79.1620
  819.9408    32.7810    32.7260    25.7980    79.6260
  820.1408    32.1560    28.9650    23.7110    82.2880
  820.3408    28.6560    28.0860    22.4710    83.4420
  820.5408    26.7500    27.0420    22.2580    84.1750
  820.7408    24.5160    25.7720    22.2020    84.3850
  820.9408    23.5620    23.5700    20.2790    83.1180
  821.1408    23.5620    22.9670    19.5200    81.9700
  821.3408    24.5160    23.5630    19.2020    80.5620
  821.5408    20.6880    21.5350    20.7430    78.2020
  821.7408    21.0160    21.9520    21.0280    79.4510
  821.9408    23.8750    22.6820    19.8200    78.9530
  822.1408    20.0620    20.5720    19.4240    78.1080
  822.3408    20.0620    21.6140    20.7740    79.1920
  822.5408    24.5160    23.4050    19.5030    80.5380
  822.7408    22.9220    20.0380    16.9360    80.7200
  822.9408    99.9380    17.7250    15.6980    79.6220
  823.1408    17.4380    18.7710    15.0250    78.7010
  823.3408    19.9840    19.2090    15.4220    80.1400
  823.5408    17.5780    16.4440    16.4570    81.9710
  823.7408    15.0310    15.1450    15.4360    80.7490
  823.9408    11.7810    13.7780    14.4760    79.5480
  824.1408    11.0780    11.1390    12.9750    78.7480
  824.3408    10.9530    11.0440    12.2590    78.9210
  824.5408    10.7580    10.8740    11.6340    78.1590
  824.7408    10.3750    10.0610    12.6090    76.9330
  824.9408     9.6800     9.3640    13.2180    76.6250
  825.1408     8.8520     8.6940    13.4070    77.6390
  825.3408     8.2730     8.0610    11.7100    78.7750
  825.5408     7.9610     7.9640    11.0580    77.3860
  825.7408     7.8320     7.8390    10.5390    75.7890
  825.9408     7.3870     6.9570    10.7210    77.3200
  826.1408     6.6210     6.4300    10.1610    76.5970
  826.3408     5.7300     5.9370     9.5540    74.7910
  826.5408     4.9650     5.4980     8.8760    72.4660
  826.7408     4.3280     4.7040     7.6850    70.5180
  826.9408     4.2030     4.3040     7.0170    68.7930
  827.1408     4.2030     4.1940     5.9350    68.4540
  827.3408     4.7110     4.5580     7.9070    67.6820
  827.5408     3.4390     4.0890     9.4330    66.7500
  827.7408     2.6110     3.3960    10.7240    65.3810
  827.9408     1.7830     2.0790     8.6330    62.3800
  828.1408     1.7830     1.6230     5.6390    60.2300
  828.3408     1.7830     1.5710     3.4290    58.3190
  828.5408     1.7830     1.7880     1.6950    60.4600
  828.7408     1.7830     1.8290     2.0430    60.2000
  828.9408     1.7830     1.4900     2.4510    60.0100
  829.1408     1.7830     1.2370     1.8700    63.4970
  829.3408     1.7830     1.2050     1.4080    65.1130
  829.5408     1.7830     1.2170     1.2380    65.1020
  829.7408     1.7830     1.2800     1.3140    63.4860
  829.9408     1.7830     1.4210     1.2310    63.7730
  830.1408     1.7830     1.3640     1.0990    66.9270
  830.3408     1.7830     1.4760     1.0950    69.3330
  830.5408     1.7830     1.7220     1.2480    67.1460
  830.7408     1.7830     1.3400     1.2280    64.4000
  830.9408     1.7830     1.1060     1.3640    58.7730
  831.1408     1.7830     1.0830     1.9870    64.7660
  831.3408     1.7830     1.3160     2.0790    66.7360
  831.5408     1.7830     1.5140     1.7370    59.8850
  831.7408     1.7830     1.5810     1.1760    64.4370
  831.9408     1.7830     1.5780     1.1320    68.5700
  832.1408     1.7830     1.5610     1.2020    62.8260
  832.3408     1.7830     1.5270     1.2990    59.9680
  832.5408     1.7830     1.5100     1.2620    64.3470
  832.7408     1.7830     1.4930     1.2360    68.0810
  832.9408     1.7830     1.4760     1.2530    65.3440
