~VERSION INFORMATION
VERS.                                                 2.0:   CWLS Log ASCII Standard-VERSION 2.0
WRAP.                                                  NO:   One line per depth step
~Well Information Block
STRT.M                                           745.5408:   Top Depth
STOP.M                                           861.6696:   Bottom Depth
STEP.M                                             .20000:   Depth Increment
NULL.                                            -999.250:   Null Value
FLD .                                         SCHOONEBEEK:   Field Name
WELL.                                      SCHOONEBEEK- 3:   NAME
EDF .m                                              15.12:   ELEV DRILL FLOOR
EPD .                                                   0:   ELEV PERM DATUM
EGL .m                                               12.8:   GROUND LEVEL
LMF .                                                  DF:   LOGS MEAS FROM
COMP.                                                BPME:   OPERATOR
PDAT.                                                 NAP:   PERM DATUM
SPUD.                                          2043/09/12:   SPUD DATE
UWBI.                                      11000074043001:   UWBI
WELL.                                      SCHOONEBEEK- 3:   HOLE NAME
~PARAMETER INFORMATION (log)
LNAM.                                RUN 02 RAW OH 7 3/5":   NAME
LTYP.                                                 02R:   LOG TYPE
LVSN.                                                   1:   LOG VERSION
BS  .3/5"                                               7:   BIT SIZE
BLI .M                                                862:   BOTTOM DEPTH LOGGED
BHIS.                                                MCCC:   BRIEF HISTORY
FHIS.                                     MERGE/COPY/COPY:   FULL HISTORY
MRT .                                                    :   MAX REC TEMP
DFD .                                                    :   MUD DENSITY
DFT .                                                 N/A:   MUD TYPE
RMS .                                                    :   RM
MST .                                                    :   RM TEMP
RMCS.                                                    :   RMC
MCST.                                                    :   RMC TEMP
RMFS.                                                    :   RMF
MFST.                                                    :   RMF TEMP
TCS .                                                 N/A:   TIME SINCE CIRCLN
TLI .M                                              745.5:   TOP DEPTH LOGGED
~Curve Information Block
#MNEM.UNIT                                        API CODE    No Description
#=========                                        ========    == ===========
DEPT.M                                       00 001 00 00:     1  DEPTH
ES.OHMM                                                  :     2  ELECTRICAL SURVEY
LN.OHMM                                                  :     3  LONG NORMAL
SN.OHMM                                                  :     4  SHORT NORMAL
SP.MV                                                    :     5  Spontaneous potential
~ASCII
# ...
  833.1408     1.7830     1.4550     1.2430    59.8720
  833.3408     1.7830     1.4600     1.2440    57.1360
  833.5408     1.7830     1.4740     1.3010    58.6780
  833.7408     1.7830     1.4810     1.7890    74.0200
  833.9408     1.7830     1.4970     2.0040    70.3180
  834.1408     1.7830     1.5290     1.5430    61.0420
  834.3408     1.7830     1.5880     1.1870    51.0000
  834.5408     1.7830     1.6060     1.2790    54.8560
  834.7408     1.7830     1.6050     1.6490    57.6170
  834.9408     1.7830     1.4010     2.6040    55.3920
  835.1408     1.7830     1.2950     2.8440    54.4710
  835.3408     1.7830     1.3510     2.7330    54.6640
  835.5408     1.7830     1.5160     2.2590    60.0600
  835.7408     1.7830     1.4860     2.0360    57.1730
  835.9408     1.7830     1.4030     1.8450    54.0970
  836.1408     1.7830     1.3340     1.6720    56.3490
  836.3408     1.7830     1.3750     1.4340    64.7700
  836.5408     1.7830     1.4160     1.3800    65.9490
  836.7408     1.7830     1.4550     1.3170    63.4460
  836.9408     1.7830     1.5270     1.2360    63.0020
  837.1408     1.7830     1.5730     1.4430    63.0750
  837.3408     1.7830     1.7030     1.5460    63.0200
  837.5408     1.7830     2.0770     1.5220    62.4390
  837.7408     1.7830     1.4840     1.5920    61.9930
  837.9408     1.7830     1.4540     1.5470    61.5960
  838.1408     1.7830     1.9650     1.2160    62.5710
  838.3408     1.7830     2.1740     1.5560    60.4630
  838.5408     1.7830     1.9400     2.0440    59.1430
  838.7408     1.7830     1.4940     2.9830    60.0880
  838.9408     1.7830     1.3610     3.3760    61.8650
  839.1408     1.7830     1.5370     3.2780    64.8610
  839.3408     1.7830     1.7930     2.7070    65.4740
  839.5408     1.7830     2.4140     1.9880    56.3330
  839.7408     1.7830     2.6090     1.2720    54.5550
  839.9408     1.7830     2.5370     1.6620    57.5170
  840.1408  -999.2500     2.4300     2.9960    50.3280
  840.3408  -999.2500     2.3460     3.7190    50.0750
  840.5408  -999.2500     2.0760     4.2860    53.1810
  840.7408  -999.2500     1.5410     5.4900    50.0100
  840.9408  -999.2500     1.4970     5.1840    47.5640
  841.1408  -999.2500     1.6200     4.6220    54.3730
  841.3408  -999.2500     2.0400     3.0650    58.4140
  841.5408  -999.2500     2.2780     2.2550    59.1800
  841.7408  -999.2500     2.4340     2.0950    59.4110
  841.9408  -999.2500     2.5120     2.2270    58.5860
  842.1408  -999.2500     2.3230     2.2720    60.1370
  842.3408  -999.2500     1.9620     2.3570    57.4010
  842.5408  -999.2500     1.6310     2.6490    52.8140
  842.7408  -999.2500     1.9630     3.7230    51.6190
  842.9408  -999.2500     2.2760     3.6570    55.4600
  843.1408  -999.2500     2.8480     3.1690    58.6160
  843.3408  -999.2500     3.5240     2.9850    55.4990
  843.5408  -999.2500     3.3740     3.4260    57.8480
  843.7408  -999.2500     3.0240     3.7870    61.6620
  843.9408  -999.2500     2.3580     3.8120    60.2500
  844.1408  -999.2500     2.2220     3.2830    59.6030
  844.3408  -999.2500     2.2620     3.1580    64.3440
  844.5408  -999.2500     2.4410     3.1050    56.7560
  844.7408  -999.2500     2.5660     2.7860    56.8710
  844.9408  -999.2500     2.6930     2.9080    56.6810
  845.1408  -999.2500     2.8290     2.7010    55.8890
  845.3408  -999.2500     2.8650     2.4850    57.3370
  845.5408  -999.2500     2.8780     2.4400    57.5910
  845.7408  -999.2500     2.8750     2.6330    59.3940
  845.9408  -999.2500     2.8360     3.2580    56.3480
  846.1408  -999.2500     2.8690     3.0220    58.7850
  846.3408  -999.2500     2.8860     2.2600    61.1100
  846.5408  -999.2500     2.7550     2.7480    55.2380
  846.7408  -999.2500     2.6850     2.7390    57.7540
  846.9408  -999.2500     2.6600     2.4350    59.7260
  847.1408  -999.2500     2.6600     2.2100    56.8340
  847.3408  -999.2500     2.6600     2.6390    60.4880
  847.5408  -999.2500     2.6370     3.0710    65.4360
  847.7408  -999.2500     2.4460     3.8500    53.4100
  847.9408  -999.2500     1.7360     4.4570    56.2880
  848.1408  -999.2500     1.3020     5.1830    60.1250
  848.3408  -999.2500     1.4020     5.7230    58.5060
  848.5408  -999.2500     1.7940     4.2060    56.6680
  848.7408  -999.2500     2.3940     3.3390    59.6490
  848.9408  -999.2500     2.6240     2.6670    64.0030
  849.1408  -999.2500     2.5280     1.8520    51.4890
  849.3408  -999.2500     2.5930     1.8340    55.1510
  849.5408  -999.2500     2.9330     2.1630    63.0720
  849.7408  -999.2500     3.3090     3.0510    55.7530
  849.9408  -999.2500     3.1180     3.9090    48.1690
  850.1408  -999.2500     2.9130     5.0120    41.6990
  850.3408  -999.2500     2.6490     3.6840    56.5710
  850.5408  -999.2500     2.7130     2.8580    58.8020
  850.7408  -999.2500     2.8430     2.3130    57.1970
  850.9408  -999.2500     2.8570     2.1860    66.5300
  851.1408  -999.2500     2.7250     2.1800    64.6220
  851.3408  -999.2500     2.6790     2.1860    68.5200
  851.5408  -999.2500     2.9420     2.5370    70.5870
  851.7408  -999.2500     2.9970     2.7330    66.7150
  851.9408  -999.2500     2.7110     2.8070    62.8440
  852.1408  -999.2500     2.4270     2.6100    63.9220
  852.3408  -999.2500     2.1660     2.2190    64.0480
  852.5408  -999.2500     2.0800     2.3860    61.4550
  852.7408  -999.2500     1.7930     2.6490    58.8610
  852.9408  -999.2500     1.2960     3.4570    60.8610
  853.1408  -999.2500     1.2370     3.6480    67.3080
  853.3408  -999.2500     1.3570     3.1590    66.1490
  853.5408  -999.2500     1.8060     2.3280    60.5420
  853.7408  -999.2500     2.0510     2.1430    63.4730
  853.9408  -999.2500     2.2720     1.6660    67.8580
  854.1408  -999.2500     1.6940     1.8210    60.4100
  854.3408  -999.2500     1.5120     2.3320    55.2180
  854.5408  -999.2500     1.6510     2.8460    58.6620
  854.7408  -999.2500     2.2160     3.9050    62.9310
  854.9408  -999.2500     2.3140     4.0360    61.9830
  855.1408  -999.2500     2.1230     3.3930    61.2590
  855.3408  -999.2500     2.0080     2.5190    63.1900
  855.5408  -999.2500     2.4490     1.4650    61.3580
  855.7408  -999.2500     2.4760     1.7690    61.7720
  855.9408  -999.2500     2.3720     2.1360    63.4560
  856.1408  -999.2500     2.3200     2.5260    63.9740
  856.3408  -999.2500     2.1440     2.2290    61.7820
  856.5408  -999.2500     1.5280     2.0800    62.3370
  856.7408  -999.2500      .9160     2.2810    61.7150
  856.9408  -999.2500      .9760     2.2710    62.2540
  857.1408  -999.2500      .9800     2.1180    62.9480
  857.3408  -999.2500     1.9310     2.4520    63.2330
  857.5408  -999.2500     2.8670     2.7270    64.4060
  857.7408  -999.2500     3.2870     2.3600    63.6670
  857.9408  -999.2500     3.0320     1.9110    67.5560
  858.1408  -999.2500     3.4140     2.3100    70.1810
  858.3408  -999.2500     3.7820     2.6640    56.0450
  858.5408  -999.2500     3.9990     2.9500    50.0440
  858.7408  -999.2500     2.9900     3.2580    65.2130
  858.9408  -999.2500     2.4170     3.1640    67.7180
  859.1408  -999.2500     2.9780     2.7060    66.3580
  859.3408  -999.2500     4.5960     1.9300    72.3910
  859.5408  -999.2500     4.5300     2.2180    64.1240
  859.7408  -999.2500     3.6550     2.7320    58.9350
  859.9408  -999.2500     2.8560     4.0140    55.4420
  860.1408  -999.2500     2.5530     3.5440    62.3420
  860.3408  -999.2500     2.2390     3.0400    69.1650
  860.5408  -999.2500     2.0200     3.6730    56.4690
  860.7408  -999.2500     2.3790     4.4460    50.1210
  860.9408  -999.2500     2.8640     5.0190    53.0030
  861.1408  -999.2500     3.7470     5.9970    55.5540
  861.3408  -999.2500     4.1400     5.4460    55.0370
  861.5408  -999.2500     4.2950     5.0410    54.4970
