~VERSION INFORMATION
VERS.                                                 2.0:   CWLS Log ASCII Standard-VERSION 2.0
WRAP.                                                  NO:   One line per depth step
~Well Information Block
STRT.M                                           745.5408:   Top Depth
STOP.M                                           861.6696:   Bottom Depth
STEP.M                                             .20000:   Depth Increment
NULL.                                            -999.250:   Null Value
FLD .                                         SCHOONEBEEK:   Field Name
WELL.                                      SCHOONEBEEK- 3:   NAME
EDF .m                                              15.12:   ELEV DRILL FLOOR
EPD .                                                   0:   ELEV PERM DATUM
EGL .m                                               12.8:   GROUND LEVEL
LMF .                                                  DF:   LOGS MEAS FROM
COMP.                                                BPME:   OPERATOR
PDAT.                                                 NAP:   PERM DATUM
SPUD.                                          2043/09/12:   SPUD DATE
UWBI.                                      11000074043001:   UWBI
WELL.                                      SCHOONEBEEK- 3:   HOLE NAME
~PARAMETER INFORMATION (log)
LNAM.                                RUN 02 RAW OH 7 3/5":   NAME
LTYP.                                                 02R:   LOG TYPE
LVSN.                                                   1:   LOG VERSION
BS  .3/5"                                               7:   BIT SIZE
BLI .M                                                862:   BOTTOM DEPTH LOGGED
BHIS.                                                MCCC:   BRIEF HISTORY
FHIS.                                     MERGE/COPY/COPY:   FULL HISTORY
MRT .                                                    :   MAX REC TEMP
DFD .                                                    :   MUD DENSITY
DFT .                                                 N/A:   MUD TYPE
RMS .                                                    :   RM
MST .                                                    :   RM TEMP
RMCS.                                                    :   RMC
MCST.                                                    :   RMC TEMP
RMFS.                                                    :   RMF
MFST.                                                    :   RMF TEMP
TCS .                                                 N/A:   TIME SINCE CIRCLN
TLI .M                                              745.5:   TOP DEPTH LOGGED
~Curve Information Block
#MNEM.UNIT                                        API CODE    No Description
#=========                                        ========    == ===========
DEPT.M                                       00 001 00 00:     1  DEPTH
ES.OHMM                                                  :     2  ELECTRICAL SURVEY
LN.OHMM                                                  :     3  LONG NORMAL
SN.OHMM                                                  :     4  SHORT NORMAL
SP.MV                                                    :     5  Spontaneous potential
~ASCII
  745.5408  -999.2500  -999.2500     2.6010    41.2170
  745.7408  -999.2500  -999.2500     2.6030    40.6080
  745.9408  -999.2500  -999.2500     2.5170    39.9770
  746.1408  -999.2500  -999.2500     2.4220    39.9750
  746.3408  -999.2500  -999.2500     2.3270    39.9750
  746.5408  -999.2500  -999.2500     2.1580    39.0160
  746.7408  -999.2500  -999.2500     2.1150    37.7830
  746.9408  -999.2500  -999.2500     2.1360    36.6470
  747.1408  -999.2500  -999.2500     2.2120    35.6420
  747.3408  -999.2500  -999.2500     2.3140    35.3350
  747.5408  -999.2500  -999.2500     2.3780    35.9880
  747.7408  -999.2500  -999.2500     2.4020    36.4170
  747.9408  -999.2500  -999.2500     2.3520    36.6850
  748.1408  -999.2500  -999.2500     2.2910    36.7370
  748.3408  -999.2500  -999.2500     2.2660    36.7370
  748.5408  -999.2500  -999.2500     2.3650    36.7450
  748.7408  -999.2500  -999.2500     2.3710    36.9820
  748.9408  -999.2500  -999.2500     2.3540    37.3800
  749.1408  -999.2500  -999.2500     2.4710    38.6580
  749.3408  -999.2500  -999.2500     2.6620    39.2350
  749.5408  -999.2500  -999.2500     2.7420    38.9920
  749.7408  -999.2500  -999.2500     2.7850    35.7920
  749.9408  -999.2500  -999.2500     2.7190    33.9420
  750.1408  -999.2500  -999.2500     2.6310    34.2050
  750.3408  -999.2500  -999.2500     2.5530    36.2230
  750.5408  -999.2500  -999.2500     2.3230    37.9830
  750.7408  -999.2500  -999.2500     2.2540    37.7870
  750.9408  -999.2500  -999.2500     2.2530    37.6090
  751.1408  -999.2500  -999.2500     2.2700    38.0490
  751.3408  -999.2500  -999.2500     2.2890    38.6870
  751.5408  -999.2500  -999.2500     2.3140    39.5790
  751.7408  -999.2500  -999.2500     2.3630    40.2520
  751.9408  -999.2500  -999.2500     2.3820    41.2170
  752.1408  -999.2500  -999.2500     2.3920    42.5760
  752.3408  -999.2500  -999.2500     2.4130    40.8850
  752.5408  -999.2500  -999.2500     2.4250    38.4650
  752.7408  -999.2500  -999.2500     2.4380    37.6410
  752.9408  -999.2500  -999.2500     2.5010    40.2250
  753.1408  -999.2500  -999.2500     2.5590    41.4560
  753.3408  -999.2500  -999.2500     2.6220    41.7090
  753.5408  -999.2500  -999.2500     2.6530    39.9150
  753.7408  -999.2500  -999.2500     2.5950    39.5520
  753.9408  -999.2500  -999.2500     2.5410    40.8820
  754.1408  -999.2500  -999.2500     2.4850    41.6590
  754.3408  -999.2500  -999.2500     2.4090    42.1780
  754.5408  -999.2500  -999.2500     2.4210    41.4410
  754.7408  -999.2500  -999.2500     2.4490    40.9790
  754.9408  -999.2500  -999.2500     2.5100    40.7390
  755.1408  -999.2500  -999.2500     2.5270    40.8060
  755.3408  -999.2500  -999.2500     2.5540    40.8470
  755.5408  -999.2500  -999.2500     2.6420    40.6500
  755.7408  -999.2500  -999.2500     2.7170    40.2800
  755.9408  -999.2500  -999.2500     2.7780    39.7690
  756.1408  -999.2500  -999.2500     2.7830    38.5410
  756.3408  -999.2500  -999.2500     2.8260    37.8510
  756.5408  -999.2500  -999.2500     2.9110    37.2250
  756.7408  -999.2500  -999.2500     2.9920    36.9860
  756.9408  -999.2500  -999.2500     3.0270    41.3950
  757.1408  -999.2500  -999.2500     2.8070    42.5940
  757.3408  -999.2500  -999.2500     2.5260    41.4780
  757.5408  -999.2500  -999.2500     2.5470    37.3930
  757.7408  -999.2500  -999.2500     2.6190    37.9280
  757.9408  -999.2500  -999.2500     2.7360    37.5970
  758.1408  -999.2500  -999.2500     2.7050    36.8780
  758.3408  -999.2500  -999.2500     2.6340    37.0260
  758.5408  -999.2500  -999.2500     2.6690    37.5040
  758.7408  -999.2500  -999.2500     2.7650    39.2380
  758.9408  -999.2500  -999.2500     2.7510    41.6490
  759.1408  -999.2500  -999.2500     2.6340    43.5650
  759.3408  -999.2500  -999.2500     2.2770    43.8410
  759.5408  -999.2500  -999.2500     2.2320    43.6310
  759.7408  -999.2500  -999.2500     2.3130    43.5160
  759.9408  -999.2500  -999.2500     2.3880    43.7670
  760.1408  -999.2500  -999.2500     2.4440    44.2970
  760.3408  -999.2500  -999.2500     2.4310    44.4420
  760.5408  -999.2500  -999.2500     2.3980    44.1770
  760.7408  -999.2500  -999.2500     2.4310    42.8890
  760.9408  -999.2500  -999.2500     2.5270    42.6050
  761.1408  -999.2500  -999.2500     2.6830    42.4660
  761.3408  -999.2500  -999.2500     3.0090    42.4700
  761.5408  -999.2500  -999.2500     3.0790    42.5430
  761.7408  -999.2500  -999.2500     3.0300    42.5080
  761.9408  -999.2500  -999.2500     2.7570    42.1120
  762.1408  -999.2500  -999.2500     2.7530    42.0920
  762.3408  -999.2500  -999.2500     2.8810    42.0920
  762.5408  -999.2500  -999.2500     2.7930    41.4450
  762.7408  -999.2500  -999.2500     2.6910    40.5830
  762.9408  -999.2500  -999.2500     2.5980    40.0900
  763.1408  -999.2500  -999.2500     2.5100    40.1200
  763.3408  -999.2500  -999.2500     2.4660    43.3260
  763.5408  -999.2500  -999.2500     2.5090    45.3480
  763.7408  -999.2500  -999.2500     2.6610    46.3580
  763.9408  -999.2500  -999.2500     2.8700    46.1270
  764.1408  -999.2500  -999.2500     2.8200    47.3030
  764.3408  -999.2500  -999.2500     2.7340    47.1810
  764.5408  -999.2500  -999.2500     2.7230    43.4660
  764.7408  -999.2500  -999.2500     2.8230    41.1950
  764.9408  -999.2500  -999.2500     2.9500    40.0360
  765.1408  -999.2500  -999.2500     3.1850    37.3690
  765.3408  -999.2500  -999.2500     3.2040    36.0710
  765.5408  -999.2500  -999.2500     3.0480    34.9130
  765.7408  -999.2500  -999.2500     2.7860    34.2000
  765.9408  -999.2500  -999.2500     2.6770    34.3840
  766.1408  -999.2500  -999.2500     2.5820    34.4620
  766.3408  -999.2500  -999.2500     2.5330    34.2660
  766.5408  -999.2500  -999.2500     2.4280    33.6760
  766.7408  -999.2500  -999.2500     2.3340    33.2880
  766.9408  -999.2500  -999.2500     2.2100    34.5320
  767.1408  -999.2500  -999.2500     2.1630    37.8350
  767.3408  -999.2500  -999.2500     2.2710    39.4750
  767.5408  -999.2500  -999.2500     2.2960    41.0790
  767.7408  -999.2500  -999.2500     2.2470    43.1680
  767.9408  -999.2500  -999.2500     2.2370    42.7150
  768.1408  -999.2500  -999.2500     2.2880    42.4660
  768.3408  -999.2500  -999.2500     2.4800    42.7450
  768.5408  -999.2500  -999.2500     2.5620    43.3480
  768.7408  -999.2500  -999.2500     2.6440    44.2480
  768.9408  -999.2500  -999.2500     2.7530    43.0760
  769.1408  -999.2500  -999.2500     2.7370    41.3190
  769.3408  -999.2500  -999.2500     2.6710    38.1980
  769.5408  -999.2500  -999.2500     2.5680    38.0480
  769.7408  -999.2500  -999.2500     2.3830    38.3560
  769.9408  -999.2500  -999.2500     2.3220    40.3670
  770.1408  -999.2500  -999.2500     2.2760    40.6990
  770.3408  -999.2500  -999.2500     2.2530    37.7420
  770.5408  -999.2500  -999.2500     2.2590    36.1910
  770.7408  -999.2500  -999.2500     2.2780    34.7150
  770.9408  -999.2500  -999.2500     2.3250    33.8880
  771.1408  -999.2500  -999.2500     2.3570    34.4710
  771.3408  -999.2500  -999.2500     2.3860    37.3510
  771.5408  -999.2500  -999.2500     2.4280    35.0250
  771.7408  -999.2500  -999.2500     2.4280    33.5200
  771.9408  -999.2500  -999.2500     2.3910    32.3000
  772.1408  -999.2500  -999.2500     2.2380    37.0610
  772.3408  -999.2500  -999.2500     2.1550    37.6670
  772.5408  -999.2500  -999.2500     2.1030    37.6650
  772.7408  -999.2500  -999.2500     2.1030    37.6090
  772.9408  -999.2500  -999.2500     2.1740    37.9440
  773.1408  -999.2500  -999.2500     2.2270    38.1810
  773.3408  -999.2500  -999.2500     2.2800    38.2320
  773.5408  -999.2500  -999.2500     2.3330    38.0200
  773.7408  -999.2500  -999.2500     2.3480    37.9270
  773.9408  -999.2500  -999.2500     2.3530    37.8620
  774.1408  -999.2500  -999.2500     2.3510    38.1060
  774.3408  -999.2500  -999.2500     2.3400    38.3700
  774.5408  -999.2500  -999.2500     2.3290    38.8010
